<?xml version="1.0" encoding="utf-8"?>
<SerializeDataClass xmlns:xsi="http://www.w3.org/2001/XMLSchema-instance" xmlns:xsd="http://www.w3.org/2001/XMLSchema">
  <listposture>
    <posture>
      <time>2017-02-21T10:28:59.4576384+08:00</time>
      <mission_attitude>
        <time_boot_ms>45400000</time_boot_ms>
        <roll>-0.006981317</roll>
        <pitch>-0.06806784</pitch>
        <yaw>2.25147462</yaw>
        <rollspeed>0</rollspeed>
        <pitchspeed>0</pitchspeed>
        <yawspeed>0</yawspeed>
      </mission_attitude>
    </posture>
    <posture>
      <time>2017-02-21T10:29:00.4076927+08:00</time>
      <mission_attitude>
        <time_boot_ms>46360000</time_boot_ms>
        <roll>-0.006981317</roll>
        <pitch>-0.06806784</pitch>
        <yaw>2.23402143</yaw>
        <rollspeed>0</rollspeed>
        <pitchspeed>0</pitchspeed>
        <yawspeed>0</yawspeed>
      </mission_attitude>
    </posture>
    <posture>
      <time>2017-02-21T10:29:21.8069167+08:00</time>
      <mission_attitude>
        <time_boot_ms>67640000</time_boot_ms>
        <roll>-0.006981317</roll>
        <pitch>-0.06981317</pitch>
        <yaw>2.12930155</yaw>
        <rollspeed>0</rollspeed>
        <pitchspeed>0</pitchspeed>
        <yawspeed>0</yawspeed>
      </mission_attitude>
    </posture>
    <posture>
      <time>2017-02-21T10:29:22.8069739+08:00</time>
      <mission_attitude>
        <time_boot_ms>68620000</time_boot_ms>
        <roll>-0.006981317</roll>
        <pitch>-0.06981317</pitch>
        <yaw>2.25147462</yaw>
        <rollspeed>0</rollspeed>
        <pitchspeed>0</pitchspeed>
        <yawspeed>0</yawspeed>
      </mission_attitude>
    </posture>
    <posture>
      <time>2017-02-21T10:29:23.8070311+08:00</time>
      <mission_attitude>
        <time_boot_ms>69600000</time_boot_ms>
        <roll>-0.006981317</roll>
        <pitch>-0.06981317</pitch>
        <yaw>2.28638124</yaw>
        <rollspeed>0</rollspeed>
        <pitchspeed>0</pitchspeed>
        <yawspeed>0</yawspeed>
      </mission_attitude>
    </posture>
    <posture>
      <time>2017-02-21T10:29:24.8070883+08:00</time>
      <mission_attitude>
        <time_boot_ms>70600000</time_boot_ms>
        <roll>-0.006981317</roll>
        <pitch>-0.06981317</pitch>
        <yaw>2.30383468</yaw>
        <rollspeed>0</rollspeed>
        <pitchspeed>0</pitchspeed>
        <yawspeed>0</yawspeed>
      </mission_attitude>
    </posture>
    <posture>
      <time>2017-02-21T10:29:25.8071455+08:00</time>
      <mission_attitude>
        <time_boot_ms>71600000</time_boot_ms>
        <roll>-0.006981317</roll>
        <pitch>-0.06981317</pitch>
        <yaw>2.268928</yaw>
        <rollspeed>0</rollspeed>
        <pitchspeed>0</pitchspeed>
        <yawspeed>0</yawspeed>
      </mission_attitude>
    </posture>
    <posture>
      <time>2017-02-21T10:29:26.7571998+08:00</time>
      <mission_attitude>
        <time_boot_ms>72560000</time_boot_ms>
        <roll>-0.006981317</roll>
        <pitch>-0.06981317</pitch>
        <yaw>2.23402143</yaw>
        <rollspeed>0</rollspeed>
        <pitchspeed>0</pitchspeed>
        <yawspeed>0</yawspeed>
      </mission_attitude>
    </posture>
    <posture>
      <time>2017-02-21T10:29:27.7072541+08:00</time>
      <mission_attitude>
        <time_boot_ms>73520000</time_boot_ms>
        <roll>-0.006981317</roll>
        <pitch>-0.06981317</pitch>
        <yaw>2.25147462</yaw>
        <rollspeed>0</rollspeed>
        <pitchspeed>0</pitchspeed>
        <yawspeed>0</yawspeed>
      </mission_attitude>
    </posture>
    <posture>
      <time>2017-02-21T10:29:28.6573085+08:00</time>
      <mission_attitude>
        <time_boot_ms>74480000</time_boot_ms>
        <roll>-0.006981317</roll>
        <pitch>-0.06981317</pitch>
        <yaw>2.25147462</yaw>
        <rollspeed>0</rollspeed>
        <pitchspeed>0</pitchspeed>
        <yawspeed>0</yawspeed>
      </mission_attitude>
    </posture>
    <posture>
      <time>2017-02-21T10:29:29.6573657+08:00</time>
      <mission_attitude>
        <time_boot_ms>75440000</time_boot_ms>
        <roll>-0.006981317</roll>
        <pitch>-0.06981317</pitch>
        <yaw>2.23402143</yaw>
        <rollspeed>0</rollspeed>
        <pitchspeed>0</pitchspeed>
        <yawspeed>0</yawspeed>
      </mission_attitude>
    </posture>
    <posture>
      <time>2017-02-21T10:29:30.60742+08:00</time>
      <mission_attitude>
        <time_boot_ms>76400000</time_boot_ms>
        <roll>-0.006981317</roll>
        <pitch>-0.06981317</pitch>
        <yaw>2.23402143</yaw>
        <rollspeed>0</rollspeed>
        <pitchspeed>0</pitchspeed>
        <yawspeed>0</yawspeed>
      </mission_attitude>
    </posture>
    <posture>
      <time>2017-02-21T10:29:31.6074772+08:00</time>
      <mission_attitude>
        <time_boot_ms>77360000</time_boot_ms>
        <roll>-0.006981317</roll>
        <pitch>-0.06806784</pitch>
        <yaw>2.25147462</yaw>
        <rollspeed>0</rollspeed>
        <pitchspeed>0</pitchspeed>
        <yawspeed>0</yawspeed>
      </mission_attitude>
    </posture>
    <posture>
      <time>2017-02-21T10:29:32.5575316+08:00</time>
      <mission_attitude>
        <time_boot_ms>78320000</time_boot_ms>
        <roll>-0.006981317</roll>
        <pitch>-0.06806784</pitch>
        <yaw>2.25147462</yaw>
        <rollspeed>0</rollspeed>
        <pitchspeed>0</pitchspeed>
        <yawspeed>0</yawspeed>
      </mission_attitude>
    </posture>
    <posture>
      <time>2017-02-21T10:29:33.5075859+08:00</time>
      <mission_attitude>
        <time_boot_ms>79280000</time_boot_ms>
        <roll>-0.006981317</roll>
        <pitch>-0.06981317</pitch>
        <yaw>2.28638124</yaw>
        <rollspeed>0</rollspeed>
        <pitchspeed>0</pitchspeed>
        <yawspeed>0</yawspeed>
      </mission_attitude>
    </posture>
    <posture>
      <time>2017-02-21T10:29:34.4576402+08:00</time>
      <mission_attitude>
        <time_boot_ms>80240000</time_boot_ms>
        <roll>-0.006981317</roll>
        <pitch>-0.06981317</pitch>
        <yaw>2.28638124</yaw>
        <rollspeed>0</rollspeed>
        <pitchspeed>0</pitchspeed>
        <yawspeed>0</yawspeed>
      </mission_attitude>
    </posture>
    <posture>
      <time>2017-02-21T10:29:35.4576974+08:00</time>
      <mission_attitude>
        <time_boot_ms>81200000</time_boot_ms>
        <roll>-0.006981317</roll>
        <pitch>-0.06981317</pitch>
        <yaw>2.25147462</yaw>
        <rollspeed>0</rollspeed>
        <pitchspeed>0</pitchspeed>
        <yawspeed>0</yawspeed>
      </mission_attitude>
    </posture>
    <posture>
      <time>2017-02-21T10:29:36.4067517+08:00</time>
      <mission_attitude>
        <time_boot_ms>82160000</time_boot_ms>
        <roll>-0.006981317</roll>
        <pitch>-0.06981317</pitch>
        <yaw>2.23402143</yaw>
        <rollspeed>0</rollspeed>
        <pitchspeed>0</pitchspeed>
        <yawspeed>0</yawspeed>
      </mission_attitude>
    </posture>
    <posture>
      <time>2017-02-21T10:29:37.3568061+08:00</time>
      <mission_attitude>
        <time_boot_ms>83120000</time_boot_ms>
        <roll>-0.006981317</roll>
        <pitch>-0.06981317</pitch>
        <yaw>2.23402143</yaw>
        <rollspeed>0</rollspeed>
        <pitchspeed>0</pitchspeed>
        <yawspeed>0</yawspeed>
      </mission_attitude>
    </posture>
    <posture>
      <time>2017-02-21T10:29:38.3068604+08:00</time>
      <mission_attitude>
        <time_boot_ms>84080000</time_boot_ms>
        <roll>-0.006981317</roll>
        <pitch>-0.06981317</pitch>
        <yaw>2.23402143</yaw>
        <rollspeed>0</rollspeed>
        <pitchspeed>0</pitchspeed>
        <yawspeed>0</yawspeed>
      </mission_attitude>
    </posture>
    <posture>
      <time>2017-02-21T10:29:39.3069176+08:00</time>
      <mission_attitude>
        <time_boot_ms>85040000</time_boot_ms>
        <roll>-0.006981317</roll>
        <pitch>-0.06981317</pitch>
        <yaw>2.25147462</yaw>
        <rollspeed>0</rollspeed>
        <pitchspeed>0</pitchspeed>
        <yawspeed>0</yawspeed>
      </mission_attitude>
    </posture>
    <posture>
      <time>2017-02-21T10:29:40.2569719+08:00</time>
      <mission_attitude>
        <time_boot_ms>86000000</time_boot_ms>
        <roll>-0.006981317</roll>
        <pitch>-0.06981317</pitch>
        <yaw>2.23402143</yaw>
        <rollspeed>0</rollspeed>
        <pitchspeed>0</pitchspeed>
        <yawspeed>0</yawspeed>
      </mission_attitude>
    </posture>
    <posture>
      <time>2017-02-21T10:29:41.2070263+08:00</time>
      <mission_attitude>
        <time_boot_ms>86960000</time_boot_ms>
        <roll>-0.006981317</roll>
        <pitch>-0.06981317</pitch>
        <yaw>2.25147462</yaw>
        <rollspeed>0</rollspeed>
        <pitchspeed>0</pitchspeed>
        <yawspeed>0</yawspeed>
      </mission_attitude>
    </posture>
    <posture>
      <time>2017-02-21T10:29:42.2070835+08:00</time>
      <mission_attitude>
        <time_boot_ms>87920000</time_boot_ms>
        <roll>-0.006981317</roll>
        <pitch>-0.06981317</pitch>
        <yaw>2.268928</yaw>
        <rollspeed>0</rollspeed>
        <pitchspeed>0</pitchspeed>
        <yawspeed>0</yawspeed>
      </mission_attitude>
    </posture>
    <posture>
      <time>2017-02-21T10:29:43.1571378+08:00</time>
      <mission_attitude>
        <time_boot_ms>88880000</time_boot_ms>
        <roll>-0.006981317</roll>
        <pitch>-0.06981317</pitch>
        <yaw>2.28638124</yaw>
        <rollspeed>0</rollspeed>
        <pitchspeed>0</pitchspeed>
        <yawspeed>0</yawspeed>
      </mission_attitude>
    </posture>
    <posture>
      <time>2017-02-21T10:29:44.1071922+08:00</time>
      <mission_attitude>
        <time_boot_ms>89840000</time_boot_ms>
        <roll>-0.006981317</roll>
        <pitch>-0.06981317</pitch>
        <yaw>2.28638124</yaw>
        <rollspeed>0</rollspeed>
        <pitchspeed>0</pitchspeed>
        <yawspeed>0</yawspeed>
      </mission_attitude>
    </posture>
    <posture>
      <time>2017-02-21T10:29:45.0572465+08:00</time>
      <mission_attitude>
        <time_boot_ms>90800000</time_boot_ms>
        <roll>-0.006981317</roll>
        <pitch>-0.06981317</pitch>
        <yaw>2.23402143</yaw>
        <rollspeed>0</rollspeed>
        <pitchspeed>0</pitchspeed>
        <yawspeed>0</yawspeed>
      </mission_attitude>
    </posture>
    <posture>
      <time>2017-02-21T10:29:46.0573037+08:00</time>
      <mission_attitude>
        <time_boot_ms>91760000</time_boot_ms>
        <roll>-0.006981317</roll>
        <pitch>-0.06981317</pitch>
        <yaw>2.23402143</yaw>
        <rollspeed>0</rollspeed>
        <pitchspeed>0</pitchspeed>
        <yawspeed>0</yawspeed>
      </mission_attitude>
    </posture>
    <posture>
      <time>2017-02-21T10:29:47.007358+08:00</time>
      <mission_attitude>
        <time_boot_ms>92720000</time_boot_ms>
        <roll>-0.006981317</roll>
        <pitch>-0.06981317</pitch>
        <yaw>2.23402143</yaw>
        <rollspeed>0</rollspeed>
        <pitchspeed>0</pitchspeed>
        <yawspeed>0</yawspeed>
      </mission_attitude>
    </posture>
    <posture>
      <time>2017-02-21T10:29:48.0074152+08:00</time>
      <mission_attitude>
        <time_boot_ms>93680000</time_boot_ms>
        <roll>-0.006981317</roll>
        <pitch>-0.06981317</pitch>
        <yaw>2.23402143</yaw>
        <rollspeed>0</rollspeed>
        <pitchspeed>0</pitchspeed>
        <yawspeed>0</yawspeed>
      </mission_attitude>
    </posture>
    <posture>
      <time>2017-02-21T10:29:48.9574696+08:00</time>
      <mission_attitude>
        <time_boot_ms>94640000</time_boot_ms>
        <roll>-0.006981317</roll>
        <pitch>-0.06981317</pitch>
        <yaw>2.25147462</yaw>
        <rollspeed>0</rollspeed>
        <pitchspeed>0</pitchspeed>
        <yawspeed>0</yawspeed>
      </mission_attitude>
    </posture>
    <posture>
      <time>2017-02-21T10:29:49.9075239+08:00</time>
      <mission_attitude>
        <time_boot_ms>95600000</time_boot_ms>
        <roll>-0.006981317</roll>
        <pitch>-0.06981317</pitch>
        <yaw>2.25147462</yaw>
        <rollspeed>0</rollspeed>
        <pitchspeed>0</pitchspeed>
        <yawspeed>0</yawspeed>
      </mission_attitude>
    </posture>
    <posture>
      <time>2017-02-21T10:29:50.8575783+08:00</time>
      <mission_attitude>
        <time_boot_ms>96560000</time_boot_ms>
        <roll>-0.006981317</roll>
        <pitch>-0.06981317</pitch>
        <yaw>2.146755</yaw>
        <rollspeed>0</rollspeed>
        <pitchspeed>0</pitchspeed>
        <yawspeed>0</yawspeed>
      </mission_attitude>
    </posture>
    <posture>
      <time>2017-02-21T10:29:51.8576355+08:00</time>
      <mission_attitude>
        <time_boot_ms>97520000</time_boot_ms>
        <roll>-0.006981317</roll>
        <pitch>-0.06981317</pitch>
        <yaw>2.268928</yaw>
        <rollspeed>0</rollspeed>
        <pitchspeed>0</pitchspeed>
        <yawspeed>0</yawspeed>
      </mission_attitude>
    </posture>
    <posture>
      <time>2017-02-21T10:29:52.8076898+08:00</time>
      <mission_attitude>
        <time_boot_ms>98480000</time_boot_ms>
        <roll>-0.006981317</roll>
        <pitch>-0.06981317</pitch>
        <yaw>2.28638124</yaw>
        <rollspeed>0</rollspeed>
        <pitchspeed>0</pitchspeed>
        <yawspeed>0</yawspeed>
      </mission_attitude>
    </posture>
    <posture>
      <time>2017-02-21T10:29:53.7567441+08:00</time>
      <mission_attitude>
        <time_boot_ms>99440000</time_boot_ms>
        <roll>-0.006981317</roll>
        <pitch>-0.06981317</pitch>
        <yaw>2.25147462</yaw>
        <rollspeed>0</rollspeed>
        <pitchspeed>0</pitchspeed>
        <yawspeed>0</yawspeed>
      </mission_attitude>
    </posture>
    <posture>
      <time>2017-02-21T10:29:54.7067984+08:00</time>
      <mission_attitude>
        <time_boot_ms>100400000</time_boot_ms>
        <roll>-0.006981317</roll>
        <pitch>-0.06981317</pitch>
        <yaw>2.25147462</yaw>
        <rollspeed>0</rollspeed>
        <pitchspeed>0</pitchspeed>
        <yawspeed>0</yawspeed>
      </mission_attitude>
    </posture>
    <posture>
      <time>2017-02-21T10:29:55.7068556+08:00</time>
      <mission_attitude>
        <time_boot_ms>101360000</time_boot_ms>
        <roll>-0.006981317</roll>
        <pitch>-0.06981317</pitch>
        <yaw>2.25147462</yaw>
        <rollspeed>0</rollspeed>
        <pitchspeed>0</pitchspeed>
        <yawspeed>0</yawspeed>
      </mission_attitude>
    </posture>
    <posture>
      <time>2017-02-21T10:29:56.7069128+08:00</time>
      <mission_attitude>
        <time_boot_ms>102320000</time_boot_ms>
        <roll>-0.006981317</roll>
        <pitch>-0.06981317</pitch>
        <yaw>2.25147462</yaw>
        <rollspeed>0</rollspeed>
        <pitchspeed>0</pitchspeed>
        <yawspeed>0</yawspeed>
      </mission_attitude>
    </posture>
    <posture>
      <time>2017-02-21T10:29:57.6069643+08:00</time>
      <mission_attitude>
        <time_boot_ms>103280000</time_boot_ms>
        <roll>-0.006981317</roll>
        <pitch>-0.06806784</pitch>
        <yaw>2.23402143</yaw>
        <rollspeed>0</rollspeed>
        <pitchspeed>0</pitchspeed>
        <yawspeed>0</yawspeed>
      </mission_attitude>
    </posture>
    <posture>
      <time>2017-02-21T10:29:58.5570186+08:00</time>
      <mission_attitude>
        <time_boot_ms>104240000</time_boot_ms>
        <roll>-0.006981317</roll>
        <pitch>-0.06806784</pitch>
        <yaw>2.23402143</yaw>
        <rollspeed>0</rollspeed>
        <pitchspeed>0</pitchspeed>
        <yawspeed>0</yawspeed>
      </mission_attitude>
    </posture>
    <posture>
      <time>2017-02-21T10:29:59.5570758+08:00</time>
      <mission_attitude>
        <time_boot_ms>105200000</time_boot_ms>
        <roll>-0.006981317</roll>
        <pitch>-0.06806784</pitch>
        <yaw>2.23402143</yaw>
        <rollspeed>0</rollspeed>
        <pitchspeed>0</pitchspeed>
        <yawspeed>0</yawspeed>
      </mission_attitude>
    </posture>
    <posture>
      <time>2017-02-21T10:30:00.5071302+08:00</time>
      <mission_attitude>
        <time_boot_ms>106160000</time_boot_ms>
        <roll>-0.006981317</roll>
        <pitch>-0.06806784</pitch>
        <yaw>2.25147462</yaw>
        <rollspeed>0</rollspeed>
        <pitchspeed>0</pitchspeed>
        <yawspeed>0</yawspeed>
      </mission_attitude>
    </posture>
    <posture>
      <time>2017-02-21T10:30:01.5071874+08:00</time>
      <mission_attitude>
        <time_boot_ms>107120000</time_boot_ms>
        <roll>-0.006981317</roll>
        <pitch>-0.06806784</pitch>
        <yaw>2.30383468</yaw>
        <rollspeed>0</rollspeed>
        <pitchspeed>0</pitchspeed>
        <yawspeed>0</yawspeed>
      </mission_attitude>
    </posture>
    <posture>
      <time>2017-02-21T10:30:02.4572417+08:00</time>
      <mission_attitude>
        <time_boot_ms>108080000</time_boot_ms>
        <roll>-0.006981317</roll>
        <pitch>-0.06981317</pitch>
        <yaw>2.30383468</yaw>
        <rollspeed>0</rollspeed>
        <pitchspeed>0</pitchspeed>
        <yawspeed>0</yawspeed>
      </mission_attitude>
    </posture>
    <posture>
      <time>2017-02-21T10:30:23.1574257+08:00</time>
      <mission_attitude>
        <time_boot_ms>128700000</time_boot_ms>
        <roll>-0.02268928</roll>
        <pitch>-0.06981317</pitch>
        <yaw>2.54818058</yaw>
        <rollspeed>0</rollspeed>
        <pitchspeed>0</pitchspeed>
        <yawspeed>0</yawspeed>
      </mission_attitude>
    </posture>
    <posture>
      <time>2017-02-21T10:30:24.2074858+08:00</time>
      <mission_attitude>
        <time_boot_ms>129700000</time_boot_ms>
        <roll>-0.02268928</roll>
        <pitch>-0.06981317</pitch>
        <yaw>2.58308721</yaw>
        <rollspeed>0</rollspeed>
        <pitchspeed>0</pitchspeed>
        <yawspeed>0</yawspeed>
      </mission_attitude>
    </posture>
    <posture>
      <time>2017-02-21T10:30:25.2575458+08:00</time>
      <mission_attitude>
        <time_boot_ms>130760000</time_boot_ms>
        <roll>-0.02268928</roll>
        <pitch>-0.06806784</pitch>
        <yaw>2.565634</yaw>
        <rollspeed>0</rollspeed>
        <pitchspeed>0</pitchspeed>
        <yawspeed>0</yawspeed>
      </mission_attitude>
    </posture>
    <posture>
      <time>2017-02-21T10:30:26.257603+08:00</time>
      <mission_attitude>
        <time_boot_ms>131760000</time_boot_ms>
        <roll>-0.02268928</roll>
        <pitch>-0.06806784</pitch>
        <yaw>2.60054064</yaw>
        <rollspeed>0</rollspeed>
        <pitchspeed>0</pitchspeed>
        <yawspeed>0</yawspeed>
      </mission_attitude>
    </posture>
    <posture>
      <time>2017-02-21T10:30:27.2576602+08:00</time>
      <mission_attitude>
        <time_boot_ms>132740000</time_boot_ms>
        <roll>-0.02268928</roll>
        <pitch>-0.06806784</pitch>
        <yaw>2.60054064</yaw>
        <rollspeed>0</rollspeed>
        <pitchspeed>0</pitchspeed>
        <yawspeed>0</yawspeed>
      </mission_attitude>
    </posture>
    <posture>
      <time>2017-02-21T10:30:28.2077146+08:00</time>
      <mission_attitude>
        <time_boot_ms>133720000</time_boot_ms>
        <roll>-0.02268928</roll>
        <pitch>-0.06806784</pitch>
        <yaw>2.565634</yaw>
        <rollspeed>0</rollspeed>
        <pitchspeed>0</pitchspeed>
        <yawspeed>0</yawspeed>
      </mission_attitude>
    </posture>
    <posture>
      <time>2017-02-21T10:34:47.1075228+08:00</time>
      <mission_attitude>
        <time_boot_ms>1640000</time_boot_ms>
        <roll>-0.0261799376</roll>
        <pitch>-0.07853982</pitch>
        <yaw>0</yaw>
        <rollspeed>0</rollspeed>
        <pitchspeed>0</pitchspeed>
        <yawspeed>0</yawspeed>
      </mission_attitude>
    </posture>
    <posture>
      <time>2017-02-21T10:34:48.10758+08:00</time>
      <mission_attitude>
        <time_boot_ms>2660000</time_boot_ms>
        <roll>-0.02443461</roll>
        <pitch>-0.07853982</pitch>
        <yaw>1.91986215</yaw>
        <rollspeed>0</rollspeed>
        <pitchspeed>0</pitchspeed>
        <yawspeed>0</yawspeed>
      </mission_attitude>
    </posture>
    <posture>
      <time>2017-02-21T10:34:49.1076372+08:00</time>
      <mission_attitude>
        <time_boot_ms>3680000</time_boot_ms>
        <roll>-0.02268928</roll>
        <pitch>-0.07679448</pitch>
        <yaw>1.98967528</yaw>
        <rollspeed>0</rollspeed>
        <pitchspeed>0</pitchspeed>
        <yawspeed>0</yawspeed>
      </mission_attitude>
    </posture>
    <posture>
      <time>2017-02-21T10:34:50.1076944+08:00</time>
      <mission_attitude>
        <time_boot_ms>4660000</time_boot_ms>
        <roll>-0.01919862</roll>
        <pitch>-0.07679448</pitch>
        <yaw>2.05948853</yaw>
        <rollspeed>0</rollspeed>
        <pitchspeed>0</pitchspeed>
        <yawspeed>0</yawspeed>
      </mission_attitude>
    </posture>
    <posture>
      <time>2017-02-21T10:34:51.1067515+08:00</time>
      <mission_attitude>
        <time_boot_ms>5660000</time_boot_ms>
        <roll>-0.01919862</roll>
        <pitch>-0.07679448</pitch>
        <yaw>1.98967528</yaw>
        <rollspeed>0</rollspeed>
        <pitchspeed>0</pitchspeed>
        <yawspeed>0</yawspeed>
      </mission_attitude>
    </posture>
    <posture>
      <time>2017-02-21T10:34:52.1068087+08:00</time>
      <mission_attitude>
        <time_boot_ms>6680000</time_boot_ms>
        <roll>-0.01919862</roll>
        <pitch>-0.07679448</pitch>
        <yaw>2.146755</yaw>
        <rollspeed>0</rollspeed>
        <pitchspeed>0</pitchspeed>
        <yawspeed>0</yawspeed>
      </mission_attitude>
    </posture>
    <posture>
      <time>2017-02-21T10:34:53.1568688+08:00</time>
      <mission_attitude>
        <time_boot_ms>7680000</time_boot_ms>
        <roll>-0.01919862</roll>
        <pitch>-0.07679448</pitch>
        <yaw>2.61799383</yaw>
        <rollspeed>0</rollspeed>
        <pitchspeed>0</pitchspeed>
        <yawspeed>0</yawspeed>
      </mission_attitude>
    </posture>
    <posture>
      <time>2017-02-21T10:34:54.156926+08:00</time>
      <mission_attitude>
        <time_boot_ms>8700000</time_boot_ms>
        <roll>-0.01919862</roll>
        <pitch>-0.07679448</pitch>
        <yaw>2.58308721</yaw>
        <rollspeed>0</rollspeed>
        <pitchspeed>0</pitchspeed>
        <yawspeed>0</yawspeed>
      </mission_attitude>
    </posture>
    <posture>
      <time>2017-02-21T10:34:55.1569832+08:00</time>
      <mission_attitude>
        <time_boot_ms>9700000</time_boot_ms>
        <roll>-0.02094395</roll>
        <pitch>-0.0750491545</pitch>
        <yaw>2.53072739</yaw>
        <rollspeed>0</rollspeed>
        <pitchspeed>0</pitchspeed>
        <yawspeed>0</yawspeed>
      </mission_attitude>
    </posture>
    <posture>
      <time>2017-02-21T10:36:15.2075618+08:00</time>
      <mission_attitude>
        <time_boot_ms>660000</time_boot_ms>
        <roll>-0.0314159244</roll>
        <pitch>-0.07853982</pitch>
        <yaw>0</yaw>
        <rollspeed>0</rollspeed>
        <pitchspeed>0</pitchspeed>
        <yawspeed>0</yawspeed>
      </mission_attitude>
    </posture>
    <posture>
      <time>2017-02-21T10:36:16.207619+08:00</time>
      <mission_attitude>
        <time_boot_ms>1680000</time_boot_ms>
        <roll>-0.0314159244</roll>
        <pitch>-0.07679448</pitch>
        <yaw>0</yaw>
        <rollspeed>0</rollspeed>
        <pitchspeed>0</pitchspeed>
        <yawspeed>0</yawspeed>
      </mission_attitude>
    </posture>
    <posture>
      <time>2017-02-21T10:36:17.2576791+08:00</time>
      <mission_attitude>
        <time_boot_ms>2700000</time_boot_ms>
        <roll>-0.0296705961</roll>
        <pitch>-0.07679448</pitch>
        <yaw>1.91986215</yaw>
        <rollspeed>0</rollspeed>
        <pitchspeed>0</pitchspeed>
        <yawspeed>0</yawspeed>
      </mission_attitude>
    </posture>
    <posture>
      <time>2017-02-21T10:36:18.2567362+08:00</time>
      <mission_attitude>
        <time_boot_ms>3700000</time_boot_ms>
        <roll>-0.0296705961</roll>
        <pitch>-0.07679448</pitch>
        <yaw>1.88495553</yaw>
        <rollspeed>0</rollspeed>
        <pitchspeed>0</pitchspeed>
        <yawspeed>0</yawspeed>
      </mission_attitude>
    </posture>
    <posture>
      <time>2017-02-21T10:36:19.2567934+08:00</time>
      <mission_attitude>
        <time_boot_ms>4700000</time_boot_ms>
        <roll>-0.0296705961</roll>
        <pitch>-0.0750491545</pitch>
        <yaw>2.00712872</yaw>
        <rollspeed>0</rollspeed>
        <pitchspeed>0</pitchspeed>
        <yawspeed>0</yawspeed>
      </mission_attitude>
    </posture>
    <posture>
      <time>2017-02-21T10:36:20.3068535+08:00</time>
      <mission_attitude>
        <time_boot_ms>5700000</time_boot_ms>
        <roll>-0.0279252678</roll>
        <pitch>-0.0750491545</pitch>
        <yaw>1.95476878</yaw>
        <rollspeed>0</rollspeed>
        <pitchspeed>0</pitchspeed>
        <yawspeed>0</yawspeed>
      </mission_attitude>
    </posture>
    <posture>
      <time>2017-02-21T10:36:21.2569078+08:00</time>
      <mission_attitude>
        <time_boot_ms>6680000</time_boot_ms>
        <roll>-0.0279252678</roll>
        <pitch>-0.0750491545</pitch>
        <yaw>2.11184835</yaw>
        <rollspeed>0</rollspeed>
        <pitchspeed>0</pitchspeed>
        <yawspeed>0</yawspeed>
      </mission_attitude>
    </posture>
    <posture>
      <time>2017-02-21T10:36:22.256965+08:00</time>
      <mission_attitude>
        <time_boot_ms>7680000</time_boot_ms>
        <roll>-0.0279252678</roll>
        <pitch>-0.0750491545</pitch>
        <yaw>2.565634</yaw>
        <rollspeed>0</rollspeed>
        <pitchspeed>0</pitchspeed>
        <yawspeed>0</yawspeed>
      </mission_attitude>
    </posture>
    <posture>
      <time>2017-02-21T10:36:23.2570222+08:00</time>
      <mission_attitude>
        <time_boot_ms>8680000</time_boot_ms>
        <roll>-0.0279252678</roll>
        <pitch>-0.0750491545</pitch>
        <yaw>2.49582076</yaw>
        <rollspeed>0</rollspeed>
        <pitchspeed>0</pitchspeed>
        <yawspeed>0</yawspeed>
      </mission_attitude>
    </posture>
    <posture>
      <time>2017-02-21T10:36:24.2570794+08:00</time>
      <mission_attitude>
        <time_boot_ms>9660000</time_boot_ms>
        <roll>-0.0279252678</roll>
        <pitch>-0.0733038262</pitch>
        <yaw>2.53072739</yaw>
        <rollspeed>0</rollspeed>
        <pitchspeed>0</pitchspeed>
        <yawspeed>0</yawspeed>
      </mission_attitude>
    </posture>
    <posture>
      <time>2017-02-21T10:36:25.2571366+08:00</time>
      <mission_attitude>
        <time_boot_ms>10660000</time_boot_ms>
        <roll>-0.0279252678</roll>
        <pitch>-0.0733038262</pitch>
        <yaw>2.54818058</yaw>
        <rollspeed>0</rollspeed>
        <pitchspeed>0</pitchspeed>
        <yawspeed>0</yawspeed>
      </mission_attitude>
    </posture>
    <posture>
      <time>2017-02-21T10:36:26.2571938+08:00</time>
      <mission_attitude>
        <time_boot_ms>11660000</time_boot_ms>
        <roll>-0.0279252678</roll>
        <pitch>-0.0733038262</pitch>
        <yaw>2.53072739</yaw>
        <rollspeed>0</rollspeed>
        <pitchspeed>0</pitchspeed>
        <yawspeed>0</yawspeed>
      </mission_attitude>
    </posture>
    <posture>
      <time>2017-02-21T10:36:27.257251+08:00</time>
      <mission_attitude>
        <time_boot_ms>12660000</time_boot_ms>
        <roll>-0.0261799376</roll>
        <pitch>-0.0733038262</pitch>
        <yaw>2.54818058</yaw>
        <rollspeed>0</rollspeed>
        <pitchspeed>0</pitchspeed>
        <yawspeed>0</yawspeed>
      </mission_attitude>
    </posture>
    <posture>
      <time>2017-02-21T10:36:28.2573082+08:00</time>
      <mission_attitude>
        <time_boot_ms>13640000</time_boot_ms>
        <roll>-0.0261799376</roll>
        <pitch>-0.0733038262</pitch>
        <yaw>2.46091413</yaw>
        <rollspeed>0</rollspeed>
        <pitchspeed>0</pitchspeed>
        <yawspeed>0</yawspeed>
      </mission_attitude>
    </posture>
    <posture>
      <time>2017-02-21T10:36:29.2573654+08:00</time>
      <mission_attitude>
        <time_boot_ms>14620000</time_boot_ms>
        <roll>-0.0261799376</roll>
        <pitch>-0.0733038262</pitch>
        <yaw>2.49582076</yaw>
        <rollspeed>0</rollspeed>
        <pitchspeed>0</pitchspeed>
        <yawspeed>0</yawspeed>
      </mission_attitude>
    </posture>
    <posture>
      <time>2017-02-21T10:36:30.2574226+08:00</time>
      <mission_attitude>
        <time_boot_ms>15620000</time_boot_ms>
        <roll>-0.0261799376</roll>
        <pitch>-0.0733038262</pitch>
        <yaw>2.61799383</yaw>
        <rollspeed>0</rollspeed>
        <pitchspeed>0</pitchspeed>
        <yawspeed>0</yawspeed>
      </mission_attitude>
    </posture>
    <posture>
      <time>2017-02-21T10:36:32.257537+08:00</time>
      <mission_attitude>
        <time_boot_ms>16700000</time_boot_ms>
        <roll>-0.0261799376</roll>
        <pitch>-0.0733038262</pitch>
        <yaw>2.53072739</yaw>
        <rollspeed>0</rollspeed>
        <pitchspeed>0</pitchspeed>
        <yawspeed>0</yawspeed>
      </mission_attitude>
    </posture>
    <posture>
      <time>2017-02-21T10:36:33.2575942+08:00</time>
      <mission_attitude>
        <time_boot_ms>17660000</time_boot_ms>
        <roll>-0.0261799376</roll>
        <pitch>-0.0733038262</pitch>
        <yaw>2.53072739</yaw>
        <rollspeed>0</rollspeed>
        <pitchspeed>0</pitchspeed>
        <yawspeed>0</yawspeed>
      </mission_attitude>
    </posture>
    <posture>
      <time>2017-02-21T10:36:34.2076486+08:00</time>
      <mission_attitude>
        <time_boot_ms>18620000</time_boot_ms>
        <roll>-0.0261799376</roll>
        <pitch>-0.0733038262</pitch>
        <yaw>2.53072739</yaw>
        <rollspeed>0</rollspeed>
        <pitchspeed>0</pitchspeed>
        <yawspeed>0</yawspeed>
      </mission_attitude>
    </posture>
    <posture>
      <time>2017-02-21T10:36:35.2577086+08:00</time>
      <mission_attitude>
        <time_boot_ms>19620000</time_boot_ms>
        <roll>-0.0261799376</roll>
        <pitch>-0.0733038262</pitch>
        <yaw>2.53072739</yaw>
        <rollspeed>0</rollspeed>
        <pitchspeed>0</pitchspeed>
        <yawspeed>0</yawspeed>
      </mission_attitude>
    </posture>
    <posture>
      <time>2017-02-21T10:36:36.2567658+08:00</time>
      <mission_attitude>
        <time_boot_ms>20640000</time_boot_ms>
        <roll>-0.0261799376</roll>
        <pitch>-0.0715585</pitch>
        <yaw>2.565634</yaw>
        <rollspeed>0</rollspeed>
        <pitchspeed>0</pitchspeed>
        <yawspeed>0</yawspeed>
      </mission_attitude>
    </posture>
    <posture>
      <time>2017-02-21T10:36:37.2068201+08:00</time>
      <mission_attitude>
        <time_boot_ms>21620000</time_boot_ms>
        <roll>-0.0261799376</roll>
        <pitch>-0.0715585</pitch>
        <yaw>2.54818058</yaw>
        <rollspeed>0</rollspeed>
        <pitchspeed>0</pitchspeed>
        <yawspeed>0</yawspeed>
      </mission_attitude>
    </posture>
    <posture>
      <time>2017-02-21T10:36:38.2068773+08:00</time>
      <mission_attitude>
        <time_boot_ms>22580000</time_boot_ms>
        <roll>-0.0261799376</roll>
        <pitch>-0.0715585</pitch>
        <yaw>2.49582076</yaw>
        <rollspeed>0</rollspeed>
        <pitchspeed>0</pitchspeed>
        <yawspeed>0</yawspeed>
      </mission_attitude>
    </posture>
    <posture>
      <time>2017-02-21T10:36:39.1569316+08:00</time>
      <mission_attitude>
        <time_boot_ms>23540000</time_boot_ms>
        <roll>-0.0261799376</roll>
        <pitch>-0.0715585</pitch>
        <yaw>2.565634</yaw>
        <rollspeed>0</rollspeed>
        <pitchspeed>0</pitchspeed>
        <yawspeed>0</yawspeed>
      </mission_attitude>
    </posture>
    <posture>
      <time>2017-02-21T10:36:40.1569888+08:00</time>
      <mission_attitude>
        <time_boot_ms>24540000</time_boot_ms>
        <roll>-0.0261799376</roll>
        <pitch>-0.0715585</pitch>
        <yaw>2.54818058</yaw>
        <rollspeed>0</rollspeed>
        <pitchspeed>0</pitchspeed>
        <yawspeed>0</yawspeed>
      </mission_attitude>
    </posture>
    <posture>
      <time>2017-02-21T10:36:41.157046+08:00</time>
      <mission_attitude>
        <time_boot_ms>25500000</time_boot_ms>
        <roll>-0.0261799376</roll>
        <pitch>-0.0715585</pitch>
        <yaw>2.54818058</yaw>
        <rollspeed>0</rollspeed>
        <pitchspeed>0</pitchspeed>
        <yawspeed>0</yawspeed>
      </mission_attitude>
    </posture>
    <posture>
      <time>2017-02-21T10:36:42.1071004+08:00</time>
      <mission_attitude>
        <time_boot_ms>26460000</time_boot_ms>
        <roll>-0.0261799376</roll>
        <pitch>-0.0715585</pitch>
        <yaw>2.51327419</yaw>
        <rollspeed>0</rollspeed>
        <pitchspeed>0</pitchspeed>
        <yawspeed>0</yawspeed>
      </mission_attitude>
    </posture>
    <posture>
      <time>2017-02-21T10:36:43.0571547+08:00</time>
      <mission_attitude>
        <time_boot_ms>27440000</time_boot_ms>
        <roll>-0.0261799376</roll>
        <pitch>-0.0733038262</pitch>
        <yaw>2.565634</yaw>
        <rollspeed>0</rollspeed>
        <pitchspeed>0</pitchspeed>
        <yawspeed>0</yawspeed>
      </mission_attitude>
    </posture>
    <posture>
      <time>2017-02-21T10:36:44.0572119+08:00</time>
      <mission_attitude>
        <time_boot_ms>28400000</time_boot_ms>
        <roll>-0.0261799376</roll>
        <pitch>-0.0733038262</pitch>
        <yaw>2.53072739</yaw>
        <rollspeed>0</rollspeed>
        <pitchspeed>0</pitchspeed>
        <yawspeed>0</yawspeed>
      </mission_attitude>
    </posture>
    <posture>
      <time>2017-02-21T10:36:45.0072663+08:00</time>
      <mission_attitude>
        <time_boot_ms>29360000</time_boot_ms>
        <roll>-0.0261799376</roll>
        <pitch>-0.0715585</pitch>
        <yaw>2.51327419</yaw>
        <rollspeed>0</rollspeed>
        <pitchspeed>0</pitchspeed>
        <yawspeed>0</yawspeed>
      </mission_attitude>
    </posture>
    <posture>
      <time>2017-02-21T10:36:45.9573206+08:00</time>
      <mission_attitude>
        <time_boot_ms>30320000</time_boot_ms>
        <roll>-0.0261799376</roll>
        <pitch>-0.0715585</pitch>
        <yaw>2.54818058</yaw>
        <rollspeed>0</rollspeed>
        <pitchspeed>0</pitchspeed>
        <yawspeed>0</yawspeed>
      </mission_attitude>
    </posture>
    <posture>
      <time>2017-02-21T10:36:46.9573778+08:00</time>
      <mission_attitude>
        <time_boot_ms>31280000</time_boot_ms>
        <roll>-0.0261799376</roll>
        <pitch>-0.0715585</pitch>
        <yaw>2.46091413</yaw>
        <rollspeed>0</rollspeed>
        <pitchspeed>0</pitchspeed>
        <yawspeed>0</yawspeed>
      </mission_attitude>
    </posture>
    <posture>
      <time>2017-02-21T10:36:47.9074321+08:00</time>
      <mission_attitude>
        <time_boot_ms>32240000</time_boot_ms>
        <roll>-0.0261799376</roll>
        <pitch>-0.0715585</pitch>
        <yaw>2.49582076</yaw>
        <rollspeed>0</rollspeed>
        <pitchspeed>0</pitchspeed>
        <yawspeed>0</yawspeed>
      </mission_attitude>
    </posture>
    <posture>
      <time>2017-02-21T10:36:48.8574865+08:00</time>
      <mission_attitude>
        <time_boot_ms>33200000</time_boot_ms>
        <roll>-0.0261799376</roll>
        <pitch>-0.0715585</pitch>
        <yaw>2.565634</yaw>
        <rollspeed>0</rollspeed>
        <pitchspeed>0</pitchspeed>
        <yawspeed>0</yawspeed>
      </mission_attitude>
    </posture>
    <posture>
      <time>2017-02-21T10:36:49.8575437+08:00</time>
      <mission_attitude>
        <time_boot_ms>34160000</time_boot_ms>
        <roll>-0.0261799376</roll>
        <pitch>-0.0715585</pitch>
        <yaw>2.60054064</yaw>
        <rollspeed>0</rollspeed>
        <pitchspeed>0</pitchspeed>
        <yawspeed>0</yawspeed>
      </mission_attitude>
    </posture>
    <posture>
      <time>2017-02-21T10:36:50.807598+08:00</time>
      <mission_attitude>
        <time_boot_ms>35120000</time_boot_ms>
        <roll>-0.0261799376</roll>
        <pitch>-0.0715585</pitch>
        <yaw>2.565634</yaw>
        <rollspeed>0</rollspeed>
        <pitchspeed>0</pitchspeed>
        <yawspeed>0</yawspeed>
      </mission_attitude>
    </posture>
    <posture>
      <time>2017-02-21T10:36:51.7576524+08:00</time>
      <mission_attitude>
        <time_boot_ms>36080000</time_boot_ms>
        <roll>-0.0261799376</roll>
        <pitch>-0.0715585</pitch>
        <yaw>2.53072739</yaw>
        <rollspeed>0</rollspeed>
        <pitchspeed>0</pitchspeed>
        <yawspeed>0</yawspeed>
      </mission_attitude>
    </posture>
    <posture>
      <time>2017-02-21T10:39:04.0572195+08:00</time>
      <mission_attitude>
        <time_boot_ms>1660000</time_boot_ms>
        <roll>-0.008726646</roll>
        <pitch>-0.0349065848</pitch>
        <yaw>2.53072739</yaw>
        <rollspeed>0</rollspeed>
        <pitchspeed>0</pitchspeed>
        <yawspeed>0</yawspeed>
      </mission_attitude>
    </posture>
    <posture>
      <time>2017-02-21T10:39:05.0072738+08:00</time>
      <mission_attitude>
        <time_boot_ms>2660000</time_boot_ms>
        <roll>-0.00523598772</roll>
        <pitch>-0.0401425734</pitch>
        <yaw>2.53072739</yaw>
        <rollspeed>0</rollspeed>
        <pitchspeed>0</pitchspeed>
        <yawspeed>0</yawspeed>
      </mission_attitude>
    </posture>
    <posture>
      <time>2017-02-21T10:39:06.007331+08:00</time>
      <mission_attitude>
        <time_boot_ms>3660000</time_boot_ms>
        <roll>-0.00174532924</roll>
        <pitch>-0.04363323</pitch>
        <yaw>2.53072739</yaw>
        <rollspeed>0</rollspeed>
        <pitchspeed>0</pitchspeed>
        <yawspeed>0</yawspeed>
      </mission_attitude>
    </posture>
    <posture>
      <time>2017-02-21T10:39:07.0073882+08:00</time>
      <mission_attitude>
        <time_boot_ms>4640000</time_boot_ms>
        <roll>0</roll>
        <pitch>-0.04712389</pitch>
        <yaw>2.53072739</yaw>
        <rollspeed>0</rollspeed>
        <pitchspeed>0</pitchspeed>
        <yawspeed>0</yawspeed>
      </mission_attitude>
    </posture>
    <posture>
      <time>2017-02-21T10:39:08.0074454+08:00</time>
      <mission_attitude>
        <time_boot_ms>5640000</time_boot_ms>
        <roll>0.00174532924</roll>
        <pitch>-0.050614547</pitch>
        <yaw>2.53072739</yaw>
        <rollspeed>0</rollspeed>
        <pitchspeed>0</pitchspeed>
        <yawspeed>0</yawspeed>
      </mission_attitude>
    </posture>
    <posture>
      <time>2017-02-21T10:39:09.0075026+08:00</time>
      <mission_attitude>
        <time_boot_ms>6620000</time_boot_ms>
        <roll>0.00174532924</roll>
        <pitch>-0.0541052073</pitch>
        <yaw>2.53072739</yaw>
        <rollspeed>0</rollspeed>
        <pitchspeed>0</pitchspeed>
        <yawspeed>0</yawspeed>
      </mission_attitude>
    </posture>
    <posture>
      <time>2017-02-21T10:39:10.0075598+08:00</time>
      <mission_attitude>
        <time_boot_ms>7600000</time_boot_ms>
        <roll>0.00349065848</roll>
        <pitch>-0.0558505356</pitch>
        <yaw>2.53072739</yaw>
        <rollspeed>0</rollspeed>
        <pitchspeed>0</pitchspeed>
        <yawspeed>0</yawspeed>
      </mission_attitude>
    </posture>
    <posture>
      <time>2017-02-21T10:39:11.007617+08:00</time>
      <mission_attitude>
        <time_boot_ms>8580000</time_boot_ms>
        <roll>0.00174532924</roll>
        <pitch>-0.0575958639</pitch>
        <yaw>2.53072739</yaw>
        <rollspeed>0</rollspeed>
        <pitchspeed>-0.0174532924</pitchspeed>
        <yawspeed>0</yawspeed>
      </mission_attitude>
    </posture>
    <posture>
      <time>2017-02-21T10:39:12.0076742+08:00</time>
      <mission_attitude>
        <time_boot_ms>9580000</time_boot_ms>
        <roll>0.00174532924</roll>
        <pitch>-0.0593411922</pitch>
        <yaw>2.53072739</yaw>
        <rollspeed>0</rollspeed>
        <pitchspeed>0</pitchspeed>
        <yawspeed>0</yawspeed>
      </mission_attitude>
    </posture>
    <posture>
      <time>2017-02-21T10:39:13.0067314+08:00</time>
      <mission_attitude>
        <time_boot_ms>10600000</time_boot_ms>
        <roll>0</roll>
        <pitch>-0.0593411922</pitch>
        <yaw>2.53072739</yaw>
        <rollspeed>0</rollspeed>
        <pitchspeed>0</pitchspeed>
        <yawspeed>0</yawspeed>
      </mission_attitude>
    </posture>
    <posture>
      <time>2017-02-21T10:39:14.0067886+08:00</time>
      <mission_attitude>
        <time_boot_ms>11580000</time_boot_ms>
        <roll>0</roll>
        <pitch>-0.0593411922</pitch>
        <yaw>2.53072739</yaw>
        <rollspeed>0</rollspeed>
        <pitchspeed>0</pitchspeed>
        <yawspeed>0</yawspeed>
      </mission_attitude>
    </posture>
    <posture>
      <time>2017-02-21T10:39:14.9568429+08:00</time>
      <mission_attitude>
        <time_boot_ms>12560000</time_boot_ms>
        <roll>-0.00174532924</roll>
        <pitch>-0.0593411922</pitch>
        <yaw>2.53072739</yaw>
        <rollspeed>0</rollspeed>
        <pitchspeed>0</pitchspeed>
        <yawspeed>0</yawspeed>
      </mission_attitude>
    </posture>
    <posture>
      <time>2017-02-21T10:39:16.006903+08:00</time>
      <mission_attitude>
        <time_boot_ms>13540000</time_boot_ms>
        <roll>-0.00349065848</roll>
        <pitch>-0.0575958639</pitch>
        <yaw>2.53072739</yaw>
        <rollspeed>0</rollspeed>
        <pitchspeed>0</pitchspeed>
        <yawspeed>0</yawspeed>
      </mission_attitude>
    </posture>
    <posture>
      <time>2017-02-21T10:39:16.9569573+08:00</time>
      <mission_attitude>
        <time_boot_ms>14540000</time_boot_ms>
        <roll>-0.00523598772</roll>
        <pitch>-0.0558505356</pitch>
        <yaw>2.53072739</yaw>
        <rollspeed>0</rollspeed>
        <pitchspeed>0</pitchspeed>
        <yawspeed>0</yawspeed>
      </mission_attitude>
    </posture>
    <posture>
      <time>2017-02-21T10:39:17.9570145+08:00</time>
      <mission_attitude>
        <time_boot_ms>15520000</time_boot_ms>
        <roll>-0.008726646</roll>
        <pitch>-0.0558505356</pitch>
        <yaw>2.53072739</yaw>
        <rollspeed>0</rollspeed>
        <pitchspeed>0</pitchspeed>
        <yawspeed>0</yawspeed>
      </mission_attitude>
    </posture>
    <posture>
      <time>2017-02-21T10:39:18.9570717+08:00</time>
      <mission_attitude>
        <time_boot_ms>16500000</time_boot_ms>
        <roll>-0.0104719754</roll>
        <pitch>-0.0541052073</pitch>
        <yaw>2.53072739</yaw>
        <rollspeed>0</rollspeed>
        <pitchspeed>0</pitchspeed>
        <yawspeed>0</yawspeed>
      </mission_attitude>
    </posture>
    <posture>
      <time>2017-02-21T10:39:19.907126+08:00</time>
      <mission_attitude>
        <time_boot_ms>17480000</time_boot_ms>
        <roll>-0.0122173047</roll>
        <pitch>-0.0523598753</pitch>
        <yaw>2.53072739</yaw>
        <rollspeed>0</rollspeed>
        <pitchspeed>0</pitchspeed>
        <yawspeed>0</yawspeed>
      </mission_attitude>
    </posture>
    <posture>
      <time>2017-02-21T10:39:20.9071832+08:00</time>
      <mission_attitude>
        <time_boot_ms>18460000</time_boot_ms>
        <roll>-0.0157079622</roll>
        <pitch>-0.0523598753</pitch>
        <yaw>2.53072739</yaw>
        <rollspeed>0</rollspeed>
        <pitchspeed>0</pitchspeed>
        <yawspeed>0</yawspeed>
      </mission_attitude>
    </posture>
    <posture>
      <time>2017-02-21T10:39:21.9072404+08:00</time>
      <mission_attitude>
        <time_boot_ms>19440000</time_boot_ms>
        <roll>-0.01919862</roll>
        <pitch>-0.050614547</pitch>
        <yaw>2.53072739</yaw>
        <rollspeed>0</rollspeed>
        <pitchspeed>-0.0174532924</pitchspeed>
        <yawspeed>0.0174532924</yawspeed>
      </mission_attitude>
    </posture>
    <posture>
      <time>2017-02-21T10:39:22.8572948+08:00</time>
      <mission_attitude>
        <time_boot_ms>20420000</time_boot_ms>
        <roll>-0.02094395</roll>
        <pitch>-0.050614547</pitch>
        <yaw>2.53072739</yaw>
        <rollspeed>0</rollspeed>
        <pitchspeed>0</pitchspeed>
        <yawspeed>0</yawspeed>
      </mission_attitude>
    </posture>
    <posture>
      <time>2017-02-21T10:39:23.9073548+08:00</time>
      <mission_attitude>
        <time_boot_ms>21420000</time_boot_ms>
        <roll>-0.02443461</roll>
        <pitch>-0.050614547</pitch>
        <yaw>2.53072739</yaw>
        <rollspeed>0.0174532924</rollspeed>
        <pitchspeed>-0.0174532924</pitchspeed>
        <yawspeed>0</yawspeed>
      </mission_attitude>
    </posture>
    <posture>
      <time>2017-02-21T10:39:24.8574092+08:00</time>
      <mission_attitude>
        <time_boot_ms>22400000</time_boot_ms>
        <roll>-0.01919862</roll>
        <pitch>-0.04537856</pitch>
        <yaw>2.49582076</yaw>
        <rollspeed>-0.0349065848</rollspeed>
        <pitchspeed>0.0523598753</pitchspeed>
        <yawspeed>0.34906584</yawspeed>
      </mission_attitude>
    </posture>
    <posture>
      <time>2017-02-21T10:39:25.8574664+08:00</time>
      <mission_attitude>
        <time_boot_ms>23380000</time_boot_ms>
        <roll>-0.006981317</roll>
        <pitch>-0.0575958639</pitch>
        <yaw>2.28638124</yaw>
        <rollspeed>0</rollspeed>
        <pitchspeed>-0.0174532924</pitchspeed>
        <yawspeed>0.08726646</yawspeed>
      </mission_attitude>
    </posture>
    <posture>
      <time>2017-02-21T10:39:26.8575236+08:00</time>
      <mission_attitude>
        <time_boot_ms>24380000</time_boot_ms>
        <roll>-0.0104719754</roll>
        <pitch>-0.0523598753</pitch>
        <yaw>2.216568</yaw>
        <rollspeed>0.0174532924</rollspeed>
        <pitchspeed>-0.0174532924</pitchspeed>
        <yawspeed>0</yawspeed>
      </mission_attitude>
    </posture>
    <posture>
      <time>2017-02-21T10:39:27.8575808+08:00</time>
      <mission_attitude>
        <time_boot_ms>25360000</time_boot_ms>
        <roll>-0.01919862</roll>
        <pitch>-0.0523598753</pitch>
        <yaw>2.23402143</yaw>
        <rollspeed>-0.0174532924</rollspeed>
        <pitchspeed>0</pitchspeed>
        <yawspeed>0</yawspeed>
      </mission_attitude>
    </posture>
    <posture>
      <time>2017-02-21T10:39:28.8076351+08:00</time>
      <mission_attitude>
        <time_boot_ms>26340000</time_boot_ms>
        <roll>-0.0401425734</roll>
        <pitch>-0.0261799376</pitch>
        <yaw>2.3561945</yaw>
        <rollspeed>0.0349065848</rollspeed>
        <pitchspeed>0.08726646</pitchspeed>
        <yawspeed>-1.23918378</yawspeed>
      </mission_attitude>
    </posture>
    <posture>
      <time>2017-02-21T10:39:29.8076923+08:00</time>
      <mission_attitude>
        <time_boot_ms>27320000</time_boot_ms>
        <roll>-0.0523598753</roll>
        <pitch>-0.0261799376</pitch>
        <yaw>2.67035365</yaw>
        <rollspeed>0</rollspeed>
        <pitchspeed>0</pitchspeed>
        <yawspeed>0</yawspeed>
      </mission_attitude>
    </posture>
    <posture>
      <time>2017-02-21T10:39:30.8067495+08:00</time>
      <mission_attitude>
        <time_boot_ms>28300000</time_boot_ms>
        <roll>-0.0541052073</roll>
        <pitch>-0.0261799376</pitch>
        <yaw>2.67035365</yaw>
        <rollspeed>0</rollspeed>
        <pitchspeed>0</pitchspeed>
        <yawspeed>0</yawspeed>
      </mission_attitude>
    </posture>
    <posture>
      <time>2017-02-21T10:39:31.8068067+08:00</time>
      <mission_attitude>
        <time_boot_ms>29300000</time_boot_ms>
        <roll>-0.0558505356</roll>
        <pitch>-0.0279252678</pitch>
        <yaw>2.67035365</yaw>
        <rollspeed>0</rollspeed>
        <pitchspeed>0</pitchspeed>
        <yawspeed>0</yawspeed>
      </mission_attitude>
    </posture>
    <posture>
      <time>2017-02-21T10:39:32.756861+08:00</time>
      <mission_attitude>
        <time_boot_ms>30280000</time_boot_ms>
        <roll>-0.0575958639</roll>
        <pitch>-0.0279252678</pitch>
        <yaw>2.65290046</yaw>
        <rollspeed>0</rollspeed>
        <pitchspeed>0.0349065848</pitchspeed>
        <yawspeed>0</yawspeed>
      </mission_attitude>
    </posture>
    <posture>
      <time>2017-02-21T10:39:33.8069211+08:00</time>
      <mission_attitude>
        <time_boot_ms>31260000</time_boot_ms>
        <roll>-0.0575958639</roll>
        <pitch>-0.0296705961</pitch>
        <yaw>2.67035365</yaw>
        <rollspeed>0.0174532924</rollspeed>
        <pitchspeed>0</pitchspeed>
        <yawspeed>0</yawspeed>
      </mission_attitude>
    </posture>
    <posture>
      <time>2017-02-21T10:39:34.7569754+08:00</time>
      <mission_attitude>
        <time_boot_ms>32260000</time_boot_ms>
        <roll>-0.0575958639</roll>
        <pitch>-0.0296705961</pitch>
        <yaw>2.65290046</yaw>
        <rollspeed>0</rollspeed>
        <pitchspeed>0.0349065848</pitchspeed>
        <yawspeed>0</yawspeed>
      </mission_attitude>
    </posture>
    <posture>
      <time>2017-02-21T10:39:35.7570326+08:00</time>
      <mission_attitude>
        <time_boot_ms>33240000</time_boot_ms>
        <roll>-0.0575958639</roll>
        <pitch>-0.0296705961</pitch>
        <yaw>2.65290046</yaw>
        <rollspeed>0</rollspeed>
        <pitchspeed>0</pitchspeed>
        <yawspeed>0</yawspeed>
      </mission_attitude>
    </posture>
    <posture>
      <time>2017-02-21T10:39:36.7570898+08:00</time>
      <mission_attitude>
        <time_boot_ms>34220000</time_boot_ms>
        <roll>-0.0593411922</roll>
        <pitch>-0.0296705961</pitch>
        <yaw>2.67035365</yaw>
        <rollspeed>0</rollspeed>
        <pitchspeed>0</pitchspeed>
        <yawspeed>0</yawspeed>
      </mission_attitude>
    </posture>
    <posture>
      <time>2017-02-21T10:39:37.757147+08:00</time>
      <mission_attitude>
        <time_boot_ms>35220000</time_boot_ms>
        <roll>-0.0593411922</roll>
        <pitch>-0.0296705961</pitch>
        <yaw>2.67035365</yaw>
        <rollspeed>0</rollspeed>
        <pitchspeed>0</pitchspeed>
        <yawspeed>0</yawspeed>
      </mission_attitude>
    </posture>
    <posture>
      <time>2017-02-21T10:39:38.7572042+08:00</time>
      <mission_attitude>
        <time_boot_ms>36220000</time_boot_ms>
        <roll>-0.0593411922</roll>
        <pitch>-0.0296705961</pitch>
        <yaw>2.67035365</yaw>
        <rollspeed>0</rollspeed>
        <pitchspeed>0</pitchspeed>
        <yawspeed>0</yawspeed>
      </mission_attitude>
    </posture>
    <posture>
      <time>2017-02-21T10:39:39.7572614+08:00</time>
      <mission_attitude>
        <time_boot_ms>37200000</time_boot_ms>
        <roll>-0.0593411922</roll>
        <pitch>-0.0296705961</pitch>
        <yaw>2.67035365</yaw>
        <rollspeed>0</rollspeed>
        <pitchspeed>0</pitchspeed>
        <yawspeed>0</yawspeed>
      </mission_attitude>
    </posture>
    <posture>
      <time>2017-02-21T10:39:40.7573186+08:00</time>
      <mission_attitude>
        <time_boot_ms>38200000</time_boot_ms>
        <roll>-0.0593411922</roll>
        <pitch>-0.0296705961</pitch>
        <yaw>2.67035365</yaw>
        <rollspeed>0</rollspeed>
        <pitchspeed>0</pitchspeed>
        <yawspeed>0</yawspeed>
      </mission_attitude>
    </posture>
    <posture>
      <time>2017-02-21T10:39:41.7573758+08:00</time>
      <mission_attitude>
        <time_boot_ms>39180000</time_boot_ms>
        <roll>-0.0593411922</roll>
        <pitch>-0.0314159244</pitch>
        <yaw>2.65290046</yaw>
        <rollspeed>0</rollspeed>
        <pitchspeed>0</pitchspeed>
        <yawspeed>0</yawspeed>
      </mission_attitude>
    </posture>
    <posture>
      <time>2017-02-21T10:39:42.7074301+08:00</time>
      <mission_attitude>
        <time_boot_ms>40160000</time_boot_ms>
        <roll>-0.0593411922</roll>
        <pitch>-0.0314159244</pitch>
        <yaw>2.67035365</yaw>
        <rollspeed>0</rollspeed>
        <pitchspeed>0</pitchspeed>
        <yawspeed>0</yawspeed>
      </mission_attitude>
    </posture>
    <posture>
      <time>2017-02-21T10:39:43.7074873+08:00</time>
      <mission_attitude>
        <time_boot_ms>41160000</time_boot_ms>
        <roll>-0.0593411922</roll>
        <pitch>-0.0314159244</pitch>
        <yaw>2.67035365</yaw>
        <rollspeed>0</rollspeed>
        <pitchspeed>0</pitchspeed>
        <yawspeed>0</yawspeed>
      </mission_attitude>
    </posture>
    <posture>
      <time>2017-02-21T10:39:44.7075445+08:00</time>
      <mission_attitude>
        <time_boot_ms>42140000</time_boot_ms>
        <roll>-0.0593411922</roll>
        <pitch>-0.0314159244</pitch>
        <yaw>2.67035365</yaw>
        <rollspeed>0</rollspeed>
        <pitchspeed>0</pitchspeed>
        <yawspeed>0</yawspeed>
      </mission_attitude>
    </posture>
    <posture>
      <time>2017-02-21T10:39:45.7076017+08:00</time>
      <mission_attitude>
        <time_boot_ms>43140000</time_boot_ms>
        <roll>-0.0593411922</roll>
        <pitch>-0.0314159244</pitch>
        <yaw>2.67035365</yaw>
        <rollspeed>0</rollspeed>
        <pitchspeed>0</pitchspeed>
        <yawspeed>0</yawspeed>
      </mission_attitude>
    </posture>
    <posture>
      <time>2017-02-21T10:39:46.7076589+08:00</time>
      <mission_attitude>
        <time_boot_ms>44140000</time_boot_ms>
        <roll>-0.0610865243</roll>
        <pitch>-0.0314159244</pitch>
        <yaw>2.67035365</yaw>
        <rollspeed>0</rollspeed>
        <pitchspeed>0</pitchspeed>
        <yawspeed>0</yawspeed>
      </mission_attitude>
    </posture>
    <posture>
      <time>2017-02-21T10:39:47.7077161+08:00</time>
      <mission_attitude>
        <time_boot_ms>45120000</time_boot_ms>
        <roll>-0.0610865243</roll>
        <pitch>-0.0314159244</pitch>
        <yaw>2.67035365</yaw>
        <rollspeed>0</rollspeed>
        <pitchspeed>0</pitchspeed>
        <yawspeed>0</yawspeed>
      </mission_attitude>
    </posture>
    <posture>
      <time>2017-02-21T10:39:48.6567704+08:00</time>
      <mission_attitude>
        <time_boot_ms>46100000</time_boot_ms>
        <roll>-0.0610865243</roll>
        <pitch>-0.0314159244</pitch>
        <yaw>2.65290046</yaw>
        <rollspeed>0</rollspeed>
        <pitchspeed>0</pitchspeed>
        <yawspeed>0</yawspeed>
      </mission_attitude>
    </posture>
    <posture>
      <time>2017-02-21T10:39:49.6568276+08:00</time>
      <mission_attitude>
        <time_boot_ms>47080000</time_boot_ms>
        <roll>-0.0610865243</roll>
        <pitch>-0.0314159244</pitch>
        <yaw>2.67035365</yaw>
        <rollspeed>0</rollspeed>
        <pitchspeed>0</pitchspeed>
        <yawspeed>0</yawspeed>
      </mission_attitude>
    </posture>
    <posture>
      <time>2017-02-21T10:39:50.6568848+08:00</time>
      <mission_attitude>
        <time_boot_ms>48080000</time_boot_ms>
        <roll>-0.0610865243</roll>
        <pitch>-0.0314159244</pitch>
        <yaw>2.65290046</yaw>
        <rollspeed>0</rollspeed>
        <pitchspeed>0</pitchspeed>
        <yawspeed>0</yawspeed>
      </mission_attitude>
    </posture>
    <posture>
      <time>2017-02-21T10:39:51.656942+08:00</time>
      <mission_attitude>
        <time_boot_ms>49080000</time_boot_ms>
        <roll>-0.0610865243</roll>
        <pitch>-0.0314159244</pitch>
        <yaw>2.65290046</yaw>
        <rollspeed>0</rollspeed>
        <pitchspeed>0</pitchspeed>
        <yawspeed>0</yawspeed>
      </mission_attitude>
    </posture>
    <posture>
      <time>2017-02-21T10:39:52.6569992+08:00</time>
      <mission_attitude>
        <time_boot_ms>50060000</time_boot_ms>
        <roll>-0.0610865243</roll>
        <pitch>-0.0314159244</pitch>
        <yaw>2.67035365</yaw>
        <rollspeed>0</rollspeed>
        <pitchspeed>0</pitchspeed>
        <yawspeed>0</yawspeed>
      </mission_attitude>
    </posture>
    <posture>
      <time>2017-02-21T10:39:53.6570564+08:00</time>
      <mission_attitude>
        <time_boot_ms>51040000</time_boot_ms>
        <roll>-0.0610865243</roll>
        <pitch>-0.0331612565</pitch>
        <yaw>2.67035365</yaw>
        <rollspeed>0</rollspeed>
        <pitchspeed>0</pitchspeed>
        <yawspeed>0</yawspeed>
      </mission_attitude>
    </posture>
    <posture>
      <time>2017-02-21T10:39:54.6571136+08:00</time>
      <mission_attitude>
        <time_boot_ms>52020000</time_boot_ms>
        <roll>-0.0610865243</roll>
        <pitch>-0.0314159244</pitch>
        <yaw>2.65290046</yaw>
        <rollspeed>0</rollspeed>
        <pitchspeed>0</pitchspeed>
        <yawspeed>0</yawspeed>
      </mission_attitude>
    </posture>
    <posture>
      <time>2017-02-21T10:39:55.607168+08:00</time>
      <mission_attitude>
        <time_boot_ms>53000000</time_boot_ms>
        <roll>-0.0610865243</roll>
        <pitch>-0.0331612565</pitch>
        <yaw>2.65290046</yaw>
        <rollspeed>0</rollspeed>
        <pitchspeed>0</pitchspeed>
        <yawspeed>0</yawspeed>
      </mission_attitude>
    </posture>
    <posture>
      <time>2017-02-21T10:39:56.6072252+08:00</time>
      <mission_attitude>
        <time_boot_ms>54000000</time_boot_ms>
        <roll>-0.0610865243</roll>
        <pitch>-0.0331612565</pitch>
        <yaw>2.67035365</yaw>
        <rollspeed>0</rollspeed>
        <pitchspeed>0</pitchspeed>
        <yawspeed>0</yawspeed>
      </mission_attitude>
    </posture>
    <posture>
      <time>2017-02-21T10:39:57.6072824+08:00</time>
      <mission_attitude>
        <time_boot_ms>54980000</time_boot_ms>
        <roll>-0.0610865243</roll>
        <pitch>-0.0314159244</pitch>
        <yaw>2.67035365</yaw>
        <rollspeed>0</rollspeed>
        <pitchspeed>0</pitchspeed>
        <yawspeed>0</yawspeed>
      </mission_attitude>
    </posture>
    <posture>
      <time>2017-02-21T10:39:58.6073396+08:00</time>
      <mission_attitude>
        <time_boot_ms>55980000</time_boot_ms>
        <roll>-0.0610865243</roll>
        <pitch>-0.0314159244</pitch>
        <yaw>2.65290046</yaw>
        <rollspeed>0</rollspeed>
        <pitchspeed>0</pitchspeed>
        <yawspeed>0</yawspeed>
      </mission_attitude>
    </posture>
    <posture>
      <time>2017-02-21T10:39:59.6073968+08:00</time>
      <mission_attitude>
        <time_boot_ms>56960000</time_boot_ms>
        <roll>-0.0610865243</roll>
        <pitch>-0.0314159244</pitch>
        <yaw>2.67035365</yaw>
        <rollspeed>0</rollspeed>
        <pitchspeed>0</pitchspeed>
        <yawspeed>0</yawspeed>
      </mission_attitude>
    </posture>
    <posture>
      <time>2017-02-21T10:40:00.607454+08:00</time>
      <mission_attitude>
        <time_boot_ms>57960000</time_boot_ms>
        <roll>-0.0610865243</roll>
        <pitch>-0.0314159244</pitch>
        <yaw>2.67035365</yaw>
        <rollspeed>0</rollspeed>
        <pitchspeed>0</pitchspeed>
        <yawspeed>0</yawspeed>
      </mission_attitude>
    </posture>
    <posture>
      <time>2017-02-21T10:40:01.6075112+08:00</time>
      <mission_attitude>
        <time_boot_ms>58960000</time_boot_ms>
        <roll>-0.0610865243</roll>
        <pitch>-0.0314159244</pitch>
        <yaw>2.65290046</yaw>
        <rollspeed>0</rollspeed>
        <pitchspeed>0</pitchspeed>
        <yawspeed>0</yawspeed>
      </mission_attitude>
    </posture>
    <posture>
      <time>2017-02-21T10:40:02.6075684+08:00</time>
      <mission_attitude>
        <time_boot_ms>59960000</time_boot_ms>
        <roll>-0.0610865243</roll>
        <pitch>-0.0314159244</pitch>
        <yaw>2.67035365</yaw>
        <rollspeed>0</rollspeed>
        <pitchspeed>0</pitchspeed>
        <yawspeed>0</yawspeed>
      </mission_attitude>
    </posture>
    <posture>
      <time>2017-02-21T10:40:03.6576284+08:00</time>
      <mission_attitude>
        <time_boot_ms>61000000</time_boot_ms>
        <roll>-0.0610865243</roll>
        <pitch>-0.0331612565</pitch>
        <yaw>2.65290046</yaw>
        <rollspeed>0</rollspeed>
        <pitchspeed>0</pitchspeed>
        <yawspeed>0</yawspeed>
