<?xml version="1.0" encoding="utf-8"?>
<SerializeDataClass xmlns:xsi="http://www.w3.org/2001/XMLSchema-instance" xmlns:xsd="http://www.w3.org/2001/XMLSchema">
  <listposture>
    <posture>
      <time>2017-02-21T15:30:15.4432504+08:00</time>
      <mission_attitude>
        <time_boot_ms>31520000</time_boot_ms>
        <roll>-0.0139626339</roll>
        <pitch>-0.07679448</pitch>
        <yaw>2.1991148</yaw>
        <rollspeed>0</rollspeed>
        <pitchspeed>0</pitchspeed>
        <yawspeed>0</yawspeed>
      </mission_attitude>
    </posture>
    <posture>
      <time>2017-02-21T15:30:17.2433534+08:00</time>
      <mission_attitude>
        <time_boot_ms>33400000</time_boot_ms>
        <roll>-0.0139626339</roll>
        <pitch>-0.07679448</pitch>
        <yaw>2.1991148</yaw>
        <rollspeed>0</rollspeed>
        <pitchspeed>0</pitchspeed>
        <yawspeed>0</yawspeed>
      </mission_attitude>
    </posture>
    <posture>
      <time>2017-02-21T15:30:34.7433543+08:00</time>
      <mission_attitude>
        <time_boot_ms>50820000</time_boot_ms>
        <roll>-0.0314159244</roll>
        <pitch>-0.07853982</pitch>
        <yaw>2.09439516</yaw>
        <rollspeed>-0.0523598753</rollspeed>
        <pitchspeed>0</pitchspeed>
        <yawspeed>0</yawspeed>
      </mission_attitude>
    </posture>
    <posture>
      <time>2017-02-21T15:30:40.2936718+08:00</time>
      <mission_attitude>
        <time_boot_ms>56300000</time_boot_ms>
        <roll>-0.0157079622</roll>
        <pitch>-0.07679448</pitch>
        <yaw>2.268928</yaw>
        <rollspeed>0</rollspeed>
        <pitchspeed>0</pitchspeed>
        <yawspeed>0</yawspeed>
      </mission_attitude>
    </posture>
    <posture>
      <time>2017-02-21T15:30:42.5938033+08:00</time>
      <mission_attitude>
        <time_boot_ms>58580000</time_boot_ms>
        <roll>-0.0157079622</roll>
        <pitch>-0.07679448</pitch>
        <yaw>2.39110112</yaw>
        <rollspeed>0</rollspeed>
        <pitchspeed>0</pitchspeed>
        <yawspeed>0</yawspeed>
      </mission_attitude>
    </posture>
    <posture>
      <time>2017-02-21T15:30:53.6934382+08:00</time>
      <mission_attitude>
        <time_boot_ms>69660000</time_boot_ms>
        <roll>-0.04537856</roll>
        <pitch>-0.07679448</pitch>
        <yaw>2.32128787</yaw>
        <rollspeed>0</rollspeed>
        <pitchspeed>0</pitchspeed>
        <yawspeed>0</yawspeed>
      </mission_attitude>
    </posture>
    <posture>
      <time>2017-02-21T15:30:57.7436699+08:00</time>
      <mission_attitude>
        <time_boot_ms>73680000</time_boot_ms>
        <roll>-0.04537856</roll>
        <pitch>-0.07679448</pitch>
        <yaw>2.18166161</yaw>
        <rollspeed>0</rollspeed>
        <pitchspeed>0</pitchspeed>
        <yawspeed>0</yawspeed>
      </mission_attitude>
    </posture>
    <posture>
      <time>2017-02-21T15:30:59.7937871+08:00</time>
      <mission_attitude>
        <time_boot_ms>75700000</time_boot_ms>
        <roll>-0.04537856</roll>
        <pitch>-0.07679448</pitch>
        <yaw>2.39110112</yaw>
        <rollspeed>0</rollspeed>
        <pitchspeed>0</pitchspeed>
        <yawspeed>0</yawspeed>
      </mission_attitude>
    </posture>
    <posture>
      <time>2017-02-21T15:31:09.9433676+08:00</time>
      <mission_attitude>
        <time_boot_ms>85740000</time_boot_ms>
        <roll>-0.04712389</roll>
        <pitch>-0.07679448</pitch>
        <yaw>2.47836757</yaw>
        <rollspeed>0</rollspeed>
        <pitchspeed>0</pitchspeed>
        <yawspeed>0</yawspeed>
      </mission_attitude>
    </posture>
    <posture>
      <time>2017-02-21T15:31:20.9929996+08:00</time>
      <mission_attitude>
        <time_boot_ms>96780000</time_boot_ms>
        <roll>-0.04712389</roll>
        <pitch>-0.07679448</pitch>
        <yaw>2.25147462</yaw>
        <rollspeed>0</rollspeed>
        <pitchspeed>0</pitchspeed>
        <yawspeed>0</yawspeed>
      </mission_attitude>
    </posture>
    <posture>
      <time>2017-02-21T15:31:47.3935097+08:00</time>
      <mission_attitude>
        <time_boot_ms>8740000</time_boot_ms>
        <roll>-0.04537856</roll>
        <pitch>-0.07679448</pitch>
        <yaw>2.28638124</yaw>
        <rollspeed>0</rollspeed>
        <pitchspeed>0</pitchspeed>
        <yawspeed>0</yawspeed>
      </mission_attitude>
    </posture>
    <posture>
      <time>2017-02-21T15:31:56.7930473+08:00</time>
      <mission_attitude>
        <time_boot_ms>3720000</time_boot_ms>
        <roll>-0.04712389</roll>
        <pitch>-0.07679448</pitch>
        <yaw>2.42600751</yaw>
        <rollspeed>0</rollspeed>
        <pitchspeed>0</pitchspeed>
        <yawspeed>0</yawspeed>
      </mission_attitude>
    </posture>
    <posture>
      <time>2017-02-21T15:32:05.1435249+08:00</time>
      <mission_attitude>
        <time_boot_ms>1700000</time_boot_ms>
        <roll>-0.04712389</roll>
        <pitch>-0.07679448</pitch>
        <yaw>0</yaw>
        <rollspeed>0</rollspeed>
        <pitchspeed>0</pitchspeed>
        <yawspeed>0</yawspeed>
      </mission_attitude>
    </posture>
    <posture>
      <time>2017-02-21T15:32:07.1436393+08:00</time>
      <mission_attitude>
        <time_boot_ms>3720000</time_boot_ms>
        <roll>-0.04537856</roll>
        <pitch>-0.07679448</pitch>
        <yaw>2.443461</yaw>
        <rollspeed>0</rollspeed>
        <pitchspeed>0</pitchspeed>
        <yawspeed>0</yawspeed>
      </mission_attitude>
    </posture>
    <posture>
      <time>2017-02-21T15:32:08.1436965+08:00</time>
      <mission_attitude>
        <time_boot_ms>4700000</time_boot_ms>
        <roll>-0.04712389</roll>
        <pitch>-0.07679448</pitch>
        <yaw>2.37364769</yaw>
        <rollspeed>0</rollspeed>
        <pitchspeed>0</pitchspeed>
        <yawspeed>0</yawspeed>
      </mission_attitude>
    </posture>
    <posture>
      <time>2017-02-21T15:32:20.2433886+08:00</time>
      <mission_attitude>
        <time_boot_ms>16740000</time_boot_ms>
        <roll>-0.04712389</roll>
        <pitch>-0.07679448</pitch>
        <yaw>2.39110112</yaw>
        <rollspeed>0</rollspeed>
        <pitchspeed>0</pitchspeed>
        <yawspeed>0</yawspeed>
      </mission_attitude>
    </posture>
    <posture>
      <time>2017-02-21T15:32:26.2937346+08:00</time>
      <mission_attitude>
        <time_boot_ms>22780000</time_boot_ms>
        <roll>-0.0314159244</roll>
        <pitch>-0.0750491545</pitch>
        <yaw>2.39110112</yaw>
        <rollspeed>0</rollspeed>
        <pitchspeed>0</pitchspeed>
        <yawspeed>0</yawspeed>
      </mission_attitude>
    </posture>
    <posture>
      <time>2017-02-21T15:32:27.2937918+08:00</time>
      <mission_attitude>
        <time_boot_ms>23780000</time_boot_ms>
        <roll>-0.0314159244</roll>
        <pitch>-0.0750491545</pitch>
        <yaw>2.443461</yaw>
        <rollspeed>0</rollspeed>
        <pitchspeed>0</pitchspeed>
        <yawspeed>0</yawspeed>
      </mission_attitude>
    </posture>
    <posture>
      <time>2017-02-21T15:32:28.293849+08:00</time>
      <mission_attitude>
        <time_boot_ms>24780000</time_boot_ms>
        <roll>-0.0296705961</roll>
        <pitch>-0.0750491545</pitch>
        <yaw>2.46091413</yaw>
        <rollspeed>0</rollspeed>
        <pitchspeed>0</pitchspeed>
        <yawspeed>0</yawspeed>
      </mission_attitude>
    </posture>
    <posture>
      <time>2017-02-21T15:32:29.2939062+08:00</time>
      <mission_attitude>
        <time_boot_ms>25780000</time_boot_ms>
        <roll>-0.0314159244</roll>
        <pitch>-0.07679448</pitch>
        <yaw>2.46091413</yaw>
        <rollspeed>0</rollspeed>
        <pitchspeed>0</pitchspeed>
        <yawspeed>0</yawspeed>
      </mission_attitude>
    </posture>
    <posture>
      <time>2017-02-21T15:32:30.2929634+08:00</time>
      <mission_attitude>
        <time_boot_ms>26760000</time_boot_ms>
        <roll>-0.0314159244</roll>
        <pitch>-0.07679448</pitch>
        <yaw>2.40855432</yaw>
        <rollspeed>0</rollspeed>
        <pitchspeed>0</pitchspeed>
        <yawspeed>0</yawspeed>
      </mission_attitude>
    </posture>
    <posture>
      <time>2017-02-21T15:32:31.2930206+08:00</time>
      <mission_attitude>
        <time_boot_ms>27760000</time_boot_ms>
        <roll>-0.0296705961</roll>
        <pitch>-0.07679448</pitch>
        <yaw>2.49582076</yaw>
        <rollspeed>0</rollspeed>
        <pitchspeed>0</pitchspeed>
        <yawspeed>0</yawspeed>
      </mission_attitude>
    </posture>
    <posture>
      <time>2017-02-21T15:32:32.2930778+08:00</time>
      <mission_attitude>
        <time_boot_ms>28760000</time_boot_ms>
        <roll>-0.0296705961</roll>
        <pitch>-0.07679448</pitch>
        <yaw>2.443461</yaw>
        <rollspeed>0</rollspeed>
        <pitchspeed>0</pitchspeed>
        <yawspeed>0</yawspeed>
      </mission_attitude>
    </posture>
    <posture>
      <time>2017-02-21T15:32:33.293135+08:00</time>
      <mission_attitude>
        <time_boot_ms>29760000</time_boot_ms>
        <roll>-0.0296705961</roll>
        <pitch>-0.07679448</pitch>
        <yaw>2.39110112</yaw>
        <rollspeed>0</rollspeed>
        <pitchspeed>0</pitchspeed>
        <yawspeed>0</yawspeed>
      </mission_attitude>
    </posture>
    <posture>
      <time>2017-02-21T15:32:34.343195+08:00</time>
      <mission_attitude>
        <time_boot_ms>30780000</time_boot_ms>
        <roll>-0.0296705961</roll>
        <pitch>-0.07679448</pitch>
        <yaw>2.443461</yaw>
        <rollspeed>0</rollspeed>
        <pitchspeed>0</pitchspeed>
        <yawspeed>0</yawspeed>
      </mission_attitude>
    </posture>
    <posture>
      <time>2017-02-21T15:32:35.3432522+08:00</time>
      <mission_attitude>
        <time_boot_ms>31800000</time_boot_ms>
        <roll>-0.0296705961</roll>
        <pitch>-0.07679448</pitch>
        <yaw>2.40855432</yaw>
        <rollspeed>0</rollspeed>
        <pitchspeed>0</pitchspeed>
        <yawspeed>0</yawspeed>
      </mission_attitude>
    </posture>
    <posture>
      <time>2017-02-21T15:32:36.3933123+08:00</time>
      <mission_attitude>
        <time_boot_ms>32820000</time_boot_ms>
        <roll>-0.0296705961</roll>
        <pitch>-0.0750491545</pitch>
        <yaw>2.42600751</yaw>
        <rollspeed>0</rollspeed>
        <pitchspeed>0</pitchspeed>
        <yawspeed>0</yawspeed>
      </mission_attitude>
    </posture>
    <posture>
      <time>2017-02-21T15:32:37.3933695+08:00</time>
      <mission_attitude>
        <time_boot_ms>33820000</time_boot_ms>
        <roll>-0.0296705961</roll>
        <pitch>-0.07679448</pitch>
        <yaw>2.443461</yaw>
        <rollspeed>0</rollspeed>
        <pitchspeed>0</pitchspeed>
        <yawspeed>0</yawspeed>
      </mission_attitude>
    </posture>
    <posture>
      <time>2017-02-21T15:32:38.3934267+08:00</time>
      <mission_attitude>
        <time_boot_ms>34820000</time_boot_ms>
        <roll>-0.0296705961</roll>
        <pitch>-0.07679448</pitch>
        <yaw>2.46091413</yaw>
        <rollspeed>0</rollspeed>
        <pitchspeed>0</pitchspeed>
        <yawspeed>0</yawspeed>
      </mission_attitude>
    </posture>
    <posture>
      <time>2017-02-21T15:32:39.4434868+08:00</time>
      <mission_attitude>
        <time_boot_ms>35840000</time_boot_ms>
        <roll>-0.0314159244</roll>
        <pitch>-0.07679448</pitch>
        <yaw>2.443461</yaw>
        <rollspeed>0</rollspeed>
        <pitchspeed>0</pitchspeed>
        <yawspeed>0</yawspeed>
      </mission_attitude>
    </posture>
    <posture>
      <time>2017-02-21T15:32:40.3935411+08:00</time>
      <mission_attitude>
        <time_boot_ms>36820000</time_boot_ms>
        <roll>-0.0296705961</roll>
        <pitch>-0.0750491545</pitch>
        <yaw>2.46091413</yaw>
        <rollspeed>0</rollspeed>
        <pitchspeed>0</pitchspeed>
        <yawspeed>0</yawspeed>
      </mission_attitude>
    </posture>
    <posture>
      <time>2017-02-21T15:32:41.3935983+08:00</time>
      <mission_attitude>
        <time_boot_ms>37820000</time_boot_ms>
        <roll>-0.0261799376</roll>
        <pitch>-0.07679448</pitch>
        <yaw>2.46091413</yaw>
        <rollspeed>0</rollspeed>
        <pitchspeed>0</pitchspeed>
        <yawspeed>0</yawspeed>
      </mission_attitude>
    </posture>
    <posture>
      <time>2017-02-21T15:32:42.3936555+08:00</time>
      <mission_attitude>
        <time_boot_ms>38820000</time_boot_ms>
        <roll>-0.0261799376</roll>
        <pitch>-0.07679448</pitch>
        <yaw>2.443461</yaw>
        <rollspeed>0</rollspeed>
        <pitchspeed>0</pitchspeed>
        <yawspeed>0</yawspeed>
      </mission_attitude>
    </posture>
    <posture>
      <time>2017-02-21T15:32:43.3937127+08:00</time>
      <mission_attitude>
        <time_boot_ms>39820000</time_boot_ms>
        <roll>-0.0261799376</roll>
        <pitch>-0.07679448</pitch>
        <yaw>2.46091413</yaw>
        <rollspeed>0</rollspeed>
        <pitchspeed>0</pitchspeed>
        <yawspeed>0</yawspeed>
      </mission_attitude>
    </posture>
    <posture>
      <time>2017-02-21T15:32:44.4437728+08:00</time>
      <mission_attitude>
        <time_boot_ms>40820000</time_boot_ms>
        <roll>-0.0261799376</roll>
        <pitch>-0.0750491545</pitch>
        <yaw>2.42600751</yaw>
        <rollspeed>0</rollspeed>
        <pitchspeed>0</pitchspeed>
        <yawspeed>0</yawspeed>
      </mission_attitude>
    </posture>
    <posture>
      <time>2017-02-21T15:32:45.3938271+08:00</time>
      <mission_attitude>
        <time_boot_ms>41800000</time_boot_ms>
        <roll>-0.0261799376</roll>
        <pitch>-0.07679448</pitch>
        <yaw>2.40855432</yaw>
        <rollspeed>0</rollspeed>
        <pitchspeed>0</pitchspeed>
        <yawspeed>0</yawspeed>
      </mission_attitude>
    </posture>
    <posture>
      <time>2017-02-21T15:32:46.3938843+08:00</time>
      <mission_attitude>
        <time_boot_ms>42800000</time_boot_ms>
        <roll>-0.0261799376</roll>
        <pitch>-0.07679448</pitch>
        <yaw>2.42600751</yaw>
        <rollspeed>0</rollspeed>
        <pitchspeed>0</pitchspeed>
        <yawspeed>0</yawspeed>
      </mission_attitude>
    </posture>
    <posture>
      <time>2017-02-21T15:32:47.4429443+08:00</time>
      <mission_attitude>
        <time_boot_ms>43820000</time_boot_ms>
        <roll>-0.0261799376</roll>
        <pitch>-0.07679448</pitch>
        <yaw>2.37364769</yaw>
        <rollspeed>0</rollspeed>
        <pitchspeed>0</pitchspeed>
        <yawspeed>0</yawspeed>
      </mission_attitude>
    </posture>
    <posture>
      <time>2017-02-21T15:32:48.4430015+08:00</time>
      <mission_attitude>
        <time_boot_ms>44820000</time_boot_ms>
        <roll>-0.02443461</roll>
        <pitch>-0.07679448</pitch>
        <yaw>2.47836757</yaw>
        <rollspeed>0</rollspeed>
        <pitchspeed>0</pitchspeed>
        <yawspeed>0</yawspeed>
      </mission_attitude>
    </posture>
    <posture>
      <time>2017-02-21T15:32:49.4430587+08:00</time>
      <mission_attitude>
        <time_boot_ms>45820000</time_boot_ms>
        <roll>-0.02443461</roll>
        <pitch>-0.07679448</pitch>
        <yaw>2.443461</yaw>
        <rollspeed>0</rollspeed>
        <pitchspeed>0</pitchspeed>
        <yawspeed>0</yawspeed>
      </mission_attitude>
    </posture>
    <posture>
      <time>2017-02-21T15:32:50.4431159+08:00</time>
      <mission_attitude>
        <time_boot_ms>46800000</time_boot_ms>
        <roll>-0.02443461</roll>
        <pitch>-0.07679448</pitch>
        <yaw>2.47836757</yaw>
        <rollspeed>0</rollspeed>
        <pitchspeed>0</pitchspeed>
        <yawspeed>0</yawspeed>
      </mission_attitude>
    </posture>
    <posture>
      <time>2017-02-21T15:32:51.4431731+08:00</time>
      <mission_attitude>
        <time_boot_ms>47800000</time_boot_ms>
        <roll>-0.02443461</roll>
        <pitch>-0.07679448</pitch>
        <yaw>2.40855432</yaw>
        <rollspeed>0</rollspeed>
        <pitchspeed>0</pitchspeed>
        <yawspeed>0</yawspeed>
      </mission_attitude>
    </posture>
    <posture>
      <time>2017-02-21T15:32:52.4432303+08:00</time>
      <mission_attitude>
        <time_boot_ms>48800000</time_boot_ms>
        <roll>-0.02443461</roll>
        <pitch>-0.07679448</pitch>
        <yaw>2.40855432</yaw>
        <rollspeed>0</rollspeed>
        <pitchspeed>0</pitchspeed>
        <yawspeed>0</yawspeed>
      </mission_attitude>
    </posture>
    <posture>
      <time>2017-02-21T15:32:53.4432875+08:00</time>
      <mission_attitude>
        <time_boot_ms>49800000</time_boot_ms>
        <roll>-0.02443461</roll>
        <pitch>-0.07679448</pitch>
        <yaw>2.40855432</yaw>
        <rollspeed>0</rollspeed>
        <pitchspeed>0</pitchspeed>
        <yawspeed>0</yawspeed>
      </mission_attitude>
    </posture>
    <posture>
      <time>2017-02-21T15:32:54.4933476+08:00</time>
      <mission_attitude>
        <time_boot_ms>50820000</time_boot_ms>
        <roll>-0.02443461</roll>
        <pitch>-0.07679448</pitch>
        <yaw>2.39110112</yaw>
        <rollspeed>0</rollspeed>
        <pitchspeed>0</pitchspeed>
        <yawspeed>0</yawspeed>
      </mission_attitude>
    </posture>
    <posture>
      <time>2017-02-21T15:32:55.4434019+08:00</time>
      <mission_attitude>
        <time_boot_ms>51800000</time_boot_ms>
        <roll>-0.0261799376</roll>
        <pitch>-0.07679448</pitch>
        <yaw>2.46091413</yaw>
        <rollspeed>0</rollspeed>
        <pitchspeed>0</pitchspeed>
        <yawspeed>0</yawspeed>
      </mission_attitude>
    </posture>
    <posture>
      <time>2017-02-21T15:32:56.4434591+08:00</time>
      <mission_attitude>
        <time_boot_ms>52780000</time_boot_ms>
        <roll>-0.0261799376</roll>
        <pitch>-0.07679448</pitch>
        <yaw>2.42600751</yaw>
        <rollspeed>0</rollspeed>
        <pitchspeed>0</pitchspeed>
        <yawspeed>0</yawspeed>
      </mission_attitude>
    </posture>
    <posture>
      <time>2017-02-21T15:32:57.4435163+08:00</time>
      <mission_attitude>
        <time_boot_ms>53800000</time_boot_ms>
        <roll>-0.02443461</roll>
        <pitch>-0.07679448</pitch>
        <yaw>2.46091413</yaw>
        <rollspeed>0</rollspeed>
        <pitchspeed>0</pitchspeed>
        <yawspeed>0</yawspeed>
      </mission_attitude>
    </posture>
    <posture>
      <time>2017-02-21T15:32:58.4935764+08:00</time>
      <mission_attitude>
        <time_boot_ms>54800000</time_boot_ms>
        <roll>-0.02443461</roll>
        <pitch>-0.07679448</pitch>
        <yaw>2.49582076</yaw>
        <rollspeed>0</rollspeed>
        <pitchspeed>0</pitchspeed>
        <yawspeed>0</yawspeed>
      </mission_attitude>
    </posture>
    <posture>
      <time>2017-02-21T15:32:59.4936336+08:00</time>
      <mission_attitude>
        <time_boot_ms>55820000</time_boot_ms>
        <roll>-0.02443461</roll>
        <pitch>-0.07679448</pitch>
        <yaw>2.443461</yaw>
        <rollspeed>0</rollspeed>
        <pitchspeed>0</pitchspeed>
        <yawspeed>0</yawspeed>
      </mission_attitude>
    </posture>
    <posture>
      <time>2017-02-21T15:33:00.4936908+08:00</time>
      <mission_attitude>
        <time_boot_ms>56800000</time_boot_ms>
        <roll>-0.02443461</roll>
        <pitch>-0.07679448</pitch>
        <yaw>2.37364769</yaw>
        <rollspeed>0</rollspeed>
        <pitchspeed>0</pitchspeed>
        <yawspeed>0</yawspeed>
      </mission_attitude>
    </posture>
    <posture>
      <time>2017-02-21T15:33:01.493748+08:00</time>
      <mission_attitude>
        <time_boot_ms>57800000</time_boot_ms>
        <roll>-0.0261799376</roll>
        <pitch>-0.07679448</pitch>
        <yaw>2.338741</yaw>
        <rollspeed>0</rollspeed>
        <pitchspeed>0</pitchspeed>
        <yawspeed>0</yawspeed>
      </mission_attitude>
    </posture>
    <posture>
      <time>2017-02-21T15:33:02.543808+08:00</time>
      <mission_attitude>
        <time_boot_ms>58820000</time_boot_ms>
        <roll>-0.02443461</roll>
        <pitch>-0.0750491545</pitch>
        <yaw>2.3561945</yaw>
        <rollspeed>0</rollspeed>
        <pitchspeed>0</pitchspeed>
        <yawspeed>0</yawspeed>
      </mission_attitude>
    </posture>
    <posture>
      <time>2017-02-21T15:33:03.4938624+08:00</time>
      <mission_attitude>
        <time_boot_ms>59820000</time_boot_ms>
        <roll>-0.02443461</roll>
        <pitch>-0.0750491545</pitch>
        <yaw>2.49582076</yaw>
        <rollspeed>0</rollspeed>
        <pitchspeed>0</pitchspeed>
        <yawspeed>0</yawspeed>
      </mission_attitude>
    </posture>
    <posture>
      <time>2017-02-21T15:33:04.4939196+08:00</time>
      <mission_attitude>
        <time_boot_ms>60820000</time_boot_ms>
        <roll>-0.0261799376</roll>
        <pitch>-0.07679448</pitch>
        <yaw>2.39110112</yaw>
        <rollspeed>0</rollspeed>
        <pitchspeed>0</pitchspeed>
        <yawspeed>0</yawspeed>
      </mission_attitude>
    </posture>
    <posture>
      <time>2017-02-21T15:33:05.5429796+08:00</time>
      <mission_attitude>
        <time_boot_ms>61820000</time_boot_ms>
        <roll>-0.0261799376</roll>
        <pitch>-0.07679448</pitch>
        <yaw>2.443461</yaw>
        <rollspeed>0</rollspeed>
        <pitchspeed>0</pitchspeed>
        <yawspeed>0</yawspeed>
      </mission_attitude>
    </posture>
    <posture>
      <time>2017-02-21T15:33:06.5430368+08:00</time>
      <mission_attitude>
        <time_boot_ms>62820000</time_boot_ms>
        <roll>-0.02443461</roll>
        <pitch>-0.07679448</pitch>
        <yaw>2.47836757</yaw>
        <rollspeed>0</rollspeed>
        <pitchspeed>0</pitchspeed>
        <yawspeed>0</yawspeed>
      </mission_attitude>
    </posture>
    <posture>
      <time>2017-02-21T15:33:07.543094+08:00</time>
      <mission_attitude>
        <time_boot_ms>63800000</time_boot_ms>
        <roll>-0.02443461</roll>
        <pitch>-0.07679448</pitch>
        <yaw>2.46091413</yaw>
        <rollspeed>0</rollspeed>
        <pitchspeed>0</pitchspeed>
        <yawspeed>0</yawspeed>
      </mission_attitude>
    </posture>
    <posture>
      <time>2017-02-21T15:33:08.5431512+08:00</time>
      <mission_attitude>
        <time_boot_ms>64820000</time_boot_ms>
        <roll>-0.02443461</roll>
        <pitch>-0.07679448</pitch>
        <yaw>2.49582076</yaw>
        <rollspeed>0</rollspeed>
        <pitchspeed>0</pitchspeed>
        <yawspeed>0</yawspeed>
      </mission_attitude>
    </posture>
    <posture>
      <time>2017-02-21T15:33:09.5432084+08:00</time>
      <mission_attitude>
        <time_boot_ms>65820000</time_boot_ms>
        <roll>-0.02268928</roll>
        <pitch>-0.07679448</pitch>
        <yaw>2.3561945</yaw>
        <rollspeed>0</rollspeed>
        <pitchspeed>0</pitchspeed>
        <yawspeed>0</yawspeed>
      </mission_attitude>
    </posture>
    <posture>
      <time>2017-02-21T15:33:10.4932627+08:00</time>
      <mission_attitude>
        <time_boot_ms>66800000</time_boot_ms>
        <roll>-0.02268928</roll>
        <pitch>-0.07679448</pitch>
        <yaw>2.443461</yaw>
        <rollspeed>0</rollspeed>
        <pitchspeed>0</pitchspeed>
        <yawspeed>0</yawspeed>
      </mission_attitude>
    </posture>
    <posture>
      <time>2017-02-21T15:33:11.5433228+08:00</time>
      <mission_attitude>
        <time_boot_ms>67820000</time_boot_ms>
        <roll>-0.02268928</roll>
        <pitch>-0.07679448</pitch>
        <yaw>2.443461</yaw>
        <rollspeed>0</rollspeed>
        <pitchspeed>0</pitchspeed>
        <yawspeed>0</yawspeed>
      </mission_attitude>
    </posture>
    <posture>
      <time>2017-02-21T15:33:12.5933828+08:00</time>
      <mission_attitude>
        <time_boot_ms>68840000</time_boot_ms>
        <roll>-0.02268928</roll>
        <pitch>-0.07679448</pitch>
        <yaw>2.39110112</yaw>
        <rollspeed>0</rollspeed>
        <pitchspeed>0</pitchspeed>
        <yawspeed>0</yawspeed>
      </mission_attitude>
    </posture>
    <posture>
      <time>2017-02-21T15:33:13.59344+08:00</time>
      <mission_attitude>
        <time_boot_ms>69840000</time_boot_ms>
        <roll>-0.02268928</roll>
        <pitch>-0.07679448</pitch>
        <yaw>2.46091413</yaw>
        <rollspeed>0</rollspeed>
        <pitchspeed>0</pitchspeed>
        <yawspeed>0</yawspeed>
      </mission_attitude>
    </posture>
    <posture>
      <time>2017-02-21T15:33:14.5934972+08:00</time>
      <mission_attitude>
        <time_boot_ms>70840000</time_boot_ms>
        <roll>-0.02268928</roll>
        <pitch>-0.07679448</pitch>
        <yaw>2.40855432</yaw>
        <rollspeed>0</rollspeed>
        <pitchspeed>0</pitchspeed>
        <yawspeed>0</yawspeed>
      </mission_attitude>
    </posture>
    <posture>
      <time>2017-02-21T15:33:15.5935544+08:00</time>
      <mission_attitude>
        <time_boot_ms>71820000</time_boot_ms>
        <roll>-0.02268928</roll>
        <pitch>-0.07679448</pitch>
        <yaw>2.39110112</yaw>
        <rollspeed>0</rollspeed>
        <pitchspeed>0</pitchspeed>
        <yawspeed>0</yawspeed>
      </mission_attitude>
    </posture>
    <posture>
      <time>2017-02-21T15:33:16.5936116+08:00</time>
      <mission_attitude>
        <time_boot_ms>72820000</time_boot_ms>
        <roll>-0.02268928</roll>
        <pitch>-0.07679448</pitch>
        <yaw>2.49582076</yaw>
        <rollspeed>0</rollspeed>
        <pitchspeed>0</pitchspeed>
        <yawspeed>0</yawspeed>
      </mission_attitude>
    </posture>
    <posture>
      <time>2017-02-21T15:33:17.5936688+08:00</time>
      <mission_attitude>
        <time_boot_ms>73820000</time_boot_ms>
        <roll>-0.02268928</roll>
        <pitch>-0.07679448</pitch>
        <yaw>2.47836757</yaw>
        <rollspeed>0</rollspeed>
        <pitchspeed>0</pitchspeed>
        <yawspeed>0</yawspeed>
      </mission_attitude>
    </posture>
    <posture>
      <time>2017-02-21T15:33:18.593726+08:00</time>
      <mission_attitude>
        <time_boot_ms>74820000</time_boot_ms>
        <roll>-0.02268928</roll>
        <pitch>-0.07679448</pitch>
        <yaw>2.47836757</yaw>
        <rollspeed>0</rollspeed>
        <pitchspeed>0</pitchspeed>
        <yawspeed>0</yawspeed>
      </mission_attitude>
    </posture>
    <posture>
      <time>2017-02-21T15:33:19.5937832+08:00</time>
      <mission_attitude>
        <time_boot_ms>75800000</time_boot_ms>
        <roll>-0.02268928</roll>
        <pitch>-0.07679448</pitch>
        <yaw>2.40855432</yaw>
        <rollspeed>0</rollspeed>
        <pitchspeed>0</pitchspeed>
        <yawspeed>0</yawspeed>
      </mission_attitude>
    </posture>
    <posture>
      <time>2017-02-21T15:33:20.5938404+08:00</time>
      <mission_attitude>
        <time_boot_ms>76820000</time_boot_ms>
        <roll>-0.02268928</roll>
        <pitch>-0.07679448</pitch>
        <yaw>2.443461</yaw>
        <rollspeed>0</rollspeed>
        <pitchspeed>0</pitchspeed>
        <yawspeed>0</yawspeed>
      </mission_attitude>
    </posture>
    <posture>
      <time>2017-02-21T15:33:21.5938976+08:00</time>
      <mission_attitude>
        <time_boot_ms>77800000</time_boot_ms>
        <roll>-0.02268928</roll>
        <pitch>-0.0750491545</pitch>
        <yaw>2.40855432</yaw>
        <rollspeed>0</rollspeed>
        <pitchspeed>0</pitchspeed>
        <yawspeed>0</yawspeed>
      </mission_attitude>
    </posture>
    <posture>
      <time>2017-02-21T15:33:22.5929548+08:00</time>
      <mission_attitude>
        <time_boot_ms>78780000</time_boot_ms>
        <roll>-0.02268928</roll>
        <pitch>-0.0750491545</pitch>
        <yaw>2.443461</yaw>
        <rollspeed>0</rollspeed>
        <pitchspeed>0</pitchspeed>
        <yawspeed>0</yawspeed>
      </mission_attitude>
    </posture>
    <posture>
      <time>2017-02-21T15:33:23.5430091+08:00</time>
      <mission_attitude>
        <time_boot_ms>79780000</time_boot_ms>
        <roll>-0.02268928</roll>
        <pitch>-0.0750491545</pitch>
        <yaw>2.39110112</yaw>
        <rollspeed>0</rollspeed>
        <pitchspeed>0</pitchspeed>
        <yawspeed>0</yawspeed>
      </mission_attitude>
    </posture>
    <posture>
      <time>2017-02-21T15:33:24.5430663+08:00</time>
      <mission_attitude>
        <time_boot_ms>80760000</time_boot_ms>
        <roll>-0.02268928</roll>
        <pitch>-0.0750491545</pitch>
        <yaw>2.39110112</yaw>
        <rollspeed>0</rollspeed>
        <pitchspeed>0</pitchspeed>
        <yawspeed>0</yawspeed>
      </mission_attitude>
    </posture>
    <posture>
      <time>2017-02-21T15:33:25.5431235+08:00</time>
      <mission_attitude>
        <time_boot_ms>81740000</time_boot_ms>
        <roll>-0.02268928</roll>
        <pitch>-0.0750491545</pitch>
        <yaw>2.49582076</yaw>
        <rollspeed>0</rollspeed>
        <pitchspeed>0</pitchspeed>
        <yawspeed>0</yawspeed>
      </mission_attitude>
    </posture>
    <posture>
      <time>2017-02-21T15:33:26.5431807+08:00</time>
      <mission_attitude>
        <time_boot_ms>82720000</time_boot_ms>
        <roll>-0.02268928</roll>
        <pitch>-0.0750491545</pitch>
        <yaw>2.42600751</yaw>
        <rollspeed>0</rollspeed>
        <pitchspeed>0</pitchspeed>
        <yawspeed>0</yawspeed>
      </mission_attitude>
    </posture>
    <posture>
      <time>2017-02-21T15:33:27.493235+08:00</time>
      <mission_attitude>
        <time_boot_ms>83700000</time_boot_ms>
        <roll>-0.02268928</roll>
        <pitch>-0.0750491545</pitch>
        <yaw>2.443461</yaw>
        <rollspeed>0</rollspeed>
        <pitchspeed>0</pitchspeed>
        <yawspeed>0</yawspeed>
      </mission_attitude>
    </posture>
    <posture>
      <time>2017-02-21T15:33:28.4932922+08:00</time>
      <mission_attitude>
        <time_boot_ms>84680000</time_boot_ms>
        <roll>-0.02268928</roll>
        <pitch>-0.0750491545</pitch>
        <yaw>2.40855432</yaw>
        <rollspeed>0</rollspeed>
        <pitchspeed>0</pitchspeed>
        <yawspeed>0</yawspeed>
      </mission_attitude>
    </posture>
    <posture>
      <time>2017-02-21T15:33:29.4933494+08:00</time>
      <mission_attitude>
        <time_boot_ms>85680000</time_boot_ms>
        <roll>-0.02268928</roll>
        <pitch>-0.0750491545</pitch>
        <yaw>2.39110112</yaw>
        <rollspeed>0</rollspeed>
        <pitchspeed>0</pitchspeed>
        <yawspeed>0</yawspeed>
      </mission_attitude>
    </posture>
    <posture>
      <time>2017-02-21T15:33:30.4934066+08:00</time>
      <mission_attitude>
        <time_boot_ms>86680000</time_boot_ms>
        <roll>-0.02268928</roll>
        <pitch>-0.0750491545</pitch>
        <yaw>2.42600751</yaw>
        <rollspeed>0</rollspeed>
        <pitchspeed>0</pitchspeed>
        <yawspeed>0</yawspeed>
      </mission_attitude>
    </posture>
    <posture>
      <time>2017-02-21T15:33:31.4934638+08:00</time>
      <mission_attitude>
        <time_boot_ms>87680000</time_boot_ms>
        <roll>-0.02268928</roll>
        <pitch>-0.0750491545</pitch>
        <yaw>2.443461</yaw>
        <rollspeed>0</rollspeed>
        <pitchspeed>0</pitchspeed>
        <yawspeed>0</yawspeed>
      </mission_attitude>
    </posture>
    <posture>
      <time>2017-02-21T15:33:32.493521+08:00</time>
      <mission_attitude>
        <time_boot_ms>88660000</time_boot_ms>
        <roll>-0.02268928</roll>
        <pitch>-0.0750491545</pitch>
        <yaw>2.40855432</yaw>
        <rollspeed>0</rollspeed>
        <pitchspeed>0</pitchspeed>
        <yawspeed>0</yawspeed>
      </mission_attitude>
    </posture>
    <posture>
      <time>2017-02-21T15:33:33.4935782+08:00</time>
      <mission_attitude>
        <time_boot_ms>89640000</time_boot_ms>
        <roll>-0.02268928</roll>
        <pitch>-0.0750491545</pitch>
        <yaw>2.46091413</yaw>
        <rollspeed>0</rollspeed>
        <pitchspeed>0</pitchspeed>
        <yawspeed>0</yawspeed>
      </mission_attitude>
    </posture>
    <posture>
      <time>2017-02-21T15:33:34.4936354+08:00</time>
      <mission_attitude>
        <time_boot_ms>90640000</time_boot_ms>
        <roll>-0.02094395</roll>
        <pitch>-0.0750491545</pitch>
        <yaw>2.51327419</yaw>
        <rollspeed>0</rollspeed>
        <pitchspeed>0</pitchspeed>
        <yawspeed>0</yawspeed>
      </mission_attitude>
    </posture>
    <posture>
      <time>2017-02-21T15:33:35.4936926+08:00</time>
      <mission_attitude>
        <time_boot_ms>91640000</time_boot_ms>
        <roll>-0.02094395</roll>
        <pitch>-0.0750491545</pitch>
        <yaw>2.47836757</yaw>
        <rollspeed>0</rollspeed>
        <pitchspeed>0</pitchspeed>
        <yawspeed>0</yawspeed>
      </mission_attitude>
    </posture>
    <posture>
      <time>2017-02-21T15:33:36.4937498+08:00</time>
      <mission_attitude>
        <time_boot_ms>92640000</time_boot_ms>
        <roll>-0.02094395</roll>
        <pitch>-0.0750491545</pitch>
        <yaw>2.46091413</yaw>
        <rollspeed>0</rollspeed>
        <pitchspeed>0</pitchspeed>
        <yawspeed>0</yawspeed>
      </mission_attitude>
    </posture>
    <posture>
      <time>2017-02-21T15:33:37.5438099+08:00</time>
      <mission_attitude>
        <time_boot_ms>93640000</time_boot_ms>
        <roll>-0.02094395</roll>
        <pitch>-0.0750491545</pitch>
        <yaw>2.42600751</yaw>
        <rollspeed>0</rollspeed>
        <pitchspeed>0</pitchspeed>
        <yawspeed>0</yawspeed>
      </mission_attitude>
    </posture>
    <posture>
      <time>2017-02-21T15:33:38.4938642+08:00</time>
      <mission_attitude>
        <time_boot_ms>94620000</time_boot_ms>
        <roll>-0.02094395</roll>
        <pitch>-0.0750491545</pitch>
        <yaw>2.46091413</yaw>
        <rollspeed>0</rollspeed>
        <pitchspeed>0</pitchspeed>
        <yawspeed>0</yawspeed>
      </mission_attitude>
    </posture>
    <posture>
      <time>2017-02-21T15:33:39.4939214+08:00</time>
      <mission_attitude>
        <time_boot_ms>95640000</time_boot_ms>
        <roll>-0.02094395</roll>
        <pitch>-0.0750491545</pitch>
        <yaw>2.37364769</yaw>
        <rollspeed>0</rollspeed>
        <pitchspeed>0</pitchspeed>
        <yawspeed>0</yawspeed>
      </mission_attitude>
    </posture>
    <posture>
      <time>2017-02-21T15:33:40.4929786+08:00</time>
      <mission_attitude>
        <time_boot_ms>96640000</time_boot_ms>
        <roll>-0.02094395</roll>
        <pitch>-0.0750491545</pitch>
        <yaw>2.42600751</yaw>
        <rollspeed>0</rollspeed>
        <pitchspeed>0</pitchspeed>
        <yawspeed>0</yawspeed>
      </mission_attitude>
    </posture>
    <posture>
      <time>2017-02-21T15:33:41.4930358+08:00</time>
      <mission_attitude>
        <time_boot_ms>97620000</time_boot_ms>
        <roll>-0.02094395</roll>
        <pitch>-0.0750491545</pitch>
        <yaw>2.46091413</yaw>
        <rollspeed>0</rollspeed>
        <pitchspeed>0</pitchspeed>
        <yawspeed>0</yawspeed>
      </mission_attitude>
    </posture>
    <posture>
      <time>2017-02-21T15:33:42.493093+08:00</time>
      <mission_attitude>
        <time_boot_ms>98600000</time_boot_ms>
        <roll>-0.02094395</roll>
        <pitch>-0.0750491545</pitch>
        <yaw>2.46091413</yaw>
        <rollspeed>0</rollspeed>
        <pitchspeed>0</pitchspeed>
        <yawspeed>0</yawspeed>
      </mission_attitude>
    </posture>
    <posture>
      <time>2017-02-21T15:33:43.4931502+08:00</time>
      <mission_attitude>
        <time_boot_ms>99580000</time_boot_ms>
        <roll>-0.02094395</roll>
        <pitch>-0.0750491545</pitch>
        <yaw>2.46091413</yaw>
        <rollspeed>0</rollspeed>
        <pitchspeed>0</pitchspeed>
        <yawspeed>0</yawspeed>
      </mission_attitude>
    </posture>
    <posture>
      <time>2017-02-21T15:33:44.4932074+08:00</time>
      <mission_attitude>
        <time_boot_ms>100600000</time_boot_ms>
        <roll>-0.02094395</roll>
        <pitch>-0.0750491545</pitch>
        <yaw>2.46091413</yaw>
        <rollspeed>0</rollspeed>
        <pitchspeed>0</pitchspeed>
        <yawspeed>0</yawspeed>
      </mission_attitude>
    </posture>
    <posture>
      <time>2017-02-21T15:33:45.5432674+08:00</time>
      <mission_attitude>
        <time_boot_ms>101600000</time_boot_ms>
        <roll>-0.02094395</roll>
        <pitch>-0.0750491545</pitch>
        <yaw>2.51327419</yaw>
        <rollspeed>0</rollspeed>
        <pitchspeed>0</pitchspeed>
        <yawspeed>0</yawspeed>
      </mission_attitude>
    </posture>
    <posture>
      <time>2017-02-21T15:33:46.4933218+08:00</time>
      <mission_attitude>
        <time_boot_ms>102580000</time_boot_ms>
        <roll>-0.02094395</roll>
        <pitch>-0.0750491545</pitch>
        <yaw>2.46091413</yaw>
        <rollspeed>0</rollspeed>
        <pitchspeed>0</pitchspeed>
        <yawspeed>0</yawspeed>
      </mission_attitude>
    </posture>
    <posture>
      <time>2017-02-21T15:33:47.493379+08:00</time>
      <mission_attitude>
        <time_boot_ms>103560000</time_boot_ms>
        <roll>-0.02094395</roll>
        <pitch>-0.0750491545</pitch>
        <yaw>2.37364769</yaw>
        <rollspeed>0</rollspeed>
        <pitchspeed>0</pitchspeed>
        <yawspeed>0</yawspeed>
      </mission_attitude>
    </posture>
    <posture>
      <time>2017-02-21T15:33:48.4934362+08:00</time>
      <mission_attitude>
        <time_boot_ms>104580000</time_boot_ms>
        <roll>-0.02094395</roll>
        <pitch>-0.0750491545</pitch>
        <yaw>2.40855432</yaw>
        <rollspeed>0</rollspeed>
        <pitchspeed>0</pitchspeed>
        <yawspeed>0</yawspeed>
      </mission_attitude>
    </posture>
    <posture>
      <time>2017-02-21T15:33:49.5434962+08:00</time>
      <mission_attitude>
        <time_boot_ms>105620000</time_boot_ms>
        <roll>-0.02094395</roll>
        <pitch>-0.0750491545</pitch>
        <yaw>2.443461</yaw>
        <rollspeed>0</rollspeed>
        <pitchspeed>0</pitchspeed>
        <yawspeed>0</yawspeed>
      </mission_attitude>
    </posture>
    <posture>
      <time>2017-02-21T15:33:50.5435534+08:00</time>
      <mission_attitude>
        <time_boot_ms>106620000</time_boot_ms>
        <roll>-0.02094395</roll>
        <pitch>-0.0750491545</pitch>
        <yaw>2.42600751</yaw>
        <rollspeed>0</rollspeed>
        <pitchspeed>0</pitchspeed>
        <yawspeed>0</yawspeed>
      </mission_attitude>
    </posture>
    <posture>
      <time>2017-02-21T15:33:51.5436106+08:00</time>
      <mission_attitude>
        <time_boot_ms>107600000</time_boot_ms>
        <roll>-0.02094395</roll>
        <pitch>-0.0750491545</pitch>
        <yaw>2.40855432</yaw>
        <rollspeed>0</rollspeed>
        <pitchspeed>0</pitchspeed>
        <yawspeed>0</yawspeed>
      </mission_attitude>
    </posture>
    <posture>
      <time>2017-02-21T15:33:52.5436678+08:00</time>
      <mission_attitude>
        <time_boot_ms>108620000</time_boot_ms>
        <roll>-0.02094395</roll>
        <pitch>-0.0750491545</pitch>
        <yaw>2.40855432</yaw>
        <rollspeed>0</rollspeed>
        <pitchspeed>0</pitchspeed>
        <yawspeed>0</yawspeed>
      </mission_attitude>
    </posture>
    <posture>
      <time>2017-02-21T15:33:53.543725+08:00</time>
      <mission_attitude>
        <time_boot_ms>109600000</time_boot_ms>
        <roll>-0.02094395</roll>
        <pitch>-0.0750491545</pitch>
        <yaw>2.47836757</yaw>
        <rollspeed>0</rollspeed>
        <pitchspeed>0</pitchspeed>
        <yawspeed>0</yawspeed>
      </mission_attitude>
    </posture>
    <posture>
      <time>2017-02-21T15:33:54.5437822+08:00</time>
      <mission_attitude>
        <time_boot_ms>110620000</time_boot_ms>
        <roll>-0.02094395</roll>
        <pitch>-0.0750491545</pitch>
        <yaw>2.49582076</yaw>
        <rollspeed>0</rollspeed>
        <pitchspeed>0</pitchspeed>
        <yawspeed>0</yawspeed>
      </mission_attitude>
    </posture>
    <posture>
      <time>2017-02-21T15:33:55.5938423+08:00</time>
      <mission_attitude>
        <time_boot_ms>111620000</time_boot_ms>
        <roll>-0.02094395</roll>
        <pitch>-0.0750491545</pitch>
        <yaw>2.46091413</yaw>
        <rollspeed>0</rollspeed>
        <pitchspeed>0</pitchspeed>
        <yawspeed>0</yawspeed>
      </mission_attitude>
    </posture>
    <posture>
      <time>2017-02-21T15:33:56.5438966+08:00</time>
      <mission_attitude>
        <time_boot_ms>112600000</time_boot_ms>
        <roll>-0.02094395</roll>
        <pitch>-0.0750491545</pitch>
        <yaw>2.42600751</yaw>
        <rollspeed>0</rollspeed>
        <pitchspeed>0</pitchspeed>
        <yawspeed>0</yawspeed>
      </mission_attitude>
    </posture>
    <posture>
      <time>2017-02-21T15:33:57.5429538+08:00</time>
      <mission_attitude>
        <time_boot_ms>113580000</time_boot_ms>
        <roll>-0.02094395</roll>
        <pitch>-0.0750491545</pitch>
        <yaw>2.46091413</yaw>
        <rollspeed>0</rollspeed>
        <pitchspeed>0</pitchspeed>
        <yawspeed>0</yawspeed>
      </mission_attitude>
    </posture>
    <posture>
      <time>2017-02-21T15:33:58.543011+08:00</time>
      <mission_attitude>
        <time_boot_ms>114560000</time_boot_ms>
        <roll>-0.02094395</roll>
        <pitch>-0.0750491545</pitch>
        <yaw>2.39110112</yaw>
        <rollspeed>0</rollspeed>
        <pitchspeed>0</pitchspeed>
        <yawspeed>0</yawspeed>
      </mission_attitude>
    </posture>
    <posture>
      <time>2017-02-21T15:33:59.5430682+08:00</time>
      <mission_attitude>
        <time_boot_ms>115580000</time_boot_ms>
        <roll>-0.02094395</roll>
        <pitch>-0.0750491545</pitch>
        <yaw>2.46091413</yaw>
        <rollspeed>0</rollspeed>
        <pitchspeed>0</pitchspeed>
        <yawspeed>0</yawspeed>
      </mission_attitude>
    </posture>
    <posture>
      <time>2017-02-21T15:34:00.5431254+08:00</time>
      <mission_attitude>
        <time_boot_ms>116580000</time_boot_ms>
        <roll>-0.02094395</roll>
        <pitch>-0.0750491545</pitch>
        <yaw>2.42600751</yaw>
        <rollspeed>0</rollspeed>
        <pitchspeed>0</pitchspeed>
        <yawspeed>0</yawspeed>
      </mission_attitude>
    </posture>
    <posture>
      <time>2017-02-21T15:34:01.5431826+08:00</time>
      <mission_attitude>
        <time_boot_ms>117560000</time_boot_ms>
        <roll>-0.02094395</roll>
        <pitch>-0.0750491545</pitch>
        <yaw>2.42600751</yaw>
        <rollspeed>0</rollspeed>
        <pitchspeed>0</pitchspeed>
        <yawspeed>0</yawspeed>
      </mission_attitude>
    </posture>
    <posture>
      <time>2017-02-21T15:34:02.5932426+08:00</time>
      <mission_attitude>
        <time_boot_ms>118580000</time_boot_ms>
        <roll>-0.02094395</roll>
        <pitch>-0.0750491545</pitch>
        <yaw>2.46091413</yaw>
        <rollspeed>0</rollspeed>
        <pitchspeed>0</pitchspeed>
        <yawspeed>0</yawspeed>
      </mission_attitude>
    </posture>
    <posture>
      <time>2017-02-21T15:34:03.543297+08:00</time>
      <mission_attitude>
        <time_boot_ms>119560000</time_boot_ms>
        <roll>-0.02094395</roll>
        <pitch>-0.0750491545</pitch>
        <yaw>2.47836757</yaw>
        <rollspeed>0</rollspeed>
        <pitchspeed>0</pitchspeed>
        <yawspeed>0</yawspeed>
      </mission_attitude>
    </posture>
    <posture>
      <time>2017-02-21T15:34:04.593357+08:00</time>
      <mission_attitude>
        <time_boot_ms>120560000</time_boot_ms>
        <roll>-0.02094395</roll>
        <pitch>-0.0750491545</pitch>
        <yaw>2.46091413</yaw>
        <rollspeed>0</rollspeed>
        <pitchspeed>0</pitchspeed>
        <yawspeed>0</yawspeed>
      </mission_attitude>
    </posture>
    <posture>
      <time>2017-02-21T15:34:05.5934142+08:00</time>
      <mission_attitude>
        <time_boot_ms>121560000</time_boot_ms>
        <roll>-0.02094395</roll>
        <pitch>-0.0750491545</pitch>
        <yaw>2.40855432</yaw>
        <rollspeed>0</rollspeed>
        <pitchspeed>0</pitchspeed>
        <yawspeed>0</yawspeed>
      </mission_attitude>
    </posture>
    <posture>
      <time>2017-02-21T15:34:06.5934714+08:00</time>
      <mission_attitude>
        <time_boot_ms>122560000</time_boot_ms>
        <roll>-0.02094395</roll>
        <pitch>-0.0750491545</pitch>
        <yaw>2.46091413</yaw>
        <rollspeed>0</rollspeed>
        <pitchspeed>0</pitchspeed>
        <yawspeed>0</yawspeed>
      </mission_attitude>
    </posture>
    <posture>
      <time>2017-02-21T15:34:07.5935286+08:00</time>
      <mission_attitude>
        <time_boot_ms>123560000</time_boot_ms>
        <roll>-0.02094395</roll>
        <pitch>-0.0750491545</pitch>
        <yaw>2.42600751</yaw>
        <rollspeed>0</rollspeed>
        <pitchspeed>0</pitchspeed>
        <yawspeed>0</yawspeed>
      </mission_attitude>
    </posture>
    <posture>
      <time>2017-02-21T15:34:08.5935858+08:00</time>
      <mission_attitude>
        <time_boot_ms>124540000</time_boot_ms>
        <roll>-0.02094395</roll>
        <pitch>-0.0750491545</pitch>
        <yaw>2.46091413</yaw>
        <rollspeed>0</rollspeed>
        <pitchspeed>0</pitchspeed>
        <yawspeed>0</yawspeed>
      </mission_attitude>
    </posture>
    <posture>
      <time>2017-02-21T15:34:09.5436402+08:00</time>
      <mission_attitude>
        <time_boot_ms>125540000</time_boot_ms>
        <roll>-0.02094395</roll>
        <pitch>-0.0750491545</pitch>
        <yaw>2.46091413</yaw>
        <rollspeed>0</rollspeed>
        <pitchspeed>0</pitchspeed>
        <yawspeed>0</yawspeed>
      </mission_attitude>
    </posture>
    <posture>
      <time>2017-02-21T15:34:10.5937002+08:00</time>
      <mission_attitude>
        <time_boot_ms>126540000</time_boot_ms>
        <roll>-0.02094395</roll>
        <pitch>-0.0750491545</pitch>
        <yaw>2.39110112</yaw>
        <rollspeed>0</rollspeed>
        <pitchspeed>0</pitchspeed>
        <yawspeed>0</yawspeed>
      </mission_attitude>
    </posture>
    <posture>
      <time>2017-02-21T15:34:11.5937574+08:00</time>
      <mission_attitude>
        <time_boot_ms>127540000</time_boot_ms>
        <roll>-0.02094395</roll>
        <pitch>-0.0750491545</pitch>
        <yaw>2.47836757</yaw>
        <rollspeed>0</rollspeed>
        <pitchspeed>0</pitchspeed>
        <yawspeed>0</yawspeed>
      </mission_attitude>
    </posture>
    <posture>
      <time>2017-02-21T15:34:12.5938146+08:00</time>
      <mission_attitude>
        <time_boot_ms>128540000</time_boot_ms>
        <roll>-0.02094395</roll>
        <pitch>-0.0750491545</pitch>
        <yaw>2.49582076</yaw>
        <rollspeed>0</rollspeed>
        <pitchspeed>0</pitchspeed>
        <yawspeed>0</yawspeed>
      </mission_attitude>
    </posture>
    <posture>
      <time>2017-02-21T15:34:13.5938718+08:00</time>
      <mission_attitude>
        <time_boot_ms>129540000</time_boot_ms>
        <roll>-0.02094395</roll>
        <pitch>-0.0750491545</pitch>
        <yaw>2.49582076</yaw>
        <rollspeed>0</rollspeed>
        <pitchspeed>0</pitchspeed>
        <yawspeed>0</yawspeed>
      </mission_attitude>
    </posture>
    <posture>
      <time>2017-02-21T15:34:14.593929+08:00</time>
      <mission_attitude>
        <time_boot_ms>130540000</time_boot_ms>
        <roll>-0.02094395</roll>
        <pitch>-0.07679448</pitch>
        <yaw>2.39110112</yaw>
        <rollspeed>0</rollspeed>
        <pitchspeed>0</pitchspeed>
        <yawspeed>0</yawspeed>
      </mission_attitude>
    </posture>
    <posture>
      <time>2017-02-21T15:34:15.5929862+08:00</time>
      <mission_attitude>
        <time_boot_ms>131540000</time_boot_ms>
        <roll>-0.02094395</roll>
        <pitch>-0.0750491545</pitch>
        <yaw>2.443461</yaw>
        <rollspeed>0</rollspeed>
        <pitchspeed>0</pitchspeed>
        <yawspeed>0</yawspeed>
      </mission_attitude>
    </posture>
    <posture>
      <time>2017-02-21T15:34:16.5930434+08:00</time>
      <mission_attitude>
        <time_boot_ms>132520000</time_boot_ms>
        <roll>-0.02094395</roll>
        <pitch>-0.0750491545</pitch>
        <yaw>2.40855432</yaw>
        <rollspeed>0.0174532924</rollspeed>
        <pitchspeed>0</pitchspeed>
        <yawspeed>0</yawspeed>
      </mission_attitude>
    </posture>
    <posture>
      <time>2017-02-21T15:34:17.5430977+08:00</time>
      <mission_attitude>
        <time_boot_ms>133500000</time_boot_ms>
        <roll>-0.02094395</roll>
        <pitch>-0.0750491545</pitch>
        <yaw>2.443461</yaw>
        <rollspeed>0</rollspeed>
        <pitchspeed>0</pitchspeed>
        <yawspeed>0</yawspeed>
      </mission_attitude>
    </posture>
    <posture>
      <time>2017-02-21T15:34:18.5931578+08:00</time>
      <mission_attitude>
        <time_boot_ms>134500000</time_boot_ms>
        <roll>-0.0157079622</roll>
        <pitch>-0.0750491545</pitch>
        <yaw>2.42600751</yaw>
        <rollspeed>-0.0174532924</rollspeed>
        <pitchspeed>0</pitchspeed>
        <yawspeed>0</yawspeed>
      </mission_attitude>
    </posture>
    <posture>
      <time>2017-02-21T15:34:19.5432121+08:00</time>
      <mission_attitude>
        <time_boot_ms>135500000</time_boot_ms>
        <roll>-0.0157079622</roll>
        <pitch>-0.0750491545</pitch>
        <yaw>2.37364769</yaw>
        <rollspeed>0.0174532924</rollspeed>
        <pitchspeed>0</pitchspeed>
        <yawspeed>0</yawspeed>
      </mission_attitude>
    </posture>
    <posture>
      <time>2017-02-21T15:34:22.3433723+08:00</time>
      <mission_attitude>
        <time_boot_ms>660000</time_boot_ms>
        <roll>-0.0157079622</roll>
        <pitch>-0.08901179</pitch>
        <yaw>0</yaw>
        <rollspeed>0</rollspeed>
        <pitchspeed>0</pitchspeed>
        <yawspeed>0</yawspeed>
      </mission_attitude>
    </posture>
    <posture>
      <time>2017-02-21T15:34:23.2934266+08:00</time>
      <mission_attitude>
        <time_boot_ms>1640000</time_boot_ms>
        <roll>-0.0157079622</roll>
        <pitch>-0.08726646</pitch>
        <yaw>0</yaw>
        <rollspeed>0</rollspeed>
        <pitchspeed>0</pitchspeed>
        <yawspeed>0</yawspeed>
      </mission_attitude>
    </posture>
    <posture>
      <time>2017-02-21T15:34:24.3434867+08:00</time>
      <mission_attitude>
        <time_boot_ms>2680000</time_boot_ms>
        <roll>-0.0157079622</roll>
        <pitch>-0.08552113</pitch>
        <yaw>1.79768908</yaw>
        <rollspeed>0</rollspeed>
        <pitchspeed>0</pitchspeed>
        <yawspeed>0</yawspeed>
      </mission_attitude>
    </posture>
    <posture>
      <time>2017-02-21T15:34:25.3435439+08:00</time>
      <mission_attitude>
        <time_boot_ms>3700000</time_boot_ms>
        <roll>-0.0157079622</roll>
        <pitch>-0.0837758</pitch>
        <yaw>1.727876</yaw>
        <rollspeed>0</rollspeed>
        <pitchspeed>0</pitchspeed>
        <yawspeed>0</yawspeed>
      </mission_attitude>
    </posture>
    <posture>
      <time>2017-02-21T15:34:26.3936039+08:00</time>
      <mission_attitude>
        <time_boot_ms>4700000</time_boot_ms>
        <roll>-0.0157079622</roll>
        <pitch>-0.0837758</pitch>
        <yaw>1.88495553</yaw>
        <rollspeed>0</rollspeed>
        <pitchspeed>0</pitchspeed>
        <yawspeed>0</yawspeed>
      </mission_attitude>
    </posture>
    <posture>
      <time>2017-02-21T15:34:27.3436583+08:00</time>
      <mission_attitude>
        <time_boot_ms>5700000</time_boot_ms>
        <roll>-0.0157079622</roll>
        <pitch>-0.0820304751</pitch>
        <yaw>1.74532926</yaw>
        <rollspeed>0</rollspeed>
        <pitchspeed>0</pitchspeed>
        <yawspeed>0</yawspeed>
      </mission_attitude>
    </posture>
    <posture>
      <time>2017-02-21T15:34:28.3937183+08:00</time>
      <mission_attitude>
        <time_boot_ms>6680000</time_boot_ms>
        <roll>-0.0157079622</roll>
        <pitch>-0.0820304751</pitch>
        <yaw>1.90240884</yaw>
        <rollspeed>0</rollspeed>
        <pitchspeed>0</pitchspeed>
        <yawspeed>0</yawspeed>
      </mission_attitude>
    </posture>
    <posture>
      <time>2017-02-21T15:34:29.3937755+08:00</time>
      <mission_attitude>
        <time_boot_ms>7700000</time_boot_ms>
        <roll>-0.0157079622</roll>
        <pitch>-0.08028515</pitch>
        <yaw>2.40855432</yaw>
        <rollspeed>0</rollspeed>
        <pitchspeed>0</pitchspeed>
        <yawspeed>0</yawspeed>
      </mission_attitude>
    </posture>
    <posture>
      <time>2017-02-21T15:34:30.3938327+08:00</time>
      <mission_attitude>
        <time_boot_ms>8680000</time_boot_ms>
        <roll>-0.0157079622</roll>
        <pitch>-0.08028515</pitch>
        <yaw>2.25147462</yaw>
        <rollspeed>0</rollspeed>
        <pitchspeed>0</pitchspeed>
        <yawspeed>0</yawspeed>
      </mission_attitude>
    </posture>
    <posture>
      <time>2017-02-21T15:34:31.3938899+08:00</time>
      <mission_attitude>
        <time_boot_ms>9680000</time_boot_ms>
        <roll>-0.0157079622</roll>
        <pitch>-0.08028515</pitch>
        <yaw>2.39110112</yaw>
        <rollspeed>0</rollspeed>
        <pitchspeed>0</pitchspeed>
        <yawspeed>0</yawspeed>
      </mission_attitude>
    </posture>
    <posture>
      <time>2017-02-21T15:34:32.3929471+08:00</time>
      <mission_attitude>
        <time_boot_ms>10680000</time_boot_ms>
        <roll>-0.0157079622</roll>
        <pitch>-0.07853982</pitch>
        <yaw>2.46091413</yaw>
        <rollspeed>0</rollspeed>
        <pitchspeed>0</pitchspeed>
        <yawspeed>0</yawspeed>
      </mission_attitude>
    </posture>
    <posture>
      <time>2017-02-21T15:34:33.3940043+08:00</time>
      <mission_attitude>
        <time_boot_ms>11680000</time_boot_ms>
        <roll>-0.0174532924</roll>
        <pitch>-0.07853982</pitch>
        <yaw>2.28638124</yaw>
        <rollspeed>0</rollspeed>
        <pitchspeed>0</pitchspeed>
        <yawspeed>0</yawspeed>
      </mission_attitude>
    </posture>
    <posture>
      <time>2017-02-21T15:34:34.3930615+08:00</time>
      <mission_attitude>
        <time_boot_ms>12680000</time_boot_ms>
        <roll>-0.0174532924</roll>
        <pitch>-0.07853982</pitch>
        <yaw>2.40855432</yaw>
        <rollspeed>0</rollspeed>
        <pitchspeed>0</pitchspeed>
        <yawspeed>0</yawspeed>
      </mission_attitude>
    </posture>
    <posture>
      <time>2017-02-21T15:34:35.3931187+08:00</time>
      <mission_attitude>
        <time_boot_ms>13680000</time_boot_ms>
        <roll>-0.0174532924</roll>
        <pitch>-0.07679448</pitch>
        <yaw>2.37364769</yaw>
        <rollspeed>0</rollspeed>
        <pitchspeed>0</pitchspeed>
        <yawspeed>0</yawspeed>
      </mission_attitude>
    </posture>
    <posture>
      <time>2017-02-21T15:34:36.3931759+08:00</time>
      <mission_attitude>
        <time_boot_ms>14660000</time_boot_ms>
        <roll>-0.0157079622</roll>
        <pitch>-0.07679448</pitch>
        <yaw>2.46091413</yaw>
        <rollspeed>0</rollspeed>
        <pitchspeed>0</pitchspeed>
        <yawspeed>0</yawspeed>
      </mission_attitude>
    </posture>
    <posture>
      <time>2017-02-21T15:34:37.3932331+08:00</time>
      <mission_attitude>
        <time_boot_ms>15660000</time_boot_ms>
        <roll>-0.0157079622</roll>
        <pitch>-0.07679448</pitch>
        <yaw>2.443461</yaw>
        <rollspeed>0</rollspeed>
        <pitchspeed>0</pitchspeed>
        <yawspeed>0</yawspeed>
      </mission_attitude>
    </posture>
    <posture>
      <time>2017-02-21T15:34:38.3932903+08:00</time>
      <mission_attitude>
        <time_boot_ms>16680000</time_boot_ms>
        <roll>-0.0157079622</roll>
        <pitch>-0.07679448</pitch>
        <yaw>2.443461</yaw>
        <rollspeed>0</rollspeed>
        <pitchspeed>0</pitchspeed>
        <yawspeed>0</yawspeed>
      </mission_attitude>
    </posture>
    <posture>
      <time>2017-02-21T15:34:39.3933475+08:00</time>
      <mission_attitude>
        <time_boot_ms>17660000</time_boot_ms>
        <roll>-0.0157079622</roll>
        <pitch>-0.07679448</pitch>
        <yaw>2.42600751</yaw>
        <rollspeed>0</rollspeed>
        <pitchspeed>0</pitchspeed>
        <yawspeed>0</yawspeed>
      </mission_attitude>
    </posture>
    <posture>
      <time>2017-02-21T15:34:40.3934047+08:00</time>
      <mission_attitude>
        <time_boot_ms>18660000</time_boot_ms>
        <roll>-0.0174532924</roll>
        <pitch>-0.07679448</pitch>
        <yaw>2.32128787</yaw>
        <rollspeed>0</rollspeed>
        <pitchspeed>0</pitchspeed>
        <yawspeed>0</yawspeed>
      </mission_attitude>
    </posture>
    <posture>
      <time>2017-02-21T15:34:41.3934619+08:00</time>
      <mission_attitude>
        <time_boot_ms>19640000</time_boot_ms>
        <roll>-0.0174532924</roll>
        <pitch>-0.07679448</pitch>
        <yaw>2.37364769</yaw>
        <rollspeed>0</rollspeed>
        <pitchspeed>0</pitchspeed>
        <yawspeed>0</yawspeed>
      </mission_attitude>
    </posture>
    <posture>
      <time>2017-02-21T15:34:42.3435162+08:00</time>
      <mission_attitude>
        <time_boot_ms>20620000</time_boot_ms>
        <roll>-0.0174532924</roll>
        <pitch>-0.07679448</pitch>
        <yaw>2.37364769</yaw>
        <rollspeed>0</rollspeed>
        <pitchspeed>0</pitchspeed>
        <yawspeed>0</yawspeed>
      </mission_attitude>
    </posture>
    <posture>
      <time>2017-02-21T15:34:43.3435734+08:00</time>
      <mission_attitude>
        <time_boot_ms>21600000</time_boot_ms>
        <roll>-0.0174532924</roll>
        <pitch>-0.07679448</pitch>
        <yaw>2.40855432</yaw>
        <rollspeed>0</rollspeed>
        <pitchspeed>0</pitchspeed>
        <yawspeed>0</yawspeed>
      </mission_attitude>
    </posture>
    <posture>
      <time>2017-02-21T15:34:44.3436306+08:00</time>
      <mission_attitude>
        <time_boot_ms>22600000</time_boot_ms>
        <roll>-0.0157079622</roll>
        <pitch>-0.07679448</pitch>
        <yaw>2.42600751</yaw>
        <rollspeed>0</rollspeed>
        <pitchspeed>0</pitchspeed>
        <yawspeed>0</yawspeed>
      </mission_attitude>
    </posture>
    <posture>
      <time>2017-02-21T15:34:45.3436878+08:00</time>
      <mission_attitude>
        <time_boot_ms>23600000</time_boot_ms>
        <roll>-0.0174532924</roll>
        <pitch>-0.07679448</pitch>
        <yaw>2.40855432</yaw>
        <rollspeed>0</rollspeed>
        <pitchspeed>0</pitchspeed>
        <yawspeed>0</yawspeed>
      </mission_attitude>
    </posture>
    <posture>
      <time>2017-02-21T15:34:46.3937479+08:00</time>
      <mission_attitude>
        <time_boot_ms>24600000</time_boot_ms>
        <roll>-0.0174532924</roll>
        <pitch>-0.07679448</pitch>
        <yaw>2.37364769</yaw>
        <rollspeed>0</rollspeed>
        <pitchspeed>0</pitchspeed>
        <yawspeed>0</yawspeed>
      </mission_attitude>
    </posture>
    <posture>
      <time>2017-02-21T15:34:47.3438022+08:00</time>
      <mission_attitude>
        <time_boot_ms>25600000</time_boot_ms>
        <roll>-0.0174532924</roll>
        <pitch>-0.07679448</pitch>
        <yaw>2.47836757</yaw>
        <rollspeed>0</rollspeed>
        <pitchspeed>0</pitchspeed>
        <yawspeed>0</yawspeed>
      </mission_attitude>
    </posture>
    <posture>
      <time>2017-02-21T15:34:48.3938623+08:00</time>
      <mission_attitude>
        <time_boot_ms>26600000</time_boot_ms>
        <roll>-0.0174532924</roll>
        <pitch>-0.07679448</pitch>
        <yaw>2.46091413</yaw>
        <rollspeed>0</rollspeed>
        <pitchspeed>0</pitchspeed>
        <yawspeed>0</yawspeed>
      </mission_attitude>
    </posture>
    <posture>
      <time>2017-02-21T15:34:49.3939195+08:00</time>
      <mission_attitude>
        <time_boot_ms>27620000</time_boot_ms>
        <roll>-0.0174532924</roll>
        <pitch>-0.07679448</pitch>
        <yaw>2.3561945</yaw>
        <rollspeed>0</rollspeed>
        <pitchspeed>0</pitchspeed>
        <yawspeed>0</yawspeed>
      </mission_attitude>
    </posture>
    <posture>
      <time>2017-02-21T15:34:50.3929766+08:00</time>
      <mission_attitude>
        <time_boot_ms>28620000</time_boot_ms>
        <roll>-0.0174532924</roll>
