<?xml version="1.0" encoding="utf-8"?>
<SerializeDataClass xmlns:xsi="http://www.w3.org/2001/XMLSchema-instance" xmlns:xsd="http://www.w3.org/2001/XMLSchema">
  <listposture>
    <posture>
      <time>2017-11-15T14:31:20.3462162+08:00</time>
      <mission_attitude>
        <time_boot_ms>231100000</time_boot_ms>
        <roll>0.139626339</roll>
        <pitch>-0.00523598772</pitch>
        <yaw>2.146755</yaw>
        <rollspeed>0</rollspeed>
        <pitchspeed>0</pitchspeed>
        <yawspeed>0</yawspeed>
      </mission_attitude>
    </posture>
    <posture>
      <time>2017-11-15T14:31:21.3462734+08:00</time>
      <mission_attitude>
        <time_boot_ms>232080000</time_boot_ms>
        <roll>0.139626339</roll>
        <pitch>-0.00523598772</pitch>
        <yaw>2.146755</yaw>
        <rollspeed>0</rollspeed>
        <pitchspeed>0</pitchspeed>
        <yawspeed>0</yawspeed>
      </mission_attitude>
    </posture>
    <posture>
      <time>2017-11-15T14:31:22.3463306+08:00</time>
      <mission_attitude>
        <time_boot_ms>233080000</time_boot_ms>
        <roll>0.137881011</roll>
        <pitch>-0.00523598772</pitch>
        <yaw>2.146755</yaw>
        <rollspeed>0</rollspeed>
        <pitchspeed>0</pitchspeed>
        <yawspeed>0</yawspeed>
      </mission_attitude>
    </posture>
    <posture>
      <time>2017-11-15T14:31:23.3463878+08:00</time>
      <mission_attitude>
        <time_boot_ms>234080000</time_boot_ms>
        <roll>0.141371667</roll>
        <pitch>-0.00523598772</pitch>
        <yaw>2.146755</yaw>
        <rollspeed>0</rollspeed>
        <pitchspeed>0</pitchspeed>
        <yawspeed>0</yawspeed>
      </mission_attitude>
    </posture>
    <posture>
      <time>2017-11-15T14:31:24.346445+08:00</time>
      <mission_attitude>
        <time_boot_ms>235100000</time_boot_ms>
        <roll>0.136135682</roll>
        <pitch>-0.00523598772</pitch>
        <yaw>2.146755</yaw>
        <rollspeed>0.0174532924</rollspeed>
        <pitchspeed>0</pitchspeed>
        <yawspeed>0</yawspeed>
      </mission_attitude>
    </posture>
    <posture>
      <time>2017-11-15T14:31:25.3465022+08:00</time>
      <mission_attitude>
        <time_boot_ms>236080000</time_boot_ms>
        <roll>0.134390354</roll>
        <pitch>-0.00523598772</pitch>
        <yaw>2.12930155</yaw>
        <rollspeed>0</rollspeed>
        <pitchspeed>0</pitchspeed>
        <yawspeed>0</yawspeed>
      </mission_attitude>
    </posture>
    <posture>
      <time>2017-11-15T14:31:26.3465594+08:00</time>
      <mission_attitude>
        <time_boot_ms>237080000</time_boot_ms>
        <roll>0.134390354</roll>
        <pitch>-0.00523598772</pitch>
        <yaw>2.146755</yaw>
        <rollspeed>0</rollspeed>
        <pitchspeed>0</pitchspeed>
        <yawspeed>0</yawspeed>
      </mission_attitude>
    </posture>
    <posture>
      <time>2017-11-15T14:31:27.3966194+08:00</time>
      <mission_attitude>
        <time_boot_ms>238080000</time_boot_ms>
        <roll>0.132645026</roll>
        <pitch>-0.00523598772</pitch>
        <yaw>2.146755</yaw>
        <rollspeed>-0.0174532924</rollspeed>
        <pitchspeed>0</pitchspeed>
        <yawspeed>0</yawspeed>
      </mission_attitude>
    </posture>
    <posture>
      <time>2017-11-15T14:31:28.3966766+08:00</time>
      <mission_attitude>
        <time_boot_ms>239080000</time_boot_ms>
        <roll>0.129154369</roll>
        <pitch>-0.00523598772</pitch>
        <yaw>2.146755</yaw>
        <rollspeed>-0.0174532924</rollspeed>
        <pitchspeed>0</pitchspeed>
        <yawspeed>0</yawspeed>
      </mission_attitude>
    </posture>
    <posture>
      <time>2017-11-15T14:31:29.3967338+08:00</time>
      <mission_attitude>
        <time_boot_ms>240100000</time_boot_ms>
        <roll>0.1308997</roll>
        <pitch>-0.00523598772</pitch>
        <yaw>2.146755</yaw>
        <rollspeed>0</rollspeed>
        <pitchspeed>0</pitchspeed>
        <yawspeed>0</yawspeed>
      </mission_attitude>
    </posture>
    <posture>
      <time>2017-11-15T14:31:30.4467939+08:00</time>
      <mission_attitude>
        <time_boot_ms>241120000</time_boot_ms>
        <roll>0.1308997</roll>
        <pitch>-0.00523598772</pitch>
        <yaw>2.146755</yaw>
        <rollspeed>-0.0174532924</rollspeed>
        <pitchspeed>0</pitchspeed>
        <yawspeed>0</yawspeed>
      </mission_attitude>
    </posture>
    <posture>
      <time>2017-11-15T14:31:31.4468511+08:00</time>
      <mission_attitude>
        <time_boot_ms>242120000</time_boot_ms>
        <roll>0.1308997</roll>
        <pitch>-0.00523598772</pitch>
        <yaw>2.146755</yaw>
        <rollspeed>0</rollspeed>
        <pitchspeed>0</pitchspeed>
        <yawspeed>0</yawspeed>
      </mission_attitude>
    </posture>
    <posture>
      <time>2017-11-15T14:31:32.3969054+08:00</time>
      <mission_attitude>
        <time_boot_ms>243100000</time_boot_ms>
        <roll>0.132645026</roll>
        <pitch>-0.00523598772</pitch>
        <yaw>2.146755</yaw>
        <rollspeed>-0.0174532924</rollspeed>
        <pitchspeed>0</pitchspeed>
        <yawspeed>0</yawspeed>
      </mission_attitude>
    </posture>
    <posture>
      <time>2017-11-15T14:31:33.4469655+08:00</time>
      <mission_attitude>
        <time_boot_ms>244120000</time_boot_ms>
        <roll>0.139626339</roll>
        <pitch>-0.00523598772</pitch>
        <yaw>2.146755</yaw>
        <rollspeed>0.0174532924</rollspeed>
        <pitchspeed>0</pitchspeed>
        <yawspeed>0</yawspeed>
      </mission_attitude>
    </posture>
    <posture>
      <time>2017-11-15T14:31:34.4460226+08:00</time>
      <mission_attitude>
        <time_boot_ms>245140000</time_boot_ms>
        <roll>0.129154369</roll>
        <pitch>-0.00523598772</pitch>
        <yaw>2.146755</yaw>
        <rollspeed>-0.0523598753</rollspeed>
        <pitchspeed>0</pitchspeed>
        <yawspeed>0</yawspeed>
      </mission_attitude>
    </posture>
    <posture>
      <time>2017-11-15T14:31:35.4960827+08:00</time>
      <mission_attitude>
        <time_boot_ms>246160000</time_boot_ms>
        <roll>0.127409026</roll>
        <pitch>-0.00523598772</pitch>
        <yaw>2.146755</yaw>
        <rollspeed>0</rollspeed>
        <pitchspeed>0</pitchspeed>
        <yawspeed>0</yawspeed>
      </mission_attitude>
    </posture>
    <posture>
      <time>2017-11-15T14:31:36.4961399+08:00</time>
      <mission_attitude>
        <time_boot_ms>247160000</time_boot_ms>
        <roll>0.118682384</roll>
        <pitch>-0.00523598772</pitch>
        <yaw>2.146755</yaw>
        <rollspeed>0.0174532924</rollspeed>
        <pitchspeed>0</pitchspeed>
        <yawspeed>0</yawspeed>
      </mission_attitude>
    </posture>
    <posture>
      <time>2017-11-15T14:31:37.4961971+08:00</time>
      <mission_attitude>
        <time_boot_ms>248140000</time_boot_ms>
        <roll>0.115191728</roll>
        <pitch>-0.00523598772</pitch>
        <yaw>2.146755</yaw>
        <rollspeed>-0.0523598753</rollspeed>
        <pitchspeed>0.0174532924</pitchspeed>
        <yawspeed>0</yawspeed>
      </mission_attitude>
    </posture>
    <posture>
      <time>2017-11-15T14:31:38.4962543+08:00</time>
      <mission_attitude>
        <time_boot_ms>249140000</time_boot_ms>
        <roll>0.1256637</roll>
        <pitch>-0.00523598772</pitch>
        <yaw>2.146755</yaw>
        <rollspeed>0.06981317</rollspeed>
        <pitchspeed>0.0174532924</pitchspeed>
        <yawspeed>-0.0349065848</yawspeed>
      </mission_attitude>
    </posture>
    <posture>
      <time>2017-11-15T14:31:39.4963115+08:00</time>
      <mission_attitude>
        <time_boot_ms>250140000</time_boot_ms>
        <roll>0.1134464</roll>
        <pitch>-0.00523598772</pitch>
        <yaw>2.146755</yaw>
        <rollspeed>-0.0174532924</rollspeed>
        <pitchspeed>0</pitchspeed>
        <yawspeed>0</yawspeed>
      </mission_attitude>
    </posture>
    <posture>
      <time>2017-11-15T14:31:40.4963687+08:00</time>
      <mission_attitude>
        <time_boot_ms>251120000</time_boot_ms>
        <roll>0.118682384</roll>
        <pitch>-0.00523598772</pitch>
        <yaw>2.146755</yaw>
        <rollspeed>-0.0174532924</rollspeed>
        <pitchspeed>0</pitchspeed>
        <yawspeed>0</yawspeed>
      </mission_attitude>
    </posture>
    <posture>
      <time>2017-11-15T14:31:41.4964259+08:00</time>
      <mission_attitude>
        <time_boot_ms>252140000</time_boot_ms>
        <roll>0.101229094</roll>
        <pitch>-0.00349065848</pitch>
        <yaw>2.146755</yaw>
        <rollspeed>-0.0174532924</rollspeed>
        <pitchspeed>0</pitchspeed>
        <yawspeed>0</yawspeed>
      </mission_attitude>
    </posture>
    <posture>
      <time>2017-11-15T14:31:42.5464859+08:00</time>
      <mission_attitude>
        <time_boot_ms>253160000</time_boot_ms>
        <roll>0.09773844</roll>
        <pitch>-0.00349065848</pitch>
        <yaw>2.146755</yaw>
        <rollspeed>0</rollspeed>
        <pitchspeed>0</pitchspeed>
        <yawspeed>0</yawspeed>
      </mission_attitude>
    </posture>
    <posture>
      <time>2017-11-15T14:31:43.5465431+08:00</time>
      <mission_attitude>
        <time_boot_ms>254160000</time_boot_ms>
        <roll>0.108210415</roll>
        <pitch>-0.00523598772</pitch>
        <yaw>2.146755</yaw>
        <rollspeed>0.0174532924</rollspeed>
        <pitchspeed>0</pitchspeed>
        <yawspeed>0</yawspeed>
      </mission_attitude>
    </posture>
    <posture>
      <time>2017-11-15T14:31:44.4965975+08:00</time>
      <mission_attitude>
        <time_boot_ms>255140000</time_boot_ms>
        <roll>0.109955743</roll>
        <pitch>-0.00523598772</pitch>
        <yaw>2.146755</yaw>
        <rollspeed>-0.0174532924</rollspeed>
        <pitchspeed>0</pitchspeed>
        <yawspeed>0</yawspeed>
      </mission_attitude>
    </posture>
    <posture>
      <time>2017-11-15T14:31:45.5466575+08:00</time>
      <mission_attitude>
        <time_boot_ms>256140000</time_boot_ms>
        <roll>0.111701071</roll>
        <pitch>-0.00523598772</pitch>
        <yaw>2.146755</yaw>
        <rollspeed>-0.0174532924</rollspeed>
        <pitchspeed>0</pitchspeed>
        <yawspeed>0</yawspeed>
      </mission_attitude>
    </posture>
    <posture>
      <time>2017-11-15T14:31:46.4967119+08:00</time>
      <mission_attitude>
        <time_boot_ms>257140000</time_boot_ms>
        <roll>0.109955743</roll>
        <pitch>-0.00523598772</pitch>
        <yaw>2.12930155</yaw>
        <rollspeed>0</rollspeed>
        <pitchspeed>0</pitchspeed>
        <yawspeed>0</yawspeed>
      </mission_attitude>
    </posture>
    <posture>
      <time>2017-11-15T14:31:47.5467719+08:00</time>
      <mission_attitude>
        <time_boot_ms>258140000</time_boot_ms>
        <roll>0.115191728</roll>
        <pitch>-0.00523598772</pitch>
        <yaw>2.146755</yaw>
        <rollspeed>0.0523598753</rollspeed>
        <pitchspeed>0</pitchspeed>
        <yawspeed>0</yawspeed>
      </mission_attitude>
    </posture>
    <posture>
      <time>2017-11-15T14:31:48.5468291+08:00</time>
      <mission_attitude>
        <time_boot_ms>259140000</time_boot_ms>
        <roll>0.08726646</roll>
        <pitch>-0.00349065848</pitch>
        <yaw>2.12930155</yaw>
        <rollspeed>0.0523598753</rollspeed>
        <pitchspeed>0</pitchspeed>
        <yawspeed>0</yawspeed>
      </mission_attitude>
    </posture>
    <posture>
      <time>2017-11-15T14:31:49.5468863+08:00</time>
      <mission_attitude>
        <time_boot_ms>260160000</time_boot_ms>
        <roll>0.06981317</roll>
        <pitch>-0.00523598772</pitch>
        <yaw>2.12930155</yaw>
        <rollspeed>-0.0523598753</rollspeed>
        <pitchspeed>0</pitchspeed>
        <yawspeed>0</yawspeed>
      </mission_attitude>
    </posture>
    <posture>
      <time>2017-11-15T14:31:50.5469435+08:00</time>
      <mission_attitude>
        <time_boot_ms>261160000</time_boot_ms>
        <roll>0.122173049</roll>
        <pitch>-0.00349065848</pitch>
        <yaw>2.12930155</yaw>
        <rollspeed>0</rollspeed>
        <pitchspeed>0</pitchspeed>
        <yawspeed>0</yawspeed>
      </mission_attitude>
    </posture>
    <posture>
      <time>2017-11-15T14:31:51.5470007+08:00</time>
      <mission_attitude>
        <time_boot_ms>262160000</time_boot_ms>
        <roll>0.109955743</roll>
        <pitch>-0.00349065848</pitch>
        <yaw>2.12930155</yaw>
        <rollspeed>-0.0523598753</rollspeed>
        <pitchspeed>0</pitchspeed>
        <yawspeed>0</yawspeed>
      </mission_attitude>
    </posture>
    <posture>
      <time>2017-11-15T14:31:52.5960607+08:00</time>
      <mission_attitude>
        <time_boot_ms>263160000</time_boot_ms>
        <roll>0.104719751</roll>
        <pitch>-0.00523598772</pitch>
        <yaw>2.146755</yaw>
        <rollspeed>0</rollspeed>
        <pitchspeed>0</pitchspeed>
        <yawspeed>0</yawspeed>
      </mission_attitude>
    </posture>
    <posture>
      <time>2017-11-15T14:31:53.5961179+08:00</time>
      <mission_attitude>
        <time_boot_ms>264160000</time_boot_ms>
        <roll>0.116937056</roll>
        <pitch>-0.00523598772</pitch>
        <yaw>2.12930155</yaw>
        <rollspeed>-0.0174532924</rollspeed>
        <pitchspeed>0</pitchspeed>
        <yawspeed>0</yawspeed>
      </mission_attitude>
    </posture>
    <posture>
      <time>2017-11-15T14:31:54.5961751+08:00</time>
      <mission_attitude>
        <time_boot_ms>265160000</time_boot_ms>
        <roll>0.118682384</roll>
        <pitch>-0.00523598772</pitch>
        <yaw>2.146755</yaw>
        <rollspeed>0</rollspeed>
        <pitchspeed>0</pitchspeed>
        <yawspeed>0</yawspeed>
      </mission_attitude>
    </posture>
    <posture>
      <time>2017-11-15T14:31:55.5962323+08:00</time>
      <mission_attitude>
        <time_boot_ms>266160000</time_boot_ms>
        <roll>0.118682384</roll>
        <pitch>-0.00523598772</pitch>
        <yaw>2.146755</yaw>
        <rollspeed>0.0349065848</rollspeed>
        <pitchspeed>0</pitchspeed>
        <yawspeed>0</yawspeed>
      </mission_attitude>
    </posture>
    <posture>
      <time>2017-11-15T14:31:56.5962895+08:00</time>
      <mission_attitude>
        <time_boot_ms>267160000</time_boot_ms>
        <roll>0.120427713</roll>
        <pitch>-0.00523598772</pitch>
        <yaw>2.146755</yaw>
        <rollspeed>0</rollspeed>
        <pitchspeed>0</pitchspeed>
        <yawspeed>0</yawspeed>
      </mission_attitude>
    </posture>
    <posture>
      <time>2017-11-15T14:31:57.5963467+08:00</time>
      <mission_attitude>
        <time_boot_ms>268160000</time_boot_ms>
        <roll>0.123918377</roll>
        <pitch>-0.00523598772</pitch>
        <yaw>2.146755</yaw>
        <rollspeed>-0.0174532924</rollspeed>
        <pitchspeed>0</pitchspeed>
        <yawspeed>0</yawspeed>
      </mission_attitude>
    </posture>
    <posture>
      <time>2017-11-15T14:31:58.5964039+08:00</time>
      <mission_attitude>
        <time_boot_ms>269160000</time_boot_ms>
        <roll>0.1256637</roll>
        <pitch>-0.00523598772</pitch>
        <yaw>2.146755</yaw>
        <rollspeed>-0.0349065848</rollspeed>
        <pitchspeed>0</pitchspeed>
        <yawspeed>0</yawspeed>
      </mission_attitude>
    </posture>
    <posture>
      <time>2017-11-15T14:31:59.5964611+08:00</time>
      <mission_attitude>
        <time_boot_ms>270160000</time_boot_ms>
        <roll>0.127409026</roll>
        <pitch>-0.00523598772</pitch>
        <yaw>2.146755</yaw>
        <rollspeed>0</rollspeed>
        <pitchspeed>0</pitchspeed>
        <yawspeed>0</yawspeed>
      </mission_attitude>
    </posture>
    <posture>
      <time>2017-11-15T14:32:00.6465212+08:00</time>
      <mission_attitude>
        <time_boot_ms>271180000</time_boot_ms>
        <roll>0.129154369</roll>
        <pitch>-0.00523598772</pitch>
        <yaw>2.12930155</yaw>
        <rollspeed>-0.0174532924</rollspeed>
        <pitchspeed>0</pitchspeed>
        <yawspeed>0</yawspeed>
      </mission_attitude>
    </posture>
    <posture>
      <time>2017-11-15T14:32:01.6465784+08:00</time>
      <mission_attitude>
        <time_boot_ms>272180000</time_boot_ms>
        <roll>0.127409026</roll>
        <pitch>-0.00523598772</pitch>
        <yaw>2.146755</yaw>
        <rollspeed>0</rollspeed>
        <pitchspeed>0</pitchspeed>
        <yawspeed>0</yawspeed>
      </mission_attitude>
    </posture>
    <posture>
      <time>2017-11-15T14:32:02.6466356+08:00</time>
      <mission_attitude>
        <time_boot_ms>273180000</time_boot_ms>
        <roll>0.1308997</roll>
        <pitch>-0.00523598772</pitch>
        <yaw>2.146755</yaw>
        <rollspeed>0</rollspeed>
        <pitchspeed>0</pitchspeed>
        <yawspeed>0</yawspeed>
      </mission_attitude>
    </posture>
    <posture>
      <time>2017-11-15T14:32:03.6466928+08:00</time>
      <mission_attitude>
        <time_boot_ms>274180000</time_boot_ms>
        <roll>0.134390354</roll>
        <pitch>-0.00523598772</pitch>
        <yaw>2.146755</yaw>
        <rollspeed>0</rollspeed>
        <pitchspeed>0</pitchspeed>
        <yawspeed>0</yawspeed>
      </mission_attitude>
    </posture>
    <posture>
      <time>2017-11-15T14:32:04.64675+08:00</time>
      <mission_attitude>
        <time_boot_ms>275160000</time_boot_ms>
        <roll>0.129154369</roll>
        <pitch>-0.00523598772</pitch>
        <yaw>2.146755</yaw>
        <rollspeed>-0.0174532924</rollspeed>
        <pitchspeed>0</pitchspeed>
        <yawspeed>0</yawspeed>
      </mission_attitude>
    </posture>
    <posture>
      <time>2017-11-15T14:32:05.6468072+08:00</time>
      <mission_attitude>
        <time_boot_ms>276140000</time_boot_ms>
        <roll>0.137881011</roll>
        <pitch>-0.00523598772</pitch>
        <yaw>2.146755</yaw>
        <rollspeed>0.0349065848</rollspeed>
        <pitchspeed>0</pitchspeed>
        <yawspeed>0</yawspeed>
      </mission_attitude>
    </posture>
    <posture>
      <time>2017-11-15T14:32:06.5968615+08:00</time>
      <mission_attitude>
        <time_boot_ms>277120000</time_boot_ms>
        <roll>0.134390354</roll>
        <pitch>-0.00349065848</pitch>
        <yaw>2.146755</yaw>
        <rollspeed>-0.0174532924</rollspeed>
        <pitchspeed>0</pitchspeed>
        <yawspeed>0</yawspeed>
      </mission_attitude>
    </posture>
    <posture>
      <time>2017-11-15T14:32:07.6469216+08:00</time>
      <mission_attitude>
        <time_boot_ms>278120000</time_boot_ms>
        <roll>0.115191728</roll>
        <pitch>-0.00349065848</pitch>
        <yaw>2.12930155</yaw>
        <rollspeed>0.122173049</rollspeed>
        <pitchspeed>0</pitchspeed>
        <yawspeed>0</yawspeed>
      </mission_attitude>
    </posture>
    <posture>
      <time>2017-11-15T14:32:08.5969759+08:00</time>
      <mission_attitude>
        <time_boot_ms>279100000</time_boot_ms>
        <roll>0.1256637</roll>
        <pitch>-0.00349065848</pitch>
        <yaw>2.146755</yaw>
        <rollspeed>0.06981317</rollspeed>
        <pitchspeed>0</pitchspeed>
        <yawspeed>0</yawspeed>
      </mission_attitude>
    </posture>
    <posture>
      <time>2017-11-15T14:32:09.5960331+08:00</time>
      <mission_attitude>
        <time_boot_ms>280080000</time_boot_ms>
        <roll>0.116937056</roll>
        <pitch>-0.00349065848</pitch>
        <yaw>2.146755</yaw>
        <rollspeed>-0.0349065848</rollspeed>
        <pitchspeed>-0.0174532924</pitchspeed>
        <yawspeed>0</yawspeed>
      </mission_attitude>
    </posture>
    <posture>
      <time>2017-11-15T14:32:10.5960903+08:00</time>
      <mission_attitude>
        <time_boot_ms>281060000</time_boot_ms>
        <roll>0.108210415</roll>
        <pitch>-0.00523598772</pitch>
        <yaw>2.12930155</yaw>
        <rollspeed>-0.08726646</rollspeed>
        <pitchspeed>0</pitchspeed>
        <yawspeed>0</yawspeed>
      </mission_attitude>
    </posture>
    <posture>
      <time>2017-11-15T14:32:11.5461446+08:00</time>
      <mission_attitude>
        <time_boot_ms>282060000</time_boot_ms>
        <roll>0.0994837657</roll>
        <pitch>-0.00349065848</pitch>
        <yaw>2.146755</yaw>
        <rollspeed>-0.0174532924</rollspeed>
        <pitchspeed>0</pitchspeed>
        <yawspeed>0</yawspeed>
      </mission_attitude>
    </posture>
    <posture>
      <time>2017-11-15T14:32:12.5462018+08:00</time>
      <mission_attitude>
        <time_boot_ms>283040000</time_boot_ms>
        <roll>0.102974422</roll>
        <pitch>-0.00349065848</pitch>
        <yaw>2.12930155</yaw>
        <rollspeed>-0.139626339</rollspeed>
        <pitchspeed>0</pitchspeed>
        <yawspeed>0</yawspeed>
      </mission_attitude>
    </posture>
    <posture>
      <time>2017-11-15T14:32:13.546259+08:00</time>
      <mission_attitude>
        <time_boot_ms>284040000</time_boot_ms>
        <roll>0.07853982</roll>
        <pitch>-0.00349065848</pitch>
        <yaw>2.146755</yaw>
        <rollspeed>-0.06981317</rollspeed>
        <pitchspeed>0</pitchspeed>
        <yawspeed>0</yawspeed>
      </mission_attitude>
    </posture>
    <posture>
      <time>2017-11-15T14:32:14.5463162+08:00</time>
      <mission_attitude>
        <time_boot_ms>285020000</time_boot_ms>
        <roll>0.08901179</roll>
        <pitch>-0.00349065848</pitch>
        <yaw>2.12930155</yaw>
        <rollspeed>0.0523598753</rollspeed>
        <pitchspeed>0</pitchspeed>
        <yawspeed>0</yawspeed>
      </mission_attitude>
    </posture>
    <posture>
      <time>2017-11-15T14:32:15.5463734+08:00</time>
      <mission_attitude>
        <time_boot_ms>286020000</time_boot_ms>
        <roll>0.09424778</roll>
        <pitch>-0.00174532924</pitch>
        <yaw>2.146755</yaw>
        <rollspeed>0</rollspeed>
        <pitchspeed>0</pitchspeed>
        <yawspeed>0</yawspeed>
      </mission_attitude>
    </posture>
    <posture>
      <time>2017-11-15T14:32:16.5464306+08:00</time>
      <mission_attitude>
        <time_boot_ms>287000000</time_boot_ms>
        <roll>0.0820304751</roll>
        <pitch>-0.00174532924</pitch>
        <yaw>2.12930155</yaw>
        <rollspeed>-0.0174532924</rollspeed>
        <pitchspeed>0</pitchspeed>
        <yawspeed>0</yawspeed>
      </mission_attitude>
    </posture>
    <posture>
      <time>2017-11-15T14:32:17.5464878+08:00</time>
      <mission_attitude>
        <time_boot_ms>288020000</time_boot_ms>
        <roll>0.09773844</roll>
        <pitch>-0.00174532924</pitch>
        <yaw>2.12930155</yaw>
        <rollspeed>-0.0349065848</rollspeed>
        <pitchspeed>0</pitchspeed>
        <yawspeed>0</yawspeed>
      </mission_attitude>
    </posture>
    <posture>
      <time>2017-11-15T14:32:18.546545+08:00</time>
      <mission_attitude>
        <time_boot_ms>289000000</time_boot_ms>
        <roll>0.09075712</roll>
        <pitch>-0.00523598772</pitch>
        <yaw>2.12930155</yaw>
        <rollspeed>-0.122173049</rollspeed>
        <pitchspeed>0</pitchspeed>
        <yawspeed>0</yawspeed>
      </mission_attitude>
    </posture>
    <posture>
      <time>2017-11-15T14:32:19.5466022+08:00</time>
      <mission_attitude>
        <time_boot_ms>289980000</time_boot_ms>
        <roll>0.102974422</roll>
        <pitch>-0.00523598772</pitch>
        <yaw>2.146755</yaw>
        <rollspeed>-0.0174532924</rollspeed>
        <pitchspeed>0</pitchspeed>
        <yawspeed>0</yawspeed>
      </mission_attitude>
    </posture>
    <posture>
      <time>2017-11-15T14:32:20.5466594+08:00</time>
      <mission_attitude>
        <time_boot_ms>290980000</time_boot_ms>
        <roll>0.101229094</roll>
        <pitch>-0.00349065848</pitch>
        <yaw>2.146755</yaw>
        <rollspeed>0.06981317</rollspeed>
        <pitchspeed>0</pitchspeed>
        <yawspeed>0</yawspeed>
      </mission_attitude>
    </posture>
    <posture>
      <time>2017-11-15T14:32:21.5467166+08:00</time>
      <mission_attitude>
        <time_boot_ms>291980000</time_boot_ms>
        <roll>0.07853982</roll>
        <pitch>-0.00349065848</pitch>
        <yaw>2.12930155</yaw>
        <rollspeed>-0.0174532924</rollspeed>
        <pitchspeed>0</pitchspeed>
        <yawspeed>0</yawspeed>
      </mission_attitude>
    </posture>
    <posture>
      <time>2017-11-15T14:32:22.496771+08:00</time>
      <mission_attitude>
        <time_boot_ms>292960000</time_boot_ms>
        <roll>0.07853982</roll>
        <pitch>-0.00349065848</pitch>
        <yaw>2.12930155</yaw>
        <rollspeed>-0.0174532924</rollspeed>
        <pitchspeed>-0.0174532924</pitchspeed>
        <yawspeed>0.0174532924</yawspeed>
      </mission_attitude>
    </posture>
    <posture>
      <time>2017-11-15T14:32:23.4968282+08:00</time>
      <mission_attitude>
        <time_boot_ms>293960000</time_boot_ms>
        <roll>0.0715585</roll>
        <pitch>-0.00349065848</pitch>
        <yaw>2.12930155</yaw>
        <rollspeed>0.157079637</rollspeed>
        <pitchspeed>0</pitchspeed>
        <yawspeed>0.0174532924</yawspeed>
      </mission_attitude>
    </posture>
    <posture>
      <time>2017-11-15T14:32:24.5468882+08:00</time>
      <mission_attitude>
        <time_boot_ms>294960000</time_boot_ms>
        <roll>0.0418879</roll>
        <pitch>-0.00523598772</pitch>
        <yaw>2.12930155</yaw>
        <rollspeed>0.0349065848</rollspeed>
        <pitchspeed>-0.0174532924</pitchspeed>
        <yawspeed>0.0174532924</yawspeed>
      </mission_attitude>
    </posture>
    <posture>
      <time>2017-11-15T14:32:25.4969426+08:00</time>
      <mission_attitude>
        <time_boot_ms>295940000</time_boot_ms>
        <roll>0.01919862</roll>
        <pitch>-0.006981317</pitch>
        <yaw>2.12930155</yaw>
        <rollspeed>0</rollspeed>
        <pitchspeed>0</pitchspeed>
        <yawspeed>0</yawspeed>
      </mission_attitude>
    </posture>
    <posture>
      <time>2017-11-15T14:32:26.5470026+08:00</time>
      <mission_attitude>
        <time_boot_ms>296940000</time_boot_ms>
        <roll>-0.008726646</roll>
        <pitch>-0.008726646</pitch>
        <yaw>2.12930155</yaw>
        <rollspeed>0.06981317</rollspeed>
        <pitchspeed>0</pitchspeed>
        <yawspeed>0.0174532924</yawspeed>
      </mission_attitude>
    </posture>
    <posture>
      <time>2017-11-15T14:32:27.4960569+08:00</time>
      <mission_attitude>
        <time_boot_ms>297920000</time_boot_ms>
        <roll>0.006981317</roll>
        <pitch>-0.006981317</pitch>
        <yaw>2.12930155</yaw>
        <rollspeed>-0.157079637</rollspeed>
        <pitchspeed>0</pitchspeed>
        <yawspeed>0</yawspeed>
      </mission_attitude>
    </posture>
    <posture>
      <time>2017-11-15T14:32:28.4961141+08:00</time>
      <mission_attitude>
        <time_boot_ms>298920000</time_boot_ms>
        <roll>0</roll>
        <pitch>-0.008726646</pitch>
        <yaw>2.12930155</yaw>
        <rollspeed>-0.139626339</rollspeed>
        <pitchspeed>0</pitchspeed>
        <yawspeed>0</yawspeed>
      </mission_attitude>
    </posture>
    <posture>
      <time>2017-11-15T14:32:29.4961713+08:00</time>
      <mission_attitude>
        <time_boot_ms>299900000</time_boot_ms>
        <roll>-0.0104719754</roll>
        <pitch>-0.006981317</pitch>
        <yaw>2.11184835</yaw>
        <rollspeed>0.104719751</rollspeed>
        <pitchspeed>0</pitchspeed>
        <yawspeed>0</yawspeed>
      </mission_attitude>
    </posture>
    <posture>
      <time>2017-11-15T14:32:30.4962285+08:00</time>
      <mission_attitude>
        <time_boot_ms>300880000</time_boot_ms>
        <roll>-0.008726646</roll>
        <pitch>-0.006981317</pitch>
        <yaw>2.12930155</yaw>
        <rollspeed>-0.104719751</rollspeed>
        <pitchspeed>0</pitchspeed>
        <yawspeed>-0.0174532924</yawspeed>
      </mission_attitude>
    </posture>
    <posture>
      <time>2017-11-15T14:32:31.4962857+08:00</time>
      <mission_attitude>
        <time_boot_ms>301860000</time_boot_ms>
        <roll>0.02443461</roll>
        <pitch>-0.00523598772</pitch>
        <yaw>2.12930155</yaw>
        <rollspeed>-0.06981317</rollspeed>
        <pitchspeed>0</pitchspeed>
        <yawspeed>0</yawspeed>
      </mission_attitude>
    </posture>
    <posture>
      <time>2017-11-15T14:32:32.4963429+08:00</time>
      <mission_attitude>
        <time_boot_ms>302860000</time_boot_ms>
        <roll>-0.008726646</roll>
        <pitch>-0.006981317</pitch>
        <yaw>2.12930155</yaw>
        <rollspeed>0.122173049</rollspeed>
        <pitchspeed>-0.0174532924</pitchspeed>
        <yawspeed>0.0174532924</yawspeed>
      </mission_attitude>
    </posture>
    <posture>
      <time>2017-11-15T14:32:33.4964001+08:00</time>
      <mission_attitude>
        <time_boot_ms>303860000</time_boot_ms>
        <roll>0.00174532924</roll>
        <pitch>-0.006981317</pitch>
        <yaw>2.12930155</yaw>
        <rollspeed>-0.08726646</rollspeed>
        <pitchspeed>0</pitchspeed>
        <yawspeed>0</yawspeed>
      </mission_attitude>
    </posture>
    <posture>
      <time>2017-11-15T14:32:34.4964573+08:00</time>
      <mission_attitude>
        <time_boot_ms>304860000</time_boot_ms>
        <roll>0.03839724</roll>
        <pitch>-0.00523598772</pitch>
        <yaw>2.12930155</yaw>
        <rollspeed>-0.0523598753</rollspeed>
        <pitchspeed>0</pitchspeed>
        <yawspeed>0</yawspeed>
      </mission_attitude>
    </posture>
    <posture>
      <time>2017-11-15T14:32:35.4965145+08:00</time>
      <mission_attitude>
        <time_boot_ms>305880000</time_boot_ms>
        <roll>0.02268928</roll>
        <pitch>-0.006981317</pitch>
        <yaw>2.146755</yaw>
        <rollspeed>-0.0523598753</rollspeed>
        <pitchspeed>0.0174532924</pitchspeed>
        <yawspeed>0</yawspeed>
      </mission_attitude>
    </posture>
    <posture>
      <time>2017-11-15T14:32:36.4965717+08:00</time>
      <mission_attitude>
        <time_boot_ms>306860000</time_boot_ms>
        <roll>0.0418879</roll>
        <pitch>-0.00523598772</pitch>
        <yaw>2.146755</yaw>
        <rollspeed>-0.0349065848</rollspeed>
        <pitchspeed>0</pitchspeed>
        <yawspeed>0</yawspeed>
      </mission_attitude>
    </posture>
    <posture>
      <time>2017-11-15T14:32:37.4966289+08:00</time>
      <mission_attitude>
        <time_boot_ms>307860000</time_boot_ms>
        <roll>0.07853982</roll>
        <pitch>-0.00349065848</pitch>
        <yaw>2.146755</yaw>
        <rollspeed>-0.104719751</rollspeed>
        <pitchspeed>0</pitchspeed>
        <yawspeed>0</yawspeed>
      </mission_attitude>
    </posture>
    <posture>
      <time>2017-11-15T14:32:38.4966861+08:00</time>
      <mission_attitude>
        <time_boot_ms>308860000</time_boot_ms>
        <roll>0.0314159244</roll>
        <pitch>-0.00523598772</pitch>
        <yaw>2.146755</yaw>
        <rollspeed>0.17453292</rollspeed>
        <pitchspeed>-0.0174532924</pitchspeed>
        <yawspeed>0</yawspeed>
      </mission_attitude>
    </posture>
    <posture>
      <time>2017-11-15T14:32:39.4967433+08:00</time>
      <mission_attitude>
        <time_boot_ms>309840000</time_boot_ms>
        <roll>0.0366519131</roll>
        <pitch>-0.00523598772</pitch>
        <yaw>2.12930155</yaw>
        <rollspeed>-0.06981317</rollspeed>
        <pitchspeed>0</pitchspeed>
        <yawspeed>0</yawspeed>
      </mission_attitude>
    </posture>
    <posture>
      <time>2017-11-15T14:32:40.5468034+08:00</time>
      <mission_attitude>
        <time_boot_ms>310880000</time_boot_ms>
        <roll>0.00523598772</roll>
        <pitch>-0.006981317</pitch>
        <yaw>2.12930155</yaw>
        <rollspeed>0.0523598753</rollspeed>
        <pitchspeed>-0.0174532924</pitchspeed>
        <yawspeed>0.0174532924</yawspeed>
      </mission_attitude>
    </posture>
    <posture>
      <time>2017-11-15T14:32:41.5468606+08:00</time>
      <mission_attitude>
        <time_boot_ms>311900000</time_boot_ms>
        <roll>0.0366519131</roll>
        <pitch>-0.006981317</pitch>
        <yaw>2.12930155</yaw>
        <rollspeed>-0.08726646</rollspeed>
        <pitchspeed>0.0174532924</pitchspeed>
        <yawspeed>0</yawspeed>
      </mission_attitude>
    </posture>
    <posture>
      <time>2017-11-15T14:32:42.5969206+08:00</time>
      <mission_attitude>
        <time_boot_ms>312920000</time_boot_ms>
        <roll>0.02094395</roll>
        <pitch>-0.006981317</pitch>
        <yaw>2.12930155</yaw>
        <rollspeed>-0.139626339</rollspeed>
        <pitchspeed>0</pitchspeed>
        <yawspeed>0</yawspeed>
      </mission_attitude>
    </posture>
    <posture>
      <time>2017-11-15T14:32:43.546975+08:00</time>
      <mission_attitude>
        <time_boot_ms>313900000</time_boot_ms>
        <roll>0.0157079622</roll>
        <pitch>-0.006981317</pitch>
        <yaw>2.12930155</yaw>
        <rollspeed>0</rollspeed>
        <pitchspeed>0</pitchspeed>
        <yawspeed>0</yawspeed>
      </mission_attitude>
    </posture>
    <posture>
      <time>2017-11-15T14:32:44.596035+08:00</time>
      <mission_attitude>
        <time_boot_ms>314900000</time_boot_ms>
        <roll>-0.008726646</roll>
        <pitch>-0.008726646</pitch>
        <yaw>2.12930155</yaw>
        <rollspeed>0.0349065848</rollspeed>
        <pitchspeed>0</pitchspeed>
        <yawspeed>0.0174532924</yawspeed>
      </mission_attitude>
    </posture>
    <posture>
      <time>2017-11-15T14:32:45.5460893+08:00</time>
      <mission_attitude>
        <time_boot_ms>315880000</time_boot_ms>
        <roll>0.008726646</roll>
        <pitch>-0.008726646</pitch>
        <yaw>2.12930155</yaw>
        <rollspeed>-0.06981317</rollspeed>
        <pitchspeed>0.0174532924</pitchspeed>
        <yawspeed>0.0174532924</yawspeed>
      </mission_attitude>
    </posture>
    <posture>
      <time>2017-11-15T14:32:46.5961494+08:00</time>
      <mission_attitude>
        <time_boot_ms>316900000</time_boot_ms>
        <roll>0.0331612565</roll>
        <pitch>-0.006981317</pitch>
        <yaw>2.12930155</yaw>
        <rollspeed>-0.104719751</rollspeed>
        <pitchspeed>0.0174532924</pitchspeed>
        <yawspeed>0</yawspeed>
      </mission_attitude>
    </posture>
    <posture>
      <time>2017-11-15T14:32:47.5962066+08:00</time>
      <mission_attitude>
        <time_boot_ms>317920000</time_boot_ms>
        <roll>0.0401425734</roll>
        <pitch>-0.006981317</pitch>
        <yaw>2.12930155</yaw>
        <rollspeed>0.0349065848</rollspeed>
        <pitchspeed>0</pitchspeed>
        <yawspeed>0</yawspeed>
      </mission_attitude>
    </posture>
    <posture>
      <time>2017-11-15T14:32:48.5962638+08:00</time>
      <mission_attitude>
        <time_boot_ms>318920000</time_boot_ms>
        <roll>0.050614547</roll>
        <pitch>-0.006981317</pitch>
        <yaw>2.12930155</yaw>
        <rollspeed>-0.157079637</rollspeed>
        <pitchspeed>0.0174532924</pitchspeed>
        <yawspeed>0</yawspeed>
      </mission_attitude>
    </posture>
    <posture>
      <time>2017-11-15T14:32:49.596321+08:00</time>
      <mission_attitude>
        <time_boot_ms>319920000</time_boot_ms>
        <roll>0.0610865243</roll>
        <pitch>-0.00523598772</pitch>
        <yaw>2.12930155</yaw>
        <rollspeed>-0.2268928</rollspeed>
        <pitchspeed>0</pitchspeed>
        <yawspeed>-0.0174532924</yawspeed>
      </mission_attitude>
    </posture>
    <posture>
      <time>2017-11-15T14:32:50.5963782+08:00</time>
      <mission_attitude>
        <time_boot_ms>320920000</time_boot_ms>
        <roll>0.06283185</roll>
        <pitch>-0.00523598772</pitch>
        <yaw>2.12930155</yaw>
        <rollspeed>-0.104719751</rollspeed>
        <pitchspeed>0.0174532924</pitchspeed>
        <yawspeed>0</yawspeed>
      </mission_attitude>
    </posture>
    <posture>
      <time>2017-11-15T14:32:51.6464382+08:00</time>
      <mission_attitude>
        <time_boot_ms>321920000</time_boot_ms>
        <roll>0.0837758</roll>
        <pitch>-0.00523598772</pitch>
        <yaw>2.12930155</yaw>
        <rollspeed>0.0349065848</rollspeed>
        <pitchspeed>0.0174532924</pitchspeed>
        <yawspeed>0.0174532924</yawspeed>
      </mission_attitude>
    </posture>
    <posture>
      <time>2017-11-15T14:32:52.5964926+08:00</time>
      <mission_attitude>
        <time_boot_ms>322900000</time_boot_ms>
        <roll>0.0837758</roll>
        <pitch>-0.00523598772</pitch>
        <yaw>2.146755</yaw>
        <rollspeed>0.139626339</rollspeed>
        <pitchspeed>0</pitchspeed>
        <yawspeed>0</yawspeed>
      </mission_attitude>
    </posture>
    <posture>
      <time>2017-11-15T14:32:53.6465526+08:00</time>
      <mission_attitude>
        <time_boot_ms>323920000</time_boot_ms>
        <roll>0.106465079</roll>
        <pitch>-0.00523598772</pitch>
        <yaw>2.146755</yaw>
        <rollspeed>-0.0349065848</rollspeed>
        <pitchspeed>0</pitchspeed>
        <yawspeed>0</yawspeed>
      </mission_attitude>
    </posture>
    <posture>
      <time>2017-11-15T14:32:54.6466098+08:00</time>
      <mission_attitude>
        <time_boot_ms>324920000</time_boot_ms>
        <roll>0.108210415</roll>
        <pitch>-0.00523598772</pitch>
        <yaw>2.146755</yaw>
        <rollspeed>-0.0523598753</rollspeed>
        <pitchspeed>0</pitchspeed>
        <yawspeed>0</yawspeed>
      </mission_attitude>
    </posture>
    <posture>
      <time>2017-11-15T14:32:55.646667+08:00</time>
      <mission_attitude>
        <time_boot_ms>325900000</time_boot_ms>
        <roll>0.108210415</roll>
        <pitch>-0.00523598772</pitch>
        <yaw>2.146755</yaw>
        <rollspeed>0</rollspeed>
        <pitchspeed>0</pitchspeed>
        <yawspeed>0</yawspeed>
      </mission_attitude>
    </posture>
    <posture>
      <time>2017-11-15T14:32:56.8967385+08:00</time>
      <mission_attitude>
        <time_boot_ms>327160000</time_boot_ms>
        <roll>0.1134464</roll>
        <pitch>-0.00523598772</pitch>
        <yaw>2.12930155</yaw>
        <rollspeed>0.0523598753</rollspeed>
        <pitchspeed>0</pitchspeed>
        <yawspeed>0</yawspeed>
      </mission_attitude>
    </posture>
    <posture>
      <time>2017-11-15T14:32:57.8967957+08:00</time>
      <mission_attitude>
        <time_boot_ms>328160000</time_boot_ms>
        <roll>0.09599311</roll>
        <pitch>-0.00523598772</pitch>
        <yaw>2.146755</yaw>
        <rollspeed>0.0174532924</rollspeed>
        <pitchspeed>0</pitchspeed>
        <yawspeed>0</yawspeed>
      </mission_attitude>
    </posture>
    <posture>
      <time>2017-11-15T14:32:58.8968529+08:00</time>
      <mission_attitude>
        <time_boot_ms>329160000</time_boot_ms>
        <roll>0.0994837657</roll>
        <pitch>-0.00349065848</pitch>
        <yaw>2.146755</yaw>
        <rollspeed>-0.0523598753</rollspeed>
        <pitchspeed>0</pitchspeed>
        <yawspeed>0</yawspeed>
      </mission_attitude>
    </posture>
    <posture>
      <time>2017-11-15T14:32:59.8969101+08:00</time>
      <mission_attitude>
        <time_boot_ms>330160000</time_boot_ms>
        <roll>0.0994837657</roll>
        <pitch>-0.00349065848</pitch>
        <yaw>2.12930155</yaw>
        <rollspeed>-0.06981317</rollspeed>
        <pitchspeed>0</pitchspeed>
        <yawspeed>0</yawspeed>
      </mission_attitude>
    </posture>
    <posture>
      <time>2017-11-15T14:33:00.8969673+08:00</time>
      <mission_attitude>
        <time_boot_ms>331160000</time_boot_ms>
        <roll>0.102974422</roll>
        <pitch>-0.00523598772</pitch>
        <yaw>2.146755</yaw>
        <rollspeed>-0.0174532924</rollspeed>
        <pitchspeed>0</pitchspeed>
        <yawspeed>0</yawspeed>
      </mission_attitude>
    </posture>
    <posture>
      <time>2017-11-15T14:33:01.8960245+08:00</time>
      <mission_attitude>
        <time_boot_ms>332140000</time_boot_ms>
        <roll>0.102974422</roll>
        <pitch>-0.00523598772</pitch>
        <yaw>2.146755</yaw>
        <rollspeed>-0.0174532924</rollspeed>
        <pitchspeed>0</pitchspeed>
        <yawspeed>0</yawspeed>
      </mission_attitude>
    </posture>
    <posture>
      <time>2017-11-15T14:33:02.8960817+08:00</time>
      <mission_attitude>
        <time_boot_ms>333120000</time_boot_ms>
        <roll>0.106465079</roll>
        <pitch>-0.00523598772</pitch>
        <yaw>2.146755</yaw>
        <rollspeed>-0.0174532924</rollspeed>
        <pitchspeed>0</pitchspeed>
        <yawspeed>0</yawspeed>
      </mission_attitude>
    </posture>
    <posture>
      <time>2017-11-15T14:33:03.8961389+08:00</time>
      <mission_attitude>
        <time_boot_ms>334140000</time_boot_ms>
        <roll>0.106465079</roll>
        <pitch>-0.00523598772</pitch>
        <yaw>2.12930155</yaw>
        <rollspeed>-0.0174532924</rollspeed>
        <pitchspeed>0</pitchspeed>
        <yawspeed>0</yawspeed>
      </mission_attitude>
    </posture>
    <posture>
      <time>2017-11-15T14:33:04.8961961+08:00</time>
      <mission_attitude>
        <time_boot_ms>335120000</time_boot_ms>
        <roll>0.101229094</roll>
        <pitch>-0.00523598772</pitch>
        <yaw>2.146755</yaw>
        <rollspeed>-0.0349065848</rollspeed>
        <pitchspeed>0</pitchspeed>
        <yawspeed>0</yawspeed>
      </mission_attitude>
    </posture>
    <posture>
      <time>2017-11-15T14:33:05.8962533+08:00</time>
      <mission_attitude>
        <time_boot_ms>336100000</time_boot_ms>
        <roll>0.104719751</roll>
        <pitch>-0.00349065848</pitch>
        <yaw>2.12930155</yaw>
        <rollspeed>-0.0349065848</rollspeed>
        <pitchspeed>0</pitchspeed>
        <yawspeed>0</yawspeed>
      </mission_attitude>
    </posture>
    <posture>
      <time>2017-11-15T14:33:06.8963105+08:00</time>
      <mission_attitude>
        <time_boot_ms>337140000</time_boot_ms>
        <roll>0.09075712</roll>
        <pitch>-0.00349065848</pitch>
        <yaw>2.146755</yaw>
        <rollspeed>-0.0349065848</rollspeed>
        <pitchspeed>0</pitchspeed>
        <yawspeed>0</yawspeed>
      </mission_attitude>
    </posture>
    <posture>
      <time>2017-11-15T14:33:07.9463705+08:00</time>
      <mission_attitude>
        <time_boot_ms>338160000</time_boot_ms>
        <roll>0.109955743</roll>
        <pitch>-0.00349065848</pitch>
        <yaw>2.146755</yaw>
        <rollspeed>-0.08726646</rollspeed>
        <pitchspeed>0</pitchspeed>
        <yawspeed>0</yawspeed>
      </mission_attitude>
    </posture>
    <posture>
      <time>2017-11-15T14:33:08.9464277+08:00</time>
      <mission_attitude>
        <time_boot_ms>339160000</time_boot_ms>
        <roll>0.116937056</roll>
        <pitch>-0.00349065848</pitch>
        <yaw>2.146755</yaw>
        <rollspeed>-0.0349065848</rollspeed>
        <pitchspeed>0</pitchspeed>
        <yawspeed>0</yawspeed>
      </mission_attitude>
    </posture>
    <posture>
      <time>2017-11-15T14:33:09.9464849+08:00</time>
      <mission_attitude>
        <time_boot_ms>340140000</time_boot_ms>
        <roll>0.108210415</roll>
        <pitch>-0.00349065848</pitch>
        <yaw>2.12930155</yaw>
        <rollspeed>0.0523598753</rollspeed>
        <pitchspeed>0</pitchspeed>
        <yawspeed>0</yawspeed>
      </mission_attitude>
    </posture>
    <posture>
      <time>2017-11-15T14:33:10.9465421+08:00</time>
      <mission_attitude>
        <time_boot_ms>341140000</time_boot_ms>
        <roll>0.115191728</roll>
        <pitch>-0.00349065848</pitch>
        <yaw>2.12930155</yaw>
        <rollspeed>-0.06981317</rollspeed>
        <pitchspeed>0</pitchspeed>
        <yawspeed>0</yawspeed>
      </mission_attitude>
    </posture>
    <posture>
      <time>2017-11-15T14:33:11.9465993+08:00</time>
      <mission_attitude>
        <time_boot_ms>342140000</time_boot_ms>
        <roll>0.120427713</roll>
        <pitch>-0.00349065848</pitch>
        <yaw>2.146755</yaw>
        <rollspeed>0</rollspeed>
        <pitchspeed>0</pitchspeed>
        <yawspeed>0</yawspeed>
      </mission_attitude>
    </posture>
    <posture>
      <time>2017-11-15T14:33:12.9966594+08:00</time>
      <mission_attitude>
        <time_boot_ms>343160000</time_boot_ms>
        <roll>0.104719751</roll>
        <pitch>-0.00349065848</pitch>
        <yaw>2.12930155</yaw>
        <rollspeed>-0.06981317</rollspeed>
        <pitchspeed>0</pitchspeed>
        <yawspeed>-0.0174532924</yawspeed>
      </mission_attitude>
    </posture>
    <posture>
      <time>2017-11-15T14:33:13.9467137+08:00</time>
      <mission_attitude>
        <time_boot_ms>344140000</time_boot_ms>
        <roll>0.101229094</roll>
        <pitch>-0.00349065848</pitch>
        <yaw>2.146755</yaw>
        <rollspeed>-0.157079637</rollspeed>
        <pitchspeed>0</pitchspeed>
        <yawspeed>-0.0174532924</yawspeed>
      </mission_attitude>
    </posture>
    <posture>
      <time>2017-11-15T14:33:14.9967738+08:00</time>
      <mission_attitude>
        <time_boot_ms>345140000</time_boot_ms>
        <roll>0.08901179</roll>
        <pitch>-0.00349065848</pitch>
        <yaw>2.12930155</yaw>
        <rollspeed>0.0523598753</rollspeed>
        <pitchspeed>0</pitchspeed>
        <yawspeed>0</yawspeed>
      </mission_attitude>
    </posture>
    <posture>
      <time>2017-11-15T14:33:15.996831+08:00</time>
      <mission_attitude>
        <time_boot_ms>346140000</time_boot_ms>
        <roll>0.102974422</roll>
        <pitch>-0.00349065848</pitch>
        <yaw>2.12930155</yaw>
        <rollspeed>-0.08726646</rollspeed>
        <pitchspeed>0</pitchspeed>
        <yawspeed>0</yawspeed>
      </mission_attitude>
    </posture>
    <posture>
      <time>2017-11-15T14:33:16.9968882+08:00</time>
      <mission_attitude>
        <time_boot_ms>347140000</time_boot_ms>
        <roll>0.0994837657</roll>
        <pitch>-0.00349065848</pitch>
        <yaw>2.12930155</yaw>
        <rollspeed>0.0174532924</rollspeed>
        <pitchspeed>-0.0174532924</pitchspeed>
        <yawspeed>0</yawspeed>
      </mission_attitude>
    </posture>
    <posture>
      <time>2017-11-15T14:33:17.9969454+08:00</time>
      <mission_attitude>
        <time_boot_ms>348140000</time_boot_ms>
        <roll>0.104719751</roll>
        <pitch>-0.00349065848</pitch>
        <yaw>2.12930155</yaw>
        <rollspeed>-0.0174532924</rollspeed>
        <pitchspeed>0</pitchspeed>
        <yawspeed>0</yawspeed>
      </mission_attitude>
    </posture>
    <posture>
      <time>2017-11-15T14:33:18.9970026+08:00</time>
      <mission_attitude>
        <time_boot_ms>349140000</time_boot_ms>
        <roll>0.108210415</roll>
        <pitch>-0.00349065848</pitch>
        <yaw>2.12930155</yaw>
        <rollspeed>0</rollspeed>
        <pitchspeed>0</pitchspeed>
        <yawspeed>0</yawspeed>
      </mission_attitude>
    </posture>
    <posture>
      <time>2017-11-15T14:33:19.9960597+08:00</time>
      <mission_attitude>
        <time_boot_ms>350160000</time_boot_ms>
        <roll>0.101229094</roll>
        <pitch>-0.00349065848</pitch>
        <yaw>2.12930155</yaw>
        <rollspeed>-0.0523598753</rollspeed>
        <pitchspeed>0</pitchspeed>
        <yawspeed>0</yawspeed>
      </mission_attitude>
    </posture>
    <posture>
      <time>2017-11-15T14:33:20.9961169+08:00</time>
      <mission_attitude>
        <time_boot_ms>351140000</time_boot_ms>
        <roll>0.09424778</roll>
        <pitch>-0.00349065848</pitch>
        <yaw>2.146755</yaw>
        <rollspeed>0.06981317</rollspeed>
        <pitchspeed>0</pitchspeed>
        <yawspeed>0</yawspeed>
      </mission_attitude>
    </posture>
    <posture>
      <time>2017-11-15T14:33:21.9961741+08:00</time>
      <mission_attitude>
        <time_boot_ms>352140000</time_boot_ms>
        <roll>0.09250245</roll>
        <pitch>-0.00174532924</pitch>
        <yaw>2.146755</yaw>
        <rollspeed>0.06981317</rollspeed>
        <pitchspeed>0</pitchspeed>
        <yawspeed>0</yawspeed>
      </mission_attitude>
    </posture>
    <posture>
      <time>2017-11-15T14:33:23.0462342+08:00</time>
      <mission_attitude>
        <time_boot_ms>353160000</time_boot_ms>
        <roll>0.0837758</roll>
        <pitch>-0.00174532924</pitch>
        <yaw>2.12930155</yaw>
        <rollspeed>0.0349065848</rollspeed>
        <pitchspeed>0</pitchspeed>
        <yawspeed>0</yawspeed>
      </mission_attitude>
    </posture>
    <posture>
      <time>2017-11-15T14:33:24.0462914+08:00</time>
      <mission_attitude>
        <time_boot_ms>354160000</time_boot_ms>
        <roll>0.0733038262</roll>
        <pitch>-0.00349065848</pitch>
        <yaw>2.12930155</yaw>
        <rollspeed>-0.0174532924</rollspeed>
        <pitchspeed>0</pitchspeed>
        <yawspeed>0</yawspeed>
      </mission_attitude>
    </posture>
    <posture>
      <time>2017-11-15T14:33:25.0463486+08:00</time>
      <mission_attitude>
        <time_boot_ms>355140000</time_boot_ms>
        <roll>0.06806784</roll>
        <pitch>-0.00349065848</pitch>
        <yaw>2.12930155</yaw>
        <rollspeed>0</rollspeed>
        <pitchspeed>0</pitchspeed>
        <yawspeed>0</yawspeed>
      </mission_attitude>
    </posture>
    <posture>
      <time>2017-11-15T14:33:25.9964029+08:00</time>
      <mission_attitude>
        <time_boot_ms>356140000</time_boot_ms>
        <roll>0.06806784</roll>
        <pitch>-0.00349065848</pitch>
        <yaw>2.12930155</yaw>
        <rollspeed>-0.0174532924</rollspeed>
        <pitchspeed>0</pitchspeed>
        <yawspeed>0</yawspeed>
      </mission_attitude>
    </posture>
    <posture>
      <time>2017-11-15T14:33:27.046463+08:00</time>
      <mission_attitude>
        <time_boot_ms>357160000</time_boot_ms>
        <roll>0.08028515</roll>
        <pitch>-0.00174532924</pitch>
        <yaw>2.12930155</yaw>
        <rollspeed>-0.104719751</rollspeed>
        <pitchspeed>0</pitchspeed>
        <yawspeed>0</yawspeed>
      </mission_attitude>
    </posture>
    <posture>
      <time>2017-11-15T14:33:28.0465202+08:00</time>
      <mission_attitude>
        <time_boot_ms>358180000</time_boot_ms>
        <roll>0.0366519131</roll>
        <pitch>-0.00523598772</pitch>
        <yaw>2.12930155</yaw>
        <rollspeed>0.06981317</rollspeed>
        <pitchspeed>0</pitchspeed>
        <yawspeed>0</yawspeed>
      </mission_attitude>
    </posture>
    <posture>
      <time>2017-11-15T14:33:29.0465774+08:00</time>
      <mission_attitude>
        <time_boot_ms>359160000</time_boot_ms>
        <roll>0.04537856</roll>
        <pitch>-0.00523598772</pitch>
        <yaw>2.12930155</yaw>
        <rollspeed>0.0174532924</rollspeed>
        <pitchspeed>0</pitchspeed>
        <yawspeed>0</yawspeed>
      </mission_attitude>
    </posture>
    <posture>
      <time>2017-11-15T14:33:30.0466346+08:00</time>
      <mission_attitude>
        <time_boot_ms>360140000</time_boot_ms>
        <roll>0.0331612565</roll>
        <pitch>-0.00523598772</pitch>
        <yaw>2.12930155</yaw>
        <rollspeed>0.0174532924</rollspeed>
        <pitchspeed>0</pitchspeed>
        <yawspeed>0</yawspeed>
      </mission_attitude>
    </posture>
    <posture>
      <time>2017-11-15T14:33:31.0466918+08:00</time>
      <mission_attitude>
        <time_boot_ms>361140000</time_boot_ms>
        <roll>0.0401425734</roll>
        <pitch>-0.00349065848</pitch>
        <yaw>2.12930155</yaw>
        <rollspeed>0.0349065848</rollspeed>
        <pitchspeed>0</pitchspeed>
        <yawspeed>0</yawspeed>
      </mission_attitude>
    </posture>
    <posture>
      <time>2017-11-15T14:33:32.046749+08:00</time>
      <mission_attitude>
        <time_boot_ms>362140000</time_boot_ms>
        <roll>0.03839724</roll>
        <pitch>-0.00349065848</pitch>
        <yaw>2.12930155</yaw>
        <rollspeed>0.0174532924</rollspeed>
        <pitchspeed>0</pitchspeed>
        <yawspeed>0</yawspeed>
      </mission_attitude>
    </posture>
    <posture>
      <time>2017-11-15T14:33:33.0468062+08:00</time>
      <mission_attitude>
        <time_boot_ms>363120000</time_boot_ms>
        <roll>0.0331612565</roll>
        <pitch>-0.00349065848</pitch>
        <yaw>2.12930155</yaw>
        <rollspeed>-0.06981317</rollspeed>
        <pitchspeed>0</pitchspeed>
        <yawspeed>0</yawspeed>
      </mission_attitude>
    </posture>
    <posture>
      <time>2017-11-15T14:33:34.0468634+08:00</time>
      <mission_attitude>
        <time_boot_ms>364120000</time_boot_ms>
        <roll>-0.0139626339</roll>
        <pitch>-0.006981317</pitch>
        <yaw>2.12930155</yaw>
        <rollspeed>0.104719751</rollspeed>
        <pitchspeed>-0.0174532924</pitchspeed>
        <yawspeed>0.0174532924</yawspeed>
      </mission_attitude>
    </posture>
    <posture>
      <time>2017-11-15T14:33:35.0469206+08:00</time>
      <mission_attitude>
        <time_boot_ms>365120000</time_boot_ms>
        <roll>0.00349065848</roll>
        <pitch>-0.00349065848</pitch>
        <yaw>2.12930155</yaw>
        <rollspeed>0</rollspeed>
        <pitchspeed>0</pitchspeed>
        <yawspeed>0</yawspeed>
      </mission_attitude>
    </posture>
    <posture>
      <time>2017-11-15T14:33:36.0469778+08:00</time>
      <mission_attitude>
        <time_boot_ms>366120000</time_boot_ms>
        <roll>-0.0349065848</roll>
        <pitch>-0.008726646</pitch>
        <yaw>2.09439516</yaw>
        <rollspeed>-0.0523598753</rollspeed>
        <pitchspeed>0</pitchspeed>
        <yawspeed>0</yawspeed>
      </mission_attitude>
    </posture>
    <posture>
      <time>2017-11-15T14:33:37.0460349+08:00</time>
      <mission_attitude>
        <time_boot_ms>367120000</time_boot_ms>
        <roll>-0.0575958639</roll>
        <pitch>-0.0104719754</pitch>
        <yaw>2.12930155</yaw>
        <rollspeed>0.191986218</rollspeed>
        <pitchspeed>-0.0349065848</pitchspeed>
        <yawspeed>0.0174532924</yawspeed>
      </mission_attitude>
    </posture>
    <posture>
      <time>2017-11-15T14:33:38.096095+08:00</time>
      <mission_attitude>
        <time_boot_ms>368140000</time_boot_ms>
        <roll>-0.09075712</roll>
        <pitch>-0.0122173047</pitch>
        <yaw>2.12930155</yaw>
        <rollspeed>0.104719751</rollspeed>
        <pitchspeed>-0.0174532924</pitchspeed>
        <yawspeed>0.0174532924</yawspeed>
      </mission_attitude>
    </posture>
    <posture>
      <time>2017-11-15T14:33:39.0961522+08:00</time>
      <mission_attitude>
        <time_boot_ms>369120000</time_boot_ms>
        <roll>-0.0837758</roll>
        <pitch>-0.0122173047</pitch>
        <yaw>2.11184835</yaw>
        <rollspeed>-0.08726646</rollspeed>
        <pitchspeed>0</pitchspeed>
        <yawspeed>0</yawspeed>
      </mission_attitude>
    </posture>
    <posture>
      <time>2017-11-15T14:33:40.0962094+08:00</time>
      <mission_attitude>
        <time_boot_ms>370120000</time_boot_ms>
        <roll>-0.0715585</roll>
        <pitch>-0.008726646</pitch>
        <yaw>2.12930155</yaw>
        <rollspeed>-0.139626339</rollspeed>
        <pitchspeed>0.0174532924</pitchspeed>
        <yawspeed>0</yawspeed>
      </mission_attitude>
    </posture>
    <posture>
      <time>2017-11-15T14:33:41.0962666+08:00</time>
      <mission_attitude>
        <time_boot_ms>371140000</time_boot_ms>
        <roll>-0.0314159244</roll>
        <pitch>-0.006981317</pitch>
        <yaw>2.12930155</yaw>
        <rollspeed>-0.0523598753</rollspeed>
        <pitchspeed>0.0174532924</pitchspeed>
        <yawspeed>0</yawspeed>
      </mission_attitude>
    </posture>
    <posture>
      <time>2017-11-15T14:33:42.0963238+08:00</time>
      <mission_attitude>
        <time_boot_ms>372120000</time_boot_ms>
        <roll>0.00523598772</roll>
        <pitch>-0.00174532924</pitch>
        <yaw>2.12930155</yaw>
        <rollspeed>0.08726646</rollspeed>
        <pitchspeed>-0.0174532924</pitchspeed>
        <yawspeed>0</yawspeed>
      </mission_attitude>
    </posture>
    <posture>
      <time>2017-11-15T14:33:43.096381+08:00</time>
      <mission_attitude>
        <time_boot_ms>373140000</time_boot_ms>
        <roll>-0.0331612565</roll>
        <pitch>-0.006981317</pitch>
        <yaw>2.12930155</yaw>
        <rollspeed>-0.0174532924</rollspeed>
        <pitchspeed>0</pitchspeed>
        <yawspeed>0</yawspeed>
      </mission_attitude>
    </posture>
    <posture>
      <time>2017-11-15T14:33:44.0964382+08:00</time>
      <mission_attitude>
        <time_boot_ms>374140000</time_boot_ms>
        <roll>-0.04537856</roll>
        <pitch>-0.008726646</pitch>
        <yaw>2.11184835</yaw>
        <rollspeed>0.0523598753</rollspeed>
        <pitchspeed>0</pitchspeed>
        <yawspeed>0</yawspeed>
      </mission_attitude>
    </posture>
    <posture>
      <time>2017-11-15T14:33:45.0964954+08:00</time>
      <mission_attitude>
        <time_boot_ms>375140000</time_boot_ms>
        <roll>-0.09075712</roll>
        <pitch>-0.0122173047</pitch>
        <yaw>2.12930155</yaw>
        <rollspeed>0.0523598753</rollspeed>
        <pitchspeed>0</pitchspeed>
        <yawspeed>0</yawspeed>
      </mission_attitude>
    </posture>
    <posture>
      <time>2017-11-15T14:33:46.0965526+08:00</time>
      <mission_attitude>
        <time_boot_ms>376120000</time_boot_ms>
        <roll>-0.0715585</roll>
        <pitch>-0.0104719754</pitch>
        <yaw>2.12930155</yaw>
        <rollspeed>-0.08726646</rollspeed>
        <pitchspeed>0.0174532924</pitchspeed>
        <yawspeed>0</yawspeed>
      </mission_attitude>
    </posture>
    <posture>
      <time>2017-11-15T14:33:47.0966098+08:00</time>
      <mission_attitude>
        <time_boot_ms>377120000</time_boot_ms>
        <roll>-0.0715585</roll>
        <pitch>-0.0104719754</pitch>
        <yaw>2.12930155</yaw>
        <rollspeed>0.0174532924</rollspeed>
        <pitchspeed>0</pitchspeed>
        <yawspeed>0</yawspeed>
      </mission_attitude>
    </posture>
    <posture>
      <time>2017-11-15T14:33:48.096667+08:00</time>
      <mission_attitude>
        <time_boot_ms>378120000</time_boot_ms>
        <roll>-0.0610865243</roll>
        <pitch>-0.008726646</pitch>
        <yaw>2.12930155</yaw>
        <rollspeed>0</rollspeed>
        <pitchspeed>0</pitchspeed>
        <yawspeed>0</yawspeed>
      </mission_attitude>
    </posture>
    <posture>
      <time>2017-11-15T14:33:49.1467271+08:00</time>
      <mission_attitude>
        <time_boot_ms>379120000</time_boot_ms>
        <roll>-0.06632251</roll>
        <pitch>-0.008726646</pitch>
        <yaw>2.12930155</yaw>
        <rollspeed>0.157079637</rollspeed>
        <pitchspeed>-0.0174532924</pitchspeed>
        <yawspeed>0</yawspeed>
      </mission_attitude>
    </posture>
    <posture>
      <time>2017-11-15T14:33:50.0967814+08:00</time>
      <mission_attitude>
        <time_boot_ms>380120000</time_boot_ms>
        <roll>-0.0610865243</roll>
        <pitch>-0.008726646</pitch>
        <yaw>2.12930155</yaw>
        <rollspeed>-0.0174532924</rollspeed>
        <pitchspeed>0</pitchspeed>
        <yawspeed>0</yawspeed>
      </mission_attitude>
    </posture>
    <posture>
      <time>2017-11-15T14:33:51.1468415+08:00</time>
      <mission_attitude>
        <time_boot_ms>381140000</time_boot_ms>
        <roll>-0.0575958639</roll>
        <pitch>-0.008726646</pitch>
        <yaw>2.12930155</yaw>
        <rollspeed>0</rollspeed>
        <pitchspeed>0</pitchspeed>
        <yawspeed>0</yawspeed>
      </mission_attitude>
    </posture>
    <posture>
      <time>2017-11-15T14:33:52.1468987+08:00</time>
      <mission_attitude>
        <time_boot_ms>382140000</time_boot_ms>
        <roll>-0.0593411922</roll>
        <pitch>-0.008726646</pitch>
        <yaw>2.12930155</yaw>
        <rollspeed>0.0174532924</rollspeed>
        <pitchspeed>0</pitchspeed>
        <yawspeed>0</yawspeed>
      </mission_attitude>
    </posture>
    <posture>
      <time>2017-11-15T14:33:53.1469559+08:00</time>
      <mission_attitude>
        <time_boot_ms>383160000</time_boot_ms>
        <roll>-0.0541052073</roll>
        <pitch>-0.008726646</pitch>
        <yaw>2.12930155</yaw>
        <rollspeed>0.0174532924</rollspeed>
        <pitchspeed>0</pitchspeed>
        <yawspeed>0</yawspeed>
      </mission_attitude>
    </posture>
    <posture>
      <time>2017-11-15T14:33:54.1470131+08:00</time>
