<?xml version="1.0" encoding="utf-8"?>
<SerializeDataClass xmlns:xsi="http://www.w3.org/2001/XMLSchema-instance" xmlns:xsd="http://www.w3.org/2001/XMLSchema">
  <listposture>
    <posture>
      <time>2017-02-21T13:50:46.0069497+08:00</time>
      <mission_attitude>
        <time_boot_ms>12740000</time_boot_ms>
        <roll>-0.0174532924</roll>
        <pitch>-0.0750491545</pitch>
        <yaw>2.16420817</yaw>
        <rollspeed>0</rollspeed>
        <pitchspeed>0</pitchspeed>
        <yawspeed>0</yawspeed>
      </mission_attitude>
    </posture>
    <posture>
      <time>2017-02-21T13:50:50.0061784+08:00</time>
      <mission_attitude>
        <time_boot_ms>16740000</time_boot_ms>
        <roll>-0.01919862</roll>
        <pitch>-0.0750491545</pitch>
        <yaw>2.28638124</yaw>
        <rollspeed>0</rollspeed>
        <pitchspeed>0</pitchspeed>
        <yawspeed>0</yawspeed>
      </mission_attitude>
    </posture>
    <posture>
      <time>2017-02-21T13:51:01.4568334+08:00</time>
      <mission_attitude>
        <time_boot_ms>660000</time_boot_ms>
        <roll>-0.02094395</roll>
        <pitch>-0.0750491545</pitch>
        <yaw>0</yaw>
        <rollspeed>0</rollspeed>
        <pitchspeed>0</pitchspeed>
        <yawspeed>0</yawspeed>
      </mission_attitude>
    </posture>
    <posture>
      <time>2017-02-21T13:51:03.5069506+08:00</time>
      <mission_attitude>
        <time_boot_ms>2720000</time_boot_ms>
        <roll>-0.02094395</roll>
        <pitch>-0.0750491545</pitch>
        <yaw>2.25147462</yaw>
        <rollspeed>0</rollspeed>
        <pitchspeed>0</pitchspeed>
        <yawspeed>0</yawspeed>
      </mission_attitude>
    </posture>
    <posture>
      <time>2017-02-21T13:51:19.05684+08:00</time>
      <mission_attitude>
        <time_boot_ms>7620000</time_boot_ms>
        <roll>-0.02094395</roll>
        <pitch>-0.0733038262</pitch>
        <yaw>2.11184835</yaw>
        <rollspeed>0</rollspeed>
        <pitchspeed>0</pitchspeed>
        <yawspeed>0</yawspeed>
      </mission_attitude>
    </posture>
    <posture>
      <time>2017-02-21T13:51:46.4564072+08:00</time>
      <mission_attitude>
        <time_boot_ms>34800000</time_boot_ms>
        <roll>-0.02094395</roll>
        <pitch>-0.0733038262</pitch>
        <yaw>2.12930155</yaw>
        <rollspeed>0</rollspeed>
        <pitchspeed>0</pitchspeed>
        <yawspeed>0</yawspeed>
      </mission_attitude>
    </posture>
    <posture>
      <time>2017-02-21T13:51:47.4564644+08:00</time>
      <mission_attitude>
        <time_boot_ms>35820000</time_boot_ms>
        <roll>-0.02094395</roll>
        <pitch>-0.0733038262</pitch>
        <yaw>2.11184835</yaw>
        <rollspeed>0</rollspeed>
        <pitchspeed>0</pitchspeed>
        <yawspeed>0</yawspeed>
      </mission_attitude>
    </posture>
    <posture>
      <time>2017-02-21T13:51:49.4565788+08:00</time>
      <mission_attitude>
        <time_boot_ms>37820000</time_boot_ms>
        <roll>-0.02094395</roll>
        <pitch>-0.0733038262</pitch>
        <yaw>2.216568</yaw>
        <rollspeed>0</rollspeed>
        <pitchspeed>0</pitchspeed>
        <yawspeed>0</yawspeed>
      </mission_attitude>
    </posture>
    <posture>
      <time>2017-02-21T13:51:50.456636+08:00</time>
      <mission_attitude>
        <time_boot_ms>38840000</time_boot_ms>
        <roll>-0.02094395</roll>
        <pitch>-0.0733038262</pitch>
        <yaw>2.146755</yaw>
        <rollspeed>0</rollspeed>
        <pitchspeed>0</pitchspeed>
        <yawspeed>0</yawspeed>
      </mission_attitude>
    </posture>
    <posture>
      <time>2017-02-21T13:51:51.5066961+08:00</time>
      <mission_attitude>
        <time_boot_ms>39840000</time_boot_ms>
        <roll>-0.02094395</roll>
        <pitch>-0.0733038262</pitch>
        <yaw>2.28638124</yaw>
        <rollspeed>0</rollspeed>
        <pitchspeed>0</pitchspeed>
        <yawspeed>0</yawspeed>
      </mission_attitude>
    </posture>
    <posture>
      <time>2017-02-21T13:51:52.5067533+08:00</time>
      <mission_attitude>
        <time_boot_ms>40840000</time_boot_ms>
        <roll>-0.02094395</roll>
        <pitch>-0.0733038262</pitch>
        <yaw>2.12930155</yaw>
        <rollspeed>0</rollspeed>
        <pitchspeed>0</pitchspeed>
        <yawspeed>0</yawspeed>
      </mission_attitude>
    </posture>
    <posture>
      <time>2017-02-21T13:51:53.4568076+08:00</time>
      <mission_attitude>
        <time_boot_ms>41820000</time_boot_ms>
        <roll>-0.02094395</roll>
        <pitch>-0.0733038262</pitch>
        <yaw>2.25147462</yaw>
        <rollspeed>0</rollspeed>
        <pitchspeed>0</pitchspeed>
        <yawspeed>0</yawspeed>
      </mission_attitude>
    </posture>
    <posture>
      <time>2017-02-21T13:51:57.5070393+08:00</time>
      <mission_attitude>
        <time_boot_ms>45840000</time_boot_ms>
        <roll>-0.02094395</roll>
        <pitch>-0.0733038262</pitch>
        <yaw>2.1991148</yaw>
        <rollspeed>0</rollspeed>
        <pitchspeed>0</pitchspeed>
        <yawspeed>0</yawspeed>
      </mission_attitude>
    </posture>
    <posture>
      <time>2017-02-21T13:51:58.5070965+08:00</time>
      <mission_attitude>
        <time_boot_ms>46860000</time_boot_ms>
        <roll>-0.02094395</roll>
        <pitch>-0.0733038262</pitch>
        <yaw>2.1991148</yaw>
        <rollspeed>0</rollspeed>
        <pitchspeed>0</pitchspeed>
        <yawspeed>0</yawspeed>
      </mission_attitude>
    </posture>
    <posture>
      <time>2017-02-21T13:52:16.7571403+08:00</time>
      <mission_attitude>
        <time_boot_ms>64980000</time_boot_ms>
        <roll>-0.02094395</roll>
        <pitch>-0.0733038262</pitch>
        <yaw>1.86750221</yaw>
        <rollspeed>0</rollspeed>
        <pitchspeed>0</pitchspeed>
        <yawspeed>0</yawspeed>
      </mission_attitude>
    </posture>
    <posture>
      <time>2017-02-21T13:52:17.7561974+08:00</time>
      <mission_attitude>
        <time_boot_ms>66020000</time_boot_ms>
        <roll>-0.02094395</roll>
        <pitch>-0.0733038262</pitch>
        <yaw>2.05948853</yaw>
        <rollspeed>0</rollspeed>
        <pitchspeed>0</pitchspeed>
        <yawspeed>0</yawspeed>
      </mission_attitude>
    </posture>
    <posture>
      <time>2017-02-21T13:52:18.7562546+08:00</time>
      <mission_attitude>
        <time_boot_ms>67020000</time_boot_ms>
        <roll>-0.02094395</roll>
        <pitch>-0.0733038262</pitch>
        <yaw>2.23402143</yaw>
        <rollspeed>0</rollspeed>
        <pitchspeed>0</pitchspeed>
        <yawspeed>0</yawspeed>
      </mission_attitude>
    </posture>
    <posture>
      <time>2017-02-21T13:52:19.8563176+08:00</time>
      <mission_attitude>
        <time_boot_ms>68020000</time_boot_ms>
        <roll>-0.02094395</roll>
        <pitch>-0.0733038262</pitch>
        <yaw>2.23402143</yaw>
        <rollspeed>0</rollspeed>
        <pitchspeed>0</pitchspeed>
        <yawspeed>0</yawspeed>
      </mission_attitude>
    </posture>
    <posture>
      <time>2017-02-21T13:52:21.4064062+08:00</time>
      <mission_attitude>
        <time_boot_ms>201200000</time_boot_ms>
        <roll>-0.0593411922</roll>
        <pitch>-0.0349065848</pitch>
        <yaw>5.532694</yaw>
        <rollspeed>0</rollspeed>
        <pitchspeed>0</pitchspeed>
        <yawspeed>0</yawspeed>
      </mission_attitude>
    </posture>
    <posture>
      <time>2017-02-21T13:52:22.4064634+08:00</time>
      <mission_attitude>
        <time_boot_ms>202200000</time_boot_ms>
        <roll>-0.0593411922</roll>
        <pitch>-0.0349065848</pitch>
        <yaw>5.532694</yaw>
        <rollspeed>0</rollspeed>
        <pitchspeed>0</pitchspeed>
        <yawspeed>0</yawspeed>
      </mission_attitude>
    </posture>
    <posture>
      <time>2017-02-21T13:52:23.4065206+08:00</time>
      <mission_attitude>
        <time_boot_ms>203200000</time_boot_ms>
        <roll>-0.0593411922</roll>
        <pitch>-0.0349065848</pitch>
        <yaw>5.51524</yaw>
        <rollspeed>0</rollspeed>
        <pitchspeed>0</pitchspeed>
        <yawspeed>0</yawspeed>
      </mission_attitude>
    </posture>
    <posture>
      <time>2017-02-21T13:52:24.4065778+08:00</time>
      <mission_attitude>
        <time_boot_ms>204200000</time_boot_ms>
        <roll>-0.0593411922</roll>
        <pitch>-0.0349065848</pitch>
        <yaw>5.56760025</yaw>
        <rollspeed>0</rollspeed>
        <pitchspeed>0</pitchspeed>
        <yawspeed>0</yawspeed>
      </mission_attitude>
    </posture>
    <posture>
      <time>2017-02-21T13:52:25.406635+08:00</time>
      <mission_attitude>
        <time_boot_ms>205180000</time_boot_ms>
        <roll>-0.0593411922</roll>
        <pitch>-0.0349065848</pitch>
        <yaw>5.550147</yaw>
        <rollspeed>0</rollspeed>
        <pitchspeed>0</pitchspeed>
        <yawspeed>0</yawspeed>
      </mission_attitude>
    </posture>
    <posture>
      <time>2017-02-21T13:52:26.4066922+08:00</time>
      <mission_attitude>
        <time_boot_ms>206160000</time_boot_ms>
        <roll>-0.0593411922</roll>
        <pitch>-0.0349065848</pitch>
        <yaw>5.550147</yaw>
        <rollspeed>0</rollspeed>
        <pitchspeed>0</pitchspeed>
        <yawspeed>0</yawspeed>
      </mission_attitude>
    </posture>
    <posture>
      <time>2017-02-21T13:52:27.3567466+08:00</time>
      <mission_attitude>
        <time_boot_ms>207160000</time_boot_ms>
        <roll>-0.0593411922</roll>
        <pitch>-0.0349065848</pitch>
        <yaw>5.550147</yaw>
        <rollspeed>0</rollspeed>
        <pitchspeed>0</pitchspeed>
        <yawspeed>0</yawspeed>
      </mission_attitude>
    </posture>
    <posture>
      <time>2017-02-21T13:52:28.3568038+08:00</time>
      <mission_attitude>
        <time_boot_ms>208160000</time_boot_ms>
        <roll>-0.0610865243</roll>
        <pitch>-0.0349065848</pitch>
        <yaw>5.51524</yaw>
        <rollspeed>0</rollspeed>
        <pitchspeed>0</pitchspeed>
        <yawspeed>0</yawspeed>
      </mission_attitude>
    </posture>
    <posture>
      <time>2017-02-21T13:52:29.4068638+08:00</time>
      <mission_attitude>
        <time_boot_ms>209140000</time_boot_ms>
        <roll>-0.0610865243</roll>
        <pitch>-0.0349065848</pitch>
        <yaw>5.550147</yaw>
        <rollspeed>0</rollspeed>
        <pitchspeed>0</pitchspeed>
        <yawspeed>0</yawspeed>
      </mission_attitude>
    </posture>
    <posture>
      <time>2017-02-21T13:52:30.406921+08:00</time>
      <mission_attitude>
        <time_boot_ms>210120000</time_boot_ms>
        <roll>-0.0610865243</roll>
        <pitch>-0.0366519131</pitch>
        <yaw>5.532694</yaw>
        <rollspeed>0</rollspeed>
        <pitchspeed>0</pitchspeed>
        <yawspeed>0</yawspeed>
      </mission_attitude>
    </posture>
    <posture>
      <time>2017-02-21T13:52:31.4069782+08:00</time>
      <mission_attitude>
        <time_boot_ms>211120000</time_boot_ms>
        <roll>-0.0610865243</roll>
        <pitch>-0.0349065848</pitch>
        <yaw>5.550147</yaw>
        <rollspeed>0</rollspeed>
        <pitchspeed>0</pitchspeed>
        <yawspeed>0</yawspeed>
      </mission_attitude>
    </posture>
    <posture>
      <time>2017-02-21T13:52:32.3570326+08:00</time>
      <mission_attitude>
        <time_boot_ms>212100000</time_boot_ms>
        <roll>-0.0610865243</roll>
        <pitch>-0.0349065848</pitch>
        <yaw>5.550147</yaw>
        <rollspeed>0</rollspeed>
        <pitchspeed>0</pitchspeed>
        <yawspeed>0</yawspeed>
      </mission_attitude>
    </posture>
    <posture>
      <time>2017-02-21T13:52:33.3570898+08:00</time>
      <mission_attitude>
        <time_boot_ms>213080000</time_boot_ms>
        <roll>-0.0610865243</roll>
        <pitch>-0.0366519131</pitch>
        <yaw>5.550147</yaw>
        <rollspeed>0</rollspeed>
        <pitchspeed>0</pitchspeed>
        <yawspeed>0</yawspeed>
      </mission_attitude>
    </posture>
    <posture>
      <time>2017-02-21T13:52:34.3071441+08:00</time>
      <mission_attitude>
        <time_boot_ms>214060000</time_boot_ms>
        <roll>-0.0610865243</roll>
        <pitch>-0.0366519131</pitch>
        <yaw>5.550147</yaw>
        <rollspeed>0</rollspeed>
        <pitchspeed>0</pitchspeed>
        <yawspeed>0</yawspeed>
      </mission_attitude>
    </posture>
    <posture>
      <time>2017-02-21T13:52:35.3562041+08:00</time>
      <mission_attitude>
        <time_boot_ms>215040000</time_boot_ms>
        <roll>-0.0610865243</roll>
        <pitch>-0.0366519131</pitch>
        <yaw>5.550147</yaw>
        <rollspeed>0</rollspeed>
        <pitchspeed>0</pitchspeed>
        <yawspeed>0</yawspeed>
      </mission_attitude>
    </posture>
    <posture>
      <time>2017-02-21T13:52:36.3562613+08:00</time>
      <mission_attitude>
        <time_boot_ms>216040000</time_boot_ms>
        <roll>-0.0610865243</roll>
        <pitch>-0.0366519131</pitch>
        <yaw>5.550147</yaw>
        <rollspeed>0</rollspeed>
        <pitchspeed>0</pitchspeed>
        <yawspeed>0</yawspeed>
      </mission_attitude>
    </posture>
    <posture>
      <time>2017-02-21T13:52:37.3563185+08:00</time>
      <mission_attitude>
        <time_boot_ms>217040000</time_boot_ms>
        <roll>-0.0610865243</roll>
        <pitch>-0.0366519131</pitch>
        <yaw>5.532694</yaw>
        <rollspeed>0</rollspeed>
        <pitchspeed>0</pitchspeed>
        <yawspeed>0</yawspeed>
      </mission_attitude>
    </posture>
    <posture>
      <time>2017-02-21T13:52:38.4063786+08:00</time>
      <mission_attitude>
        <time_boot_ms>218020000</time_boot_ms>
        <roll>-0.0610865243</roll>
        <pitch>-0.0366519131</pitch>
        <yaw>5.532694</yaw>
        <rollspeed>0</rollspeed>
        <pitchspeed>0</pitchspeed>
        <yawspeed>0</yawspeed>
      </mission_attitude>
    </posture>
    <posture>
      <time>2017-02-21T13:52:39.3564329+08:00</time>
      <mission_attitude>
        <time_boot_ms>219020000</time_boot_ms>
        <roll>-0.0610865243</roll>
        <pitch>-0.0366519131</pitch>
        <yaw>5.51524</yaw>
        <rollspeed>0</rollspeed>
        <pitchspeed>0</pitchspeed>
        <yawspeed>0</yawspeed>
      </mission_attitude>
    </posture>
    <posture>
      <time>2017-02-21T13:52:45.3067732+08:00</time>
      <mission_attitude>
        <time_boot_ms>224980000</time_boot_ms>
        <roll>-0.0610865243</roll>
        <pitch>-0.0366519131</pitch>
        <yaw>5.550147</yaw>
        <rollspeed>0</rollspeed>
        <pitchspeed>0</pitchspeed>
        <yawspeed>0</yawspeed>
      </mission_attitude>
    </posture>
    <posture>
      <time>2017-02-21T13:52:46.3068304+08:00</time>
      <mission_attitude>
        <time_boot_ms>225960000</time_boot_ms>
        <roll>-0.0610865243</roll>
        <pitch>-0.0366519131</pitch>
        <yaw>5.532694</yaw>
        <rollspeed>0</rollspeed>
        <pitchspeed>0</pitchspeed>
        <yawspeed>0</yawspeed>
      </mission_attitude>
    </posture>
    <posture>
      <time>2017-02-21T13:52:47.3068876+08:00</time>
      <mission_attitude>
        <time_boot_ms>226960000</time_boot_ms>
        <roll>-0.0610865243</roll>
        <pitch>-0.0366519131</pitch>
        <yaw>5.550147</yaw>
        <rollspeed>0</rollspeed>
        <pitchspeed>0</pitchspeed>
        <yawspeed>0</yawspeed>
      </mission_attitude>
    </posture>
    <posture>
      <time>2017-02-21T13:52:48.3069448+08:00</time>
      <mission_attitude>
        <time_boot_ms>227960000</time_boot_ms>
        <roll>-0.0610865243</roll>
        <pitch>-0.0349065848</pitch>
        <yaw>5.532694</yaw>
        <rollspeed>0</rollspeed>
        <pitchspeed>0</pitchspeed>
        <yawspeed>0</yawspeed>
      </mission_attitude>
    </posture>
    <posture>
      <time>2017-02-21T13:52:49.307002+08:00</time>
      <mission_attitude>
        <time_boot_ms>228960000</time_boot_ms>
        <roll>-0.0610865243</roll>
        <pitch>-0.0349065848</pitch>
        <yaw>5.51524</yaw>
        <rollspeed>0</rollspeed>
        <pitchspeed>0</pitchspeed>
        <yawspeed>0</yawspeed>
      </mission_attitude>
    </posture>
    <posture>
      <time>2017-02-21T13:52:50.3070592+08:00</time>
      <mission_attitude>
        <time_boot_ms>229960000</time_boot_ms>
        <roll>-0.0610865243</roll>
        <pitch>-0.0349065848</pitch>
        <yaw>5.532694</yaw>
        <rollspeed>0</rollspeed>
        <pitchspeed>0</pitchspeed>
        <yawspeed>0</yawspeed>
      </mission_attitude>
    </posture>
    <posture>
      <time>2017-02-21T13:52:51.3071164+08:00</time>
      <mission_attitude>
        <time_boot_ms>230960000</time_boot_ms>
        <roll>-0.0610865243</roll>
        <pitch>-0.0349065848</pitch>
        <yaw>5.532694</yaw>
        <rollspeed>0</rollspeed>
        <pitchspeed>0</pitchspeed>
        <yawspeed>0</yawspeed>
      </mission_attitude>
    </posture>
    <posture>
      <time>2017-02-21T13:52:52.3061736+08:00</time>
      <mission_attitude>
        <time_boot_ms>231960000</time_boot_ms>
        <roll>-0.0610865243</roll>
        <pitch>-0.0349065848</pitch>
        <yaw>5.532694</yaw>
        <rollspeed>0</rollspeed>
        <pitchspeed>0</pitchspeed>
        <yawspeed>0</yawspeed>
      </mission_attitude>
    </posture>
    <posture>
      <time>2017-02-21T13:52:53.3062308+08:00</time>
      <mission_attitude>
        <time_boot_ms>232960000</time_boot_ms>
        <roll>-0.0610865243</roll>
        <pitch>-0.0349065848</pitch>
        <yaw>5.550147</yaw>
        <rollspeed>0</rollspeed>
        <pitchspeed>0</pitchspeed>
        <yawspeed>0</yawspeed>
      </mission_attitude>
    </posture>
    <posture>
      <time>2017-02-21T13:52:54.306288+08:00</time>
      <mission_attitude>
        <time_boot_ms>233960000</time_boot_ms>
        <roll>-0.0610865243</roll>
        <pitch>-0.0349065848</pitch>
        <yaw>5.532694</yaw>
        <rollspeed>0</rollspeed>
        <pitchspeed>0</pitchspeed>
        <yawspeed>0</yawspeed>
      </mission_attitude>
    </posture>
    <posture>
      <time>2017-02-21T13:52:55.356348+08:00</time>
      <mission_attitude>
        <time_boot_ms>234960000</time_boot_ms>
        <roll>-0.0610865243</roll>
        <pitch>-0.0349065848</pitch>
        <yaw>5.550147</yaw>
        <rollspeed>0</rollspeed>
        <pitchspeed>0</pitchspeed>
        <yawspeed>0</yawspeed>
      </mission_attitude>
    </posture>
    <posture>
      <time>2017-02-21T13:52:56.3064024+08:00</time>
      <mission_attitude>
        <time_boot_ms>235940000</time_boot_ms>
        <roll>-0.0610865243</roll>
        <pitch>-0.0349065848</pitch>
        <yaw>5.51524</yaw>
        <rollspeed>0</rollspeed>
        <pitchspeed>0</pitchspeed>
        <yawspeed>0</yawspeed>
      </mission_attitude>
    </posture>
    <posture>
      <time>2017-02-21T13:52:57.3064596+08:00</time>
      <mission_attitude>
        <time_boot_ms>236940000</time_boot_ms>
        <roll>-0.0610865243</roll>
        <pitch>-0.0349065848</pitch>
        <yaw>5.56760025</yaw>
        <rollspeed>0</rollspeed>
        <pitchspeed>0</pitchspeed>
        <yawspeed>0</yawspeed>
      </mission_attitude>
    </posture>
    <posture>
      <time>2017-02-21T13:52:58.3065168+08:00</time>
      <mission_attitude>
        <time_boot_ms>237940000</time_boot_ms>
        <roll>-0.0610865243</roll>
        <pitch>-0.0349065848</pitch>
        <yaw>5.532694</yaw>
        <rollspeed>0</rollspeed>
        <pitchspeed>0</pitchspeed>
        <yawspeed>0</yawspeed>
      </mission_attitude>
    </posture>
    <posture>
      <time>2017-02-21T13:52:59.3565768+08:00</time>
      <mission_attitude>
        <time_boot_ms>238940000</time_boot_ms>
        <roll>-0.0610865243</roll>
        <pitch>-0.0349065848</pitch>
        <yaw>5.550147</yaw>
        <rollspeed>0</rollspeed>
        <pitchspeed>0</pitchspeed>
        <yawspeed>0</yawspeed>
      </mission_attitude>
    </posture>
    <posture>
      <time>2017-02-21T13:53:00.3066312+08:00</time>
      <mission_attitude>
        <time_boot_ms>239920000</time_boot_ms>
        <roll>-0.0610865243</roll>
        <pitch>-0.0349065848</pitch>
        <yaw>5.550147</yaw>
        <rollspeed>0</rollspeed>
        <pitchspeed>0</pitchspeed>
        <yawspeed>0</yawspeed>
      </mission_attitude>
    </posture>
    <posture>
      <time>2017-02-21T13:53:01.3066884+08:00</time>
      <mission_attitude>
        <time_boot_ms>240900000</time_boot_ms>
        <roll>-0.0610865243</roll>
        <pitch>-0.0349065848</pitch>
        <yaw>5.550147</yaw>
        <rollspeed>0</rollspeed>
        <pitchspeed>0</pitchspeed>
        <yawspeed>0</yawspeed>
      </mission_attitude>
    </posture>
    <posture>
      <time>2017-02-21T13:53:02.3067456+08:00</time>
      <mission_attitude>
        <time_boot_ms>241880000</time_boot_ms>
        <roll>-0.0610865243</roll>
        <pitch>-0.0349065848</pitch>
        <yaw>5.532694</yaw>
        <rollspeed>0</rollspeed>
        <pitchspeed>0</pitchspeed>
        <yawspeed>0</yawspeed>
      </mission_attitude>
    </posture>
    <posture>
      <time>2017-02-21T13:53:03.2567999+08:00</time>
      <mission_attitude>
        <time_boot_ms>242860000</time_boot_ms>
        <roll>-0.0610865243</roll>
        <pitch>-0.0349065848</pitch>
        <yaw>5.56760025</yaw>
        <rollspeed>0</rollspeed>
        <pitchspeed>0</pitchspeed>
        <yawspeed>0</yawspeed>
      </mission_attitude>
    </posture>
    <posture>
      <time>2017-02-21T13:53:04.2568571+08:00</time>
      <mission_attitude>
        <time_boot_ms>243840000</time_boot_ms>
        <roll>-0.0610865243</roll>
        <pitch>-0.0349065848</pitch>
        <yaw>5.51524</yaw>
        <rollspeed>0</rollspeed>
        <pitchspeed>0</pitchspeed>
        <yawspeed>0</yawspeed>
      </mission_attitude>
    </posture>
    <posture>
      <time>2017-02-21T13:53:05.3069172+08:00</time>
      <mission_attitude>
        <time_boot_ms>244840000</time_boot_ms>
        <roll>-0.0610865243</roll>
        <pitch>-0.0349065848</pitch>
        <yaw>5.51524</yaw>
        <rollspeed>0</rollspeed>
        <pitchspeed>0</pitchspeed>
        <yawspeed>0</yawspeed>
      </mission_attitude>
    </posture>
    <posture>
      <time>2017-02-21T13:53:06.3069744+08:00</time>
      <mission_attitude>
        <time_boot_ms>245820000</time_boot_ms>
        <roll>-0.0610865243</roll>
        <pitch>-0.0349065848</pitch>
        <yaw>5.532694</yaw>
        <rollspeed>0</rollspeed>
        <pitchspeed>0</pitchspeed>
        <yawspeed>0</yawspeed>
      </mission_attitude>
    </posture>
    <posture>
      <time>2017-02-21T13:53:07.3070316+08:00</time>
      <mission_attitude>
        <time_boot_ms>246800000</time_boot_ms>
        <roll>-0.0610865243</roll>
        <pitch>-0.0349065848</pitch>
        <yaw>5.550147</yaw>
        <rollspeed>0</rollspeed>
        <pitchspeed>0</pitchspeed>
        <yawspeed>0</yawspeed>
      </mission_attitude>
    </posture>
    <posture>
      <time>2017-02-21T13:53:08.3070888+08:00</time>
      <mission_attitude>
        <time_boot_ms>247800000</time_boot_ms>
        <roll>-0.0610865243</roll>
        <pitch>-0.0349065848</pitch>
        <yaw>5.56760025</yaw>
        <rollspeed>0</rollspeed>
        <pitchspeed>0</pitchspeed>
        <yawspeed>0</yawspeed>
      </mission_attitude>
    </posture>
    <posture>
      <time>2017-02-21T13:53:09.2071403+08:00</time>
      <mission_attitude>
        <time_boot_ms>248780000</time_boot_ms>
        <roll>-0.0610865243</roll>
        <pitch>-0.0349065848</pitch>
        <yaw>5.532694</yaw>
        <rollspeed>0</rollspeed>
        <pitchspeed>0</pitchspeed>
        <yawspeed>0</yawspeed>
      </mission_attitude>
    </posture>
    <posture>
      <time>2017-02-21T13:53:10.2061974+08:00</time>
      <mission_attitude>
        <time_boot_ms>249780000</time_boot_ms>
        <roll>-0.0610865243</roll>
        <pitch>-0.0349065848</pitch>
        <yaw>5.550147</yaw>
        <rollspeed>0</rollspeed>
        <pitchspeed>0</pitchspeed>
        <yawspeed>0</yawspeed>
      </mission_attitude>
    </posture>
    <posture>
      <time>2017-02-21T13:53:11.2562575+08:00</time>
      <mission_attitude>
        <time_boot_ms>250780000</time_boot_ms>
        <roll>-0.0610865243</roll>
        <pitch>-0.0366519131</pitch>
        <yaw>5.532694</yaw>
        <rollspeed>0</rollspeed>
        <pitchspeed>0</pitchspeed>
        <yawspeed>0</yawspeed>
      </mission_attitude>
    </posture>
    <posture>
      <time>2017-02-21T13:53:12.2063118+08:00</time>
      <mission_attitude>
        <time_boot_ms>251760000</time_boot_ms>
        <roll>-0.0610865243</roll>
        <pitch>-0.0366519131</pitch>
        <yaw>5.532694</yaw>
        <rollspeed>0</rollspeed>
        <pitchspeed>0</pitchspeed>
        <yawspeed>0</yawspeed>
      </mission_attitude>
    </posture>
    <posture>
      <time>2017-02-21T13:53:13.206369+08:00</time>
      <mission_attitude>
        <time_boot_ms>252760000</time_boot_ms>
        <roll>-0.0610865243</roll>
        <pitch>-0.0366519131</pitch>
        <yaw>5.58505344</yaw>
        <rollspeed>0</rollspeed>
        <pitchspeed>0</pitchspeed>
        <yawspeed>0</yawspeed>
      </mission_attitude>
    </posture>
    <posture>
      <time>2017-02-21T13:53:14.2064262+08:00</time>
      <mission_attitude>
        <time_boot_ms>253760000</time_boot_ms>
        <roll>-0.0610865243</roll>
        <pitch>-0.0366519131</pitch>
        <yaw>5.550147</yaw>
        <rollspeed>0</rollspeed>
        <pitchspeed>0</pitchspeed>
        <yawspeed>0</yawspeed>
      </mission_attitude>
    </posture>
    <posture>
      <time>2017-02-21T13:53:15.2064834+08:00</time>
      <mission_attitude>
        <time_boot_ms>254740000</time_boot_ms>
        <roll>-0.0610865243</roll>
        <pitch>-0.0349065848</pitch>
        <yaw>5.550147</yaw>
        <rollspeed>0</rollspeed>
        <pitchspeed>0</pitchspeed>
        <yawspeed>0</yawspeed>
      </mission_attitude>
    </posture>
    <posture>
      <time>2017-02-21T13:53:16.2065406+08:00</time>
      <mission_attitude>
        <time_boot_ms>255720000</time_boot_ms>
        <roll>-0.0610865243</roll>
        <pitch>-0.0349065848</pitch>
        <yaw>5.51524</yaw>
        <rollspeed>0</rollspeed>
        <pitchspeed>0</pitchspeed>
        <yawspeed>0</yawspeed>
      </mission_attitude>
    </posture>
    <posture>
      <time>2017-02-21T13:53:17.2065978+08:00</time>
      <mission_attitude>
        <time_boot_ms>256720000</time_boot_ms>
        <roll>-0.0610865243</roll>
        <pitch>-0.0349065848</pitch>
        <yaw>5.532694</yaw>
        <rollspeed>0</rollspeed>
        <pitchspeed>0</pitchspeed>
        <yawspeed>0</yawspeed>
      </mission_attitude>
    </posture>
    <posture>
      <time>2017-02-21T13:53:18.206655+08:00</time>
      <mission_attitude>
        <time_boot_ms>257700000</time_boot_ms>
        <roll>-0.0610865243</roll>
        <pitch>-0.0349065848</pitch>
        <yaw>5.56760025</yaw>
        <rollspeed>0</rollspeed>
        <pitchspeed>0</pitchspeed>
        <yawspeed>0</yawspeed>
      </mission_attitude>
    </posture>
    <posture>
      <time>2017-02-21T13:53:19.1567094+08:00</time>
      <mission_attitude>
        <time_boot_ms>258680000</time_boot_ms>
        <roll>-0.0610865243</roll>
        <pitch>-0.0349065848</pitch>
        <yaw>5.532694</yaw>
        <rollspeed>0</rollspeed>
        <pitchspeed>0</pitchspeed>
        <yawspeed>0</yawspeed>
      </mission_attitude>
    </posture>
    <posture>
      <time>2017-02-21T13:53:20.1567666+08:00</time>
      <mission_attitude>
        <time_boot_ms>259680000</time_boot_ms>
        <roll>-0.0610865243</roll>
        <pitch>-0.0366519131</pitch>
        <yaw>5.550147</yaw>
        <rollspeed>0</rollspeed>
        <pitchspeed>0</pitchspeed>
        <yawspeed>0</yawspeed>
      </mission_attitude>
    </posture>
    <posture>
      <time>2017-02-21T13:53:21.1568238+08:00</time>
      <mission_attitude>
        <time_boot_ms>260680000</time_boot_ms>
        <roll>-0.0610865243</roll>
        <pitch>-0.0366519131</pitch>
        <yaw>5.532694</yaw>
        <rollspeed>0</rollspeed>
        <pitchspeed>0</pitchspeed>
        <yawspeed>0</yawspeed>
      </mission_attitude>
    </posture>
    <posture>
      <time>2017-02-21T13:53:22.2068838+08:00</time>
      <mission_attitude>
        <time_boot_ms>261680000</time_boot_ms>
        <roll>-0.0610865243</roll>
        <pitch>-0.0349065848</pitch>
        <yaw>5.51524</yaw>
        <rollspeed>0</rollspeed>
        <pitchspeed>0</pitchspeed>
        <yawspeed>0</yawspeed>
      </mission_attitude>
    </posture>
    <posture>
      <time>2017-02-21T13:53:23.1569382+08:00</time>
      <mission_attitude>
        <time_boot_ms>262660000</time_boot_ms>
        <roll>-0.0610865243</roll>
        <pitch>-0.0349065848</pitch>
        <yaw>5.532694</yaw>
        <rollspeed>0</rollspeed>
        <pitchspeed>0</pitchspeed>
        <yawspeed>0</yawspeed>
      </mission_attitude>
    </posture>
    <posture>
      <time>2017-02-21T13:53:24.1569954+08:00</time>
      <mission_attitude>
        <time_boot_ms>263640000</time_boot_ms>
        <roll>-0.0610865243</roll>
        <pitch>-0.0349065848</pitch>
        <yaw>5.51524</yaw>
        <rollspeed>0</rollspeed>
        <pitchspeed>0</pitchspeed>
        <yawspeed>0</yawspeed>
      </mission_attitude>
    </posture>
    <posture>
      <time>2017-02-21T13:53:25.1570526+08:00</time>
      <mission_attitude>
        <time_boot_ms>264620000</time_boot_ms>
        <roll>-0.0610865243</roll>
        <pitch>-0.0349065848</pitch>
        <yaw>5.532694</yaw>
        <rollspeed>0</rollspeed>
        <pitchspeed>0</pitchspeed>
        <yawspeed>0</yawspeed>
      </mission_attitude>
    </posture>
    <posture>
      <time>2017-02-21T13:53:26.1571098+08:00</time>
      <mission_attitude>
        <time_boot_ms>265600000</time_boot_ms>
        <roll>-0.0610865243</roll>
        <pitch>-0.0349065848</pitch>
        <yaw>5.532694</yaw>
        <rollspeed>0</rollspeed>
        <pitchspeed>0</pitchspeed>
        <yawspeed>0</yawspeed>
      </mission_attitude>
    </posture>
    <posture>
      <time>2017-02-21T13:53:28.1562241+08:00</time>
      <mission_attitude>
        <time_boot_ms>267580000</time_boot_ms>
        <roll>-0.0610865243</roll>
        <pitch>-0.0349065848</pitch>
        <yaw>5.532694</yaw>
        <rollspeed>0</rollspeed>
        <pitchspeed>0</pitchspeed>
        <yawspeed>0</yawspeed>
      </mission_attitude>
    </posture>
    <posture>
      <time>2017-02-21T13:53:29.1062784+08:00</time>
      <mission_attitude>
        <time_boot_ms>268560000</time_boot_ms>
        <roll>-0.0610865243</roll>
        <pitch>-0.0366519131</pitch>
        <yaw>5.532694</yaw>
        <rollspeed>0</rollspeed>
        <pitchspeed>0</pitchspeed>
        <yawspeed>0</yawspeed>
      </mission_attitude>
    </posture>
    <posture>
      <time>2017-02-21T13:53:32.10645+08:00</time>
      <mission_attitude>
        <time_boot_ms>271560000</time_boot_ms>
        <roll>-0.0610865243</roll>
        <pitch>-0.0349065848</pitch>
        <yaw>5.550147</yaw>
        <rollspeed>0</rollspeed>
        <pitchspeed>0</pitchspeed>
        <yawspeed>0</yawspeed>
      </mission_attitude>
    </posture>
    <posture>
      <time>2017-02-21T13:53:34.1065644+08:00</time>
      <mission_attitude>
        <time_boot_ms>273520000</time_boot_ms>
        <roll>-0.0610865243</roll>
        <pitch>-0.0349065848</pitch>
        <yaw>5.550147</yaw>
        <rollspeed>0</rollspeed>
        <pitchspeed>0</pitchspeed>
        <yawspeed>0</yawspeed>
      </mission_attitude>
    </posture>
    <posture>
      <time>2017-02-21T13:53:35.1066216+08:00</time>
      <mission_attitude>
        <time_boot_ms>274520000</time_boot_ms>
        <roll>-0.0610865243</roll>
        <pitch>-0.0349065848</pitch>
        <yaw>5.550147</yaw>
        <rollspeed>0</rollspeed>
        <pitchspeed>0</pitchspeed>
        <yawspeed>0</yawspeed>
      </mission_attitude>
    </posture>
    <posture>
      <time>2017-02-21T13:53:36.056676+08:00</time>
      <mission_attitude>
        <time_boot_ms>275500000</time_boot_ms>
        <roll>-0.0610865243</roll>
        <pitch>-0.0349065848</pitch>
        <yaw>5.532694</yaw>
        <rollspeed>0</rollspeed>
        <pitchspeed>0</pitchspeed>
        <yawspeed>0</yawspeed>
      </mission_attitude>
    </posture>
    <posture>
      <time>2017-02-21T13:53:37.106736+08:00</time>
      <mission_attitude>
        <time_boot_ms>276480000</time_boot_ms>
        <roll>-0.0610865243</roll>
        <pitch>-0.0366519131</pitch>
        <yaw>5.532694</yaw>
        <rollspeed>0</rollspeed>
        <pitchspeed>0</pitchspeed>
        <yawspeed>0</yawspeed>
      </mission_attitude>
    </posture>
    <posture>
      <time>2017-02-21T13:53:38.0567904+08:00</time>
      <mission_attitude>
        <time_boot_ms>277480000</time_boot_ms>
        <roll>-0.0610865243</roll>
        <pitch>-0.0349065848</pitch>
        <yaw>5.532694</yaw>
        <rollspeed>0</rollspeed>
        <pitchspeed>0</pitchspeed>
        <yawspeed>0</yawspeed>
      </mission_attitude>
    </posture>
    <posture>
      <time>2017-02-21T13:53:39.0568476+08:00</time>
      <mission_attitude>
        <time_boot_ms>278460000</time_boot_ms>
        <roll>-0.0610865243</roll>
        <pitch>-0.0349065848</pitch>
        <yaw>5.550147</yaw>
        <rollspeed>0</rollspeed>
        <pitchspeed>0</pitchspeed>
        <yawspeed>0</yawspeed>
      </mission_attitude>
    </posture>
    <posture>
      <time>2017-02-21T13:53:40.0569048+08:00</time>
      <mission_attitude>
        <time_boot_ms>279460000</time_boot_ms>
        <roll>-0.0610865243</roll>
        <pitch>-0.0349065848</pitch>
        <yaw>5.58505344</yaw>
        <rollspeed>0</rollspeed>
        <pitchspeed>0</pitchspeed>
        <yawspeed>0</yawspeed>
      </mission_attitude>
    </posture>
    <posture>
      <time>2017-02-21T13:53:41.056962+08:00</time>
      <mission_attitude>
        <time_boot_ms>280460000</time_boot_ms>
        <roll>-0.0610865243</roll>
        <pitch>-0.0349065848</pitch>
        <yaw>5.550147</yaw>
        <rollspeed>0</rollspeed>
        <pitchspeed>0</pitchspeed>
        <yawspeed>0</yawspeed>
      </mission_attitude>
    </posture>
    <posture>
      <time>2017-02-21T13:53:42.0570192+08:00</time>
      <mission_attitude>
        <time_boot_ms>281440000</time_boot_ms>
        <roll>-0.0610865243</roll>
        <pitch>-0.0349065848</pitch>
        <yaw>5.56760025</yaw>
        <rollspeed>0</rollspeed>
        <pitchspeed>0</pitchspeed>
        <yawspeed>0</yawspeed>
      </mission_attitude>
    </posture>
    <posture>
      <time>2017-02-21T13:53:43.0570764+08:00</time>
      <mission_attitude>
        <time_boot_ms>282420000</time_boot_ms>
        <roll>-0.0610865243</roll>
        <pitch>-0.0349065848</pitch>
        <yaw>5.532694</yaw>
        <rollspeed>0</rollspeed>
        <pitchspeed>0</pitchspeed>
        <yawspeed>0</yawspeed>
      </mission_attitude>
    </posture>
    <posture>
      <time>2017-02-21T13:53:44.0571336+08:00</time>
      <mission_attitude>
        <time_boot_ms>283420000</time_boot_ms>
        <roll>-0.0610865243</roll>
        <pitch>-0.0349065848</pitch>
        <yaw>5.550147</yaw>
        <rollspeed>0</rollspeed>
        <pitchspeed>0</pitchspeed>
        <yawspeed>0</yawspeed>
      </mission_attitude>
    </posture>
    <posture>
      <time>2017-02-21T13:53:45.0561907+08:00</time>
      <mission_attitude>
        <time_boot_ms>284400000</time_boot_ms>
        <roll>-0.0610865243</roll>
        <pitch>-0.0349065848</pitch>
        <yaw>5.550147</yaw>
        <rollspeed>0</rollspeed>
        <pitchspeed>0</pitchspeed>
        <yawspeed>0</yawspeed>
      </mission_attitude>
    </posture>
    <posture>
      <time>2017-02-21T13:53:46.0062451+08:00</time>
      <mission_attitude>
        <time_boot_ms>285380000</time_boot_ms>
        <roll>-0.0610865243</roll>
        <pitch>-0.0349065848</pitch>
        <yaw>5.550147</yaw>
        <rollspeed>0</rollspeed>
        <pitchspeed>0</pitchspeed>
        <yawspeed>0</yawspeed>
      </mission_attitude>
    </posture>
    <posture>
      <time>2017-02-21T13:53:47.0063023+08:00</time>
      <mission_attitude>
        <time_boot_ms>286360000</time_boot_ms>
        <roll>-0.0610865243</roll>
        <pitch>-0.0349065848</pitch>
        <yaw>5.51524</yaw>
        <rollspeed>0</rollspeed>
        <pitchspeed>0</pitchspeed>
        <yawspeed>0</yawspeed>
      </mission_attitude>
    </posture>
    <posture>
      <time>2017-02-21T13:53:48.0063595+08:00</time>
      <mission_attitude>
        <time_boot_ms>287360000</time_boot_ms>
        <roll>-0.0610865243</roll>
        <pitch>-0.0349065848</pitch>
        <yaw>5.532694</yaw>
        <rollspeed>0</rollspeed>
        <pitchspeed>0</pitchspeed>
        <yawspeed>0</yawspeed>
      </mission_attitude>
    </posture>
    <posture>
      <time>2017-02-21T13:53:49.0064167+08:00</time>
      <mission_attitude>
        <time_boot_ms>288360000</time_boot_ms>
        <roll>-0.0610865243</roll>
        <pitch>-0.0349065848</pitch>
        <yaw>5.532694</yaw>
        <rollspeed>0</rollspeed>
        <pitchspeed>0</pitchspeed>
        <yawspeed>0</yawspeed>
      </mission_attitude>
    </posture>
    <posture>
      <time>2017-02-21T13:53:50.0064739+08:00</time>
      <mission_attitude>
        <time_boot_ms>289360000</time_boot_ms>
        <roll>-0.0610865243</roll>
        <pitch>-0.0349065848</pitch>
        <yaw>5.550147</yaw>
        <rollspeed>0</rollspeed>
        <pitchspeed>0</pitchspeed>
        <yawspeed>0</yawspeed>
      </mission_attitude>
    </posture>
    <posture>
      <time>2017-02-21T13:53:51.0065311+08:00</time>
      <mission_attitude>
        <time_boot_ms>290360000</time_boot_ms>
        <roll>-0.0610865243</roll>
        <pitch>-0.0349065848</pitch>
        <yaw>5.532694</yaw>
        <rollspeed>0</rollspeed>
        <pitchspeed>0</pitchspeed>
        <yawspeed>0</yawspeed>
      </mission_attitude>
    </posture>
    <posture>
      <time>2017-02-21T13:53:52.0065883+08:00</time>
      <mission_attitude>
        <time_boot_ms>291340000</time_boot_ms>
        <roll>-0.0610865243</roll>
        <pitch>-0.0349065848</pitch>
        <yaw>5.550147</yaw>
        <rollspeed>0</rollspeed>
        <pitchspeed>0</pitchspeed>
        <yawspeed>0</yawspeed>
      </mission_attitude>
    </posture>
    <posture>
      <time>2017-02-21T13:53:52.9566426+08:00</time>
      <mission_attitude>
        <time_boot_ms>292320000</time_boot_ms>
        <roll>-0.0610865243</roll>
        <pitch>-0.0349065848</pitch>
        <yaw>5.51524</yaw>
        <rollspeed>0</rollspeed>
        <pitchspeed>0</pitchspeed>
        <yawspeed>0</yawspeed>
      </mission_attitude>
    </posture>
    <posture>
      <time>2017-02-21T13:53:53.9566998+08:00</time>
      <mission_attitude>
        <time_boot_ms>293300000</time_boot_ms>
        <roll>-0.0610865243</roll>
        <pitch>-0.0349065848</pitch>
        <yaw>5.532694</yaw>
        <rollspeed>0</rollspeed>
        <pitchspeed>0</pitchspeed>
        <yawspeed>0</yawspeed>
      </mission_attitude>
    </posture>
    <posture>
      <time>2017-02-21T13:53:54.956757+08:00</time>
      <mission_attitude>
        <time_boot_ms>294280000</time_boot_ms>
        <roll>-0.0610865243</roll>
        <pitch>-0.0349065848</pitch>
        <yaw>5.51524</yaw>
        <rollspeed>0</rollspeed>
        <pitchspeed>0</pitchspeed>
        <yawspeed>0</yawspeed>
      </mission_attitude>
    </posture>
    <posture>
      <time>2017-02-21T13:53:55.9568142+08:00</time>
      <mission_attitude>
        <time_boot_ms>295260000</time_boot_ms>
        <roll>-0.0610865243</roll>
        <pitch>-0.0349065848</pitch>
        <yaw>5.51524</yaw>
        <rollspeed>0</rollspeed>
        <pitchspeed>0</pitchspeed>
        <yawspeed>0</yawspeed>
      </mission_attitude>
    </posture>
    <posture>
      <time>2017-02-21T13:53:56.9068685+08:00</time>
      <mission_attitude>
        <time_boot_ms>296240000</time_boot_ms>
        <roll>-0.0610865243</roll>
        <pitch>-0.0349065848</pitch>
        <yaw>5.550147</yaw>
        <rollspeed>0</rollspeed>
        <pitchspeed>0</pitchspeed>
        <yawspeed>0</yawspeed>
      </mission_attitude>
    </posture>
    <posture>
      <time>2017-02-21T13:53:57.9069257+08:00</time>
      <mission_attitude>
        <time_boot_ms>297220000</time_boot_ms>
        <roll>-0.0610865243</roll>
        <pitch>-0.0349065848</pitch>
        <yaw>5.532694</yaw>
        <rollspeed>0</rollspeed>
        <pitchspeed>0</pitchspeed>
        <yawspeed>0</yawspeed>
      </mission_attitude>
    </posture>
    <posture>
      <time>2017-02-21T13:53:58.9069829+08:00</time>
      <mission_attitude>
        <time_boot_ms>298220000</time_boot_ms>
        <roll>-0.0610865243</roll>
        <pitch>-0.0366519131</pitch>
        <yaw>5.51524</yaw>
        <rollspeed>0</rollspeed>
        <pitchspeed>0</pitchspeed>
        <yawspeed>0</yawspeed>
      </mission_attitude>
    </posture>
    <posture>
      <time>2017-02-21T13:53:59.9070401+08:00</time>
      <mission_attitude>
        <time_boot_ms>299220000</time_boot_ms>
        <roll>-0.0610865243</roll>
        <pitch>-0.0366519131</pitch>
        <yaw>5.550147</yaw>
        <rollspeed>0</rollspeed>
        <pitchspeed>0</pitchspeed>
        <yawspeed>0</yawspeed>
      </mission_attitude>
    </posture>
    <posture>
      <time>2017-02-21T13:54:00.9070973+08:00</time>
      <mission_attitude>
        <time_boot_ms>300200000</time_boot_ms>
        <roll>-0.0610865243</roll>
        <pitch>-0.0366519131</pitch>
        <yaw>5.56760025</yaw>
        <rollspeed>0</rollspeed>
        <pitchspeed>0</pitchspeed>
        <yawspeed>0</yawspeed>
      </mission_attitude>
    </posture>
    <posture>
      <time>2017-02-21T13:54:01.9071545+08:00</time>
      <mission_attitude>
        <time_boot_ms>301200000</time_boot_ms>
        <roll>-0.0610865243</roll>
        <pitch>-0.0366519131</pitch>
        <yaw>5.550147</yaw>
        <rollspeed>0</rollspeed>
        <pitchspeed>0</pitchspeed>
        <yawspeed>0</yawspeed>
      </mission_attitude>
    </posture>
    <posture>
      <time>2017-02-21T13:54:02.9062117+08:00</time>
      <mission_attitude>
        <time_boot_ms>302180000</time_boot_ms>
        <roll>-0.0610865243</roll>
        <pitch>-0.0366519131</pitch>
        <yaw>5.532694</yaw>
        <rollspeed>0</rollspeed>
        <pitchspeed>0</pitchspeed>
        <yawspeed>0</yawspeed>
      </mission_attitude>
    </posture>
    <posture>
      <time>2017-02-21T13:54:03.9062689+08:00</time>
      <mission_attitude>
        <time_boot_ms>303200000</time_boot_ms>
        <roll>-0.0610865243</roll>
        <pitch>-0.0366519131</pitch>
        <yaw>5.532694</yaw>
        <rollspeed>0</rollspeed>
        <pitchspeed>0</pitchspeed>
        <yawspeed>0</yawspeed>
      </mission_attitude>
    </posture>
    <posture>
      <time>2017-02-21T13:54:04.9063261+08:00</time>
      <mission_attitude>
        <time_boot_ms>304200000</time_boot_ms>
        <roll>-0.0610865243</roll>
        <pitch>-0.0349065848</pitch>
        <yaw>5.550147</yaw>
        <rollspeed>0</rollspeed>
        <pitchspeed>0</pitchspeed>
        <yawspeed>0</yawspeed>
      </mission_attitude>
    </posture>
    <posture>
      <time>2017-02-21T13:54:05.9063833+08:00</time>
      <mission_attitude>
        <time_boot_ms>305180000</time_boot_ms>
        <roll>-0.0610865243</roll>
        <pitch>-0.0349065848</pitch>
        <yaw>5.532694</yaw>
        <rollspeed>0</rollspeed>
        <pitchspeed>0</pitchspeed>
        <yawspeed>0</yawspeed>
      </mission_attitude>
    </posture>
    <posture>
      <time>2017-02-21T13:54:06.9064405+08:00</time>
      <mission_attitude>
        <time_boot_ms>306180000</time_boot_ms>
        <roll>-0.0610865243</roll>
        <pitch>-0.0349065848</pitch>
        <yaw>5.550147</yaw>
        <rollspeed>0</rollspeed>
        <pitchspeed>0</pitchspeed>
        <yawspeed>0</yawspeed>
      </mission_attitude>
    </posture>
    <posture>
      <time>2017-02-21T13:54:07.9064977+08:00</time>
      <mission_attitude>
        <time_boot_ms>307180000</time_boot_ms>
        <roll>-0.0610865243</roll>
        <pitch>-0.0349065848</pitch>
        <yaw>5.550147</yaw>
        <rollspeed>0</rollspeed>
        <pitchspeed>0</pitchspeed>
        <yawspeed>0</yawspeed>
      </mission_attitude>
    </posture>
    <posture>
      <time>2017-02-21T13:54:08.9565577+08:00</time>
      <mission_attitude>
        <time_boot_ms>308180000</time_boot_ms>
        <roll>-0.0610865243</roll>
        <pitch>-0.0349065848</pitch>
        <yaw>5.550147</yaw>
        <rollspeed>0</rollspeed>
        <pitchspeed>0</pitchspeed>
        <yawspeed>0</yawspeed>
      </mission_attitude>
    </posture>
    <posture>
      <time>2017-02-21T13:54:09.9566149+08:00</time>
      <mission_attitude>
        <time_boot_ms>309180000</time_boot_ms>
        <roll>-0.0610865243</roll>
        <pitch>-0.0366519131</pitch>
        <yaw>5.550147</yaw>
        <rollspeed>0</rollspeed>
        <pitchspeed>0</pitchspeed>
        <yawspeed>0</yawspeed>
      </mission_attitude>
    </posture>
    <posture>
      <time>2017-02-21T13:54:10.9066693+08:00</time>
      <mission_attitude>
        <time_boot_ms>310160000</time_boot_ms>
        <roll>-0.0610865243</roll>
        <pitch>-0.0366519131</pitch>
        <yaw>5.51524</yaw>
        <rollspeed>0</rollspeed>
        <pitchspeed>0</pitchspeed>
        <yawspeed>0</yawspeed>
      </mission_attitude>
    </posture>
    <posture>
      <time>2017-02-21T13:54:11.9567293+08:00</time>
      <mission_attitude>
        <time_boot_ms>311160000</time_boot_ms>
        <roll>-0.0610865243</roll>
        <pitch>-0.0366519131</pitch>
        <yaw>5.532694</yaw>
        <rollspeed>0</rollspeed>
        <pitchspeed>0</pitchspeed>
        <yawspeed>0</yawspeed>
      </mission_attitude>
    </posture>
    <posture>
      <time>2017-02-21T13:54:12.9567865+08:00</time>
      <mission_attitude>
        <time_boot_ms>312160000</time_boot_ms>
        <roll>-0.0610865243</roll>
        <pitch>-0.0349065848</pitch>
        <yaw>5.550147</yaw>
        <rollspeed>0</rollspeed>
        <pitchspeed>0</pitchspeed>
        <yawspeed>0</yawspeed>
      </mission_attitude>
    </posture>
    <posture>
      <time>2017-02-21T13:54:13.9068409+08:00</time>
      <mission_attitude>
        <time_boot_ms>313140000</time_boot_ms>
        <roll>-0.0610865243</roll>
        <pitch>-0.0349065848</pitch>
        <yaw>5.550147</yaw>
        <rollspeed>0</rollspeed>
        <pitchspeed>0</pitchspeed>
        <yawspeed>0</yawspeed>
      </mission_attitude>
    </posture>
    <posture>
      <time>2017-02-21T13:54:14.9068981+08:00</time>
      <mission_attitude>
        <time_boot_ms>314140000</time_boot_ms>
        <roll>-0.0610865243</roll>
        <pitch>-0.0349065848</pitch>
        <yaw>5.550147</yaw>
        <rollspeed>0</rollspeed>
        <pitchspeed>0</pitchspeed>
        <yawspeed>0</yawspeed>
      </mission_attitude>
    </posture>
    <posture>
      <time>2017-02-21T13:54:15.9069553+08:00</time>
      <mission_attitude>
        <time_boot_ms>315120000</time_boot_ms>
        <roll>-0.0610865243</roll>
        <pitch>-0.0349065848</pitch>
        <yaw>5.532694</yaw>
        <rollspeed>0</rollspeed>
        <pitchspeed>0</pitchspeed>
        <yawspeed>0</yawspeed>
      </mission_attitude>
    </posture>
    <posture>
      <time>2017-02-21T13:54:16.9070125+08:00</time>
      <mission_attitude>
        <time_boot_ms>316100000</time_boot_ms>
        <roll>-0.0610865243</roll>
        <pitch>-0.0349065848</pitch>
        <yaw>5.550147</yaw>
        <rollspeed>0</rollspeed>
        <pitchspeed>0</pitchspeed>
        <yawspeed>0</yawspeed>
      </mission_attitude>
    </posture>
    <posture>
      <time>2017-02-21T13:54:17.9070697+08:00</time>
      <mission_attitude>
        <time_boot_ms>317100000</time_boot_ms>
        <roll>-0.0610865243</roll>
        <pitch>-0.0349065848</pitch>
        <yaw>5.550147</yaw>
        <rollspeed>0</rollspeed>
        <pitchspeed>0</pitchspeed>
        <yawspeed>0</yawspeed>
      </mission_attitude>
    </posture>
    <posture>
      <time>2017-02-21T13:54:18.9071269+08:00</time>
      <mission_attitude>
        <time_boot_ms>318100000</time_boot_ms>
        <roll>-0.0610865243</roll>
        <pitch>-0.0366519131</pitch>
        <yaw>5.532694</yaw>
        <rollspeed>0</rollspeed>
        <pitchspeed>0</pitchspeed>
        <yawspeed>0</yawspeed>
      </mission_attitude>
    </posture>
    <posture>
      <time>2017-02-21T13:54:19.906184+08:00</time>
      <mission_attitude>
        <time_boot_ms>319100000</time_boot_ms>
        <roll>-0.0610865243</roll>
        <pitch>-0.0366519131</pitch>
        <yaw>5.51524</yaw>
        <rollspeed>0</rollspeed>
        <pitchspeed>0</pitchspeed>
        <yawspeed>0</yawspeed>
      </mission_attitude>
    </posture>
    <posture>
      <time>2017-02-21T13:54:20.9062412+08:00</time>
      <mission_attitude>
        <time_boot_ms>320100000</time_boot_ms>
        <roll>-0.0610865243</roll>
        <pitch>-0.0349065848</pitch>
        <yaw>5.532694</yaw>
        <rollspeed>0</rollspeed>
        <pitchspeed>0</pitchspeed>
        <yawspeed>0</yawspeed>
      </mission_attitude>
    </posture>
    <posture>
      <time>2017-02-21T13:54:21.9563013+08:00</time>
      <mission_attitude>
        <time_boot_ms>321080000</time_boot_ms>
        <roll>-0.0610865243</roll>
        <pitch>-0.0349065848</pitch>
        <yaw>5.550147</yaw>
        <rollspeed>0</rollspeed>
        <pitchspeed>0</pitchspeed>
        <yawspeed>0</yawspeed>
      </mission_attitude>
    </posture>
    <posture>
      <time>2017-02-21T13:54:22.9063556+08:00</time>
      <mission_attitude>
        <time_boot_ms>322060000</time_boot_ms>
        <roll>-0.0610865243</roll>
        <pitch>-0.0349065848</pitch>
        <yaw>5.550147</yaw>
        <rollspeed>0</rollspeed>
        <pitchspeed>0</pitchspeed>
        <yawspeed>0</yawspeed>
      </mission_attitude>
    </posture>
    <posture>
      <time>2017-02-21T13:54:23.9064128+08:00</time>
      <mission_attitude>
        <time_boot_ms>323040000</time_boot_ms>
        <roll>-0.0610865243</roll>
        <pitch>-0.0349065848</pitch>
        <yaw>5.56760025</yaw>
        <rollspeed>0</rollspeed>
        <pitchspeed>0</pitchspeed>
        <yawspeed>0</yawspeed>
      </mission_attitude>
    </posture>
    <posture>
      <time>2017-02-21T13:54:24.90647+08:00</time>
      <mission_attitude>
        <time_boot_ms>324040000</time_boot_ms>
        <roll>-0.0610865243</roll>
        <pitch>-0.0349065848</pitch>
        <yaw>5.532694</yaw>
        <rollspeed>0</rollspeed>
        <pitchspeed>0</pitchspeed>
        <yawspeed>0</yawspeed>
      </mission_attitude>
    </posture>
    <posture>
      <time>2017-02-21T13:54:25.9065272+08:00</time>
      <mission_attitude>
        <time_boot_ms>325040000</time_boot_ms>
        <roll>-0.0610865243</roll>
        <pitch>-0.0349065848</pitch>
        <yaw>5.56760025</yaw>
        <rollspeed>0</rollspeed>
        <pitchspeed>0</pitchspeed>
        <yawspeed>0</yawspeed>
      </mission_attitude>
    </posture>
    <posture>
      <time>2017-02-21T13:54:26.8565816+08:00</time>
      <mission_attitude>
        <time_boot_ms>326020000</time_boot_ms>
        <roll>-0.0610865243</roll>
        <pitch>-0.0349065848</pitch>
        <yaw>5.532694</yaw>
        <rollspeed>0</rollspeed>
        <pitchspeed>0</pitchspeed>
        <yawspeed>0</yawspeed>
      </mission_attitude>
    </posture>
    <posture>
      <time>2017-02-21T13:54:27.8566388+08:00</time>
      <mission_attitude>
        <time_boot_ms>327000000</time_boot_ms>
        <roll>-0.0610865243</roll>
        <pitch>-0.0349065848</pitch>
        <yaw>5.532694</yaw>
        <rollspeed>0</rollspeed>
        <pitchspeed>0</pitchspeed>
        <yawspeed>0</yawspeed>
      </mission_attitude>
    </posture>
    <posture>
      <time>2017-02-21T13:54:28.856696+08:00</time>
      <mission_attitude>
        <time_boot_ms>328000000</time_boot_ms>
        <roll>-0.0610865243</roll>
        <pitch>-0.0349065848</pitch>
        <yaw>5.532694</yaw>
        <rollspeed>0</rollspeed>
        <pitchspeed>0</pitchspeed>
        <yawspeed>0</yawspeed>
      </mission_attitude>
    </posture>
    <posture>
      <time>2017-02-21T13:54:29.8567532+08:00</time>
      <mission_attitude>
        <time_boot_ms>329000000</time_boot_ms>
        <roll>-0.0610865243</roll>
        <pitch>-0.0349065848</pitch>
        <yaw>5.51524</yaw>
        <rollspeed>0</rollspeed>
        <pitchspeed>0</pitchspeed>
        <yawspeed>0</yawspeed>
      </mission_attitude>
    </posture>
    <posture>
      <time>2017-02-21T13:54:30.8568104+08:00</time>
      <mission_attitude>
        <time_boot_ms>330000000</time_boot_ms>
        <roll>-0.0610865243</roll>
        <pitch>-0.0349065848</pitch>
        <yaw>5.550147</yaw>
        <rollspeed>0</rollspeed>
        <pitchspeed>0</pitchspeed>
        <yawspeed>0</yawspeed>
      </mission_attitude>
    </posture>
    <posture>
      <time>2017-02-21T13:54:31.8568676+08:00</time>
      <mission_attitude>
        <time_boot_ms>330980000</time_boot_ms>
        <roll>-0.0610865243</roll>
        <pitch>-0.0349065848</pitch>
        <yaw>5.532694</yaw>
        <rollspeed>0</rollspeed>
        <pitchspeed>0</pitchspeed>
        <yawspeed>0</yawspeed>
      </mission_attitude>
    </posture>
    <posture>
      <time>2017-02-21T13:54:32.8569248+08:00</time>
      <mission_attitude>
        <time_boot_ms>331980000</time_boot_ms>
        <roll>-0.0610865243</roll>
        <pitch>-0.0349065848</pitch>
        <yaw>5.51524</yaw>
        <rollspeed>0</rollspeed>
        <pitchspeed>0</pitchspeed>
        <yawspeed>0</yawspeed>
      </mission_attitude>
    </posture>
    <posture>
      <time>2017-02-21T13:54:33.856982+08:00</time>
      <mission_attitude>
        <time_boot_ms>332980000</time_boot_ms>
        <roll>-0.0610865243</roll>
        <pitch>-0.0349065848</pitch>
        <yaw>5.550147</yaw>
        <rollspeed>0</rollspeed>
        <pitchspeed>0</pitchspeed>
        <yawspeed>0</yawspeed>
      </mission_attitude>
    </posture>
    <posture>
      <time>2017-02-21T13:54:34.8570392+08:00</time>
      <mission_attitude>
        <time_boot_ms>333960000</time_boot_ms>
        <roll>-0.0610865243</roll>
        <pitch>-0.0349065848</pitch>
        <yaw>5.550147</yaw>
        <rollspeed>0</rollspeed>
        <pitchspeed>0</pitchspeed>
        <yawspeed>0</yawspeed>
      </mission_attitude>
    </posture>
    <posture>
      <time>2017-02-21T13:54:35.8570964+08:00</time>
      <mission_attitude>
        <time_boot_ms>334940000</time_boot_ms>
        <roll>-0.0610865243</roll>
        <pitch>-0.0349065848</pitch>
        <yaw>5.532694</yaw>
        <rollspeed>0</rollspeed>
        <pitchspeed>0</pitchspeed>
        <yawspeed>0</yawspeed>
      </mission_attitude>
    </posture>
    <posture>
      <time>2017-02-21T13:54:36.8571536+08:00</time>
      <mission_attitude>
        <time_boot_ms>335940000</time_boot_ms>
        <roll>-0.0610865243</roll>
        <pitch>-0.0349065848</pitch>
        <yaw>5.56760025</yaw>
        <rollspeed>0</rollspeed>
        <pitchspeed>0</pitchspeed>
        <yawspeed>0</yawspeed>
      </mission_attitude>
    </posture>
    <posture>
      <time>2017-02-21T13:54:37.8562107+08:00</time>
      <mission_attitude>
        <time_boot_ms>336940000</time_boot_ms>
        <roll>-0.0610865243</roll>
        <pitch>-0.0349065848</pitch>
        <yaw>5.532694</yaw>
        <rollspeed>0</rollspeed>
        <pitchspeed>0</pitchspeed>
        <yawspeed>0</yawspeed>
      </mission_attitude>
    </posture>
    <posture>
      <time>2017-02-21T13:54:38.806265+08:00</time>
      <mission_attitude>
        <time_boot_ms>337920000</time_boot_ms>
        <roll>-0.0610865243</roll>
        <pitch>-0.0349065848</pitch>
        <yaw>5.56760025</yaw>
        <rollspeed>0</rollspeed>
        <pitchspeed>0</pitchspeed>
        <yawspeed>0</yawspeed>
      </mission_attitude>
    </posture>
    <posture>
      <time>2017-02-21T13:54:39.8063222+08:00</time>
      <mission_attitude>
        <time_boot_ms>338900000</time_boot_ms>
        <roll>-0.0610865243</roll>
        <pitch>-0.0349065848</pitch>
        <yaw>5.550147</yaw>
        <rollspeed>0</rollspeed>
        <pitchspeed>0</pitchspeed>
        <yawspeed>0</yawspeed>
      </mission_attitude>
    </posture>
    <posture>
      <time>2017-02-21T13:54:40.8063794+08:00</time>
      <mission_attitude>
        <time_boot_ms>339900000</time_boot_ms>
        <roll>-0.0610865243</roll>
        <pitch>-0.0349065848</pitch>
        <yaw>5.51524</yaw>
        <rollspeed>0</rollspeed>
        <pitchspeed>0</pitchspeed>
        <yawspeed>0</yawspeed>
      </mission_attitude>
    </posture>
    <posture>
      <time>2017-02-21T13:54:41.8064366+08:00</time>
      <mission_attitude>
        <time_boot_ms>340880000</time_boot_ms>
        <roll>-0.0610865243</roll>
        <pitch>-0.0349065848</pitch>
        <yaw>5.550147</yaw>
        <rollspeed>0</rollspeed>
        <pitchspeed>0</pitchspeed>
        <yawspeed>0</yawspeed>
      </mission_attitude>
    </posture>
    <posture>
      <time>2017-02-21T13:54:42.756491+08:00</time>
      <mission_attitude>
        <time_boot_ms>341860000</time_boot_ms>
        <roll>-0.0610865243</roll>
        <pitch>-0.0349065848</pitch>
        <yaw>5.532694</yaw>
        <rollspeed>0</rollspeed>
        <pitchspeed>0</pitchspeed>
        <yawspeed>0</yawspeed>
      </mission_attitude>
    </posture>
    <posture>
      <time>2017-02-21T13:54:43.7565482+08:00</time>
      <mission_attitude>
        <time_boot_ms>342860000</time_boot_ms>
        <roll>-0.0593411922</roll>
        <pitch>-0.0349065848</pitch>
        <yaw>5.532694</yaw>
        <rollspeed>0</rollspeed>
        <pitchspeed>0</pitchspeed>
        <yawspeed>0</yawspeed>
      </mission_attitude>
    </posture>
    <posture>
      <time>2017-02-21T13:54:44.8066082+08:00</time>
      <mission_attitude>
        <time_boot_ms>343860000</time_boot_ms>
        <roll>-0.0593411922</roll>
        <pitch>-0.0349065848</pitch>
        <yaw>5.532694</yaw>
        <rollspeed>0</rollspeed>
        <pitchspeed>0</pitchspeed>
        <yawspeed>0</yawspeed>
      </mission_attitude>
    </posture>
    <posture>
      <time>2017-02-21T13:54:45.8066654+08:00</time>
      <mission_attitude>
        <time_boot_ms>344860000</time_boot_ms>
        <roll>-0.0610865243</roll>
        <pitch>-0.0349065848</pitch>
        <yaw>5.532694</yaw>
        <rollspeed>0</rollspeed>
        <pitchspeed>0</pitchspeed>
        <yawspeed>0</yawspeed>
      </mission_attitude>
    </posture>
    <posture>
      <time>2017-02-21T13:54:46.8067226+08:00</time>
      <mission_attitude>
        <time_boot_ms>345860000</time_boot_ms>
        <roll>-0.0610865243</roll>
        <pitch>-0.0349065848</pitch>
        <yaw>5.56760025</yaw>
        <rollspeed>0</rollspeed>
        <pitchspeed>0</pitchspeed>
        <yawspeed>0</yawspeed>
      </mission_attitude>
    </posture>
    <posture>
      <time>2017-02-21T13:54:47.8067798+08:00</time>
      <mission_attitude>
        <time_boot_ms>346860000</time_boot_ms>
        <roll>-0.0610865243</roll>
        <pitch>-0.0349065848</pitch>
        <yaw>5.532694</yaw>
        <rollspeed>0</rollspeed>
        <pitchspeed>0</pitchspeed>
        <yawspeed>0</yawspeed>
      </mission_attitude>
    </posture>
    <posture>
      <time>2017-02-21T13:54:48.806837+08:00</time>
      <mission_attitude>
        <time_boot_ms>347840000</time_boot_ms>
        <roll>-0.0610865243</roll>
        <pitch>-0.0349065848</pitch>
        <yaw>5.550147</yaw>
        <rollspeed>0</rollspeed>
        <pitchspeed>0</pitchspeed>
        <yawspeed>0</yawspeed>
      </mission_attitude>
