<?xml version="1.0" encoding="utf-8"?>
<SerializeDataClass xmlns:xsi="http://www.w3.org/2001/XMLSchema-instance" xmlns:xsd="http://www.w3.org/2001/XMLSchema">
  <listposture>
    <posture>
      <time>2017-02-21T12:32:39.3070295+08:00</time>
      <mission_attitude>
        <time_boot_ms>640000</time_boot_ms>
        <roll>-0.01919862</roll>
        <pitch>-0.0837758</pitch>
        <yaw>0</yaw>
        <rollspeed>0</rollspeed>
        <pitchspeed>0</pitchspeed>
        <yawspeed>0</yawspeed>
      </mission_attitude>
    </posture>
    <posture>
      <time>2017-02-21T12:32:40.2570838+08:00</time>
      <mission_attitude>
        <time_boot_ms>1660000</time_boot_ms>
        <roll>-0.01919862</roll>
        <pitch>-0.0820304751</pitch>
        <yaw>0</yaw>
        <rollspeed>0</rollspeed>
        <pitchspeed>0</pitchspeed>
        <yawspeed>0</yawspeed>
      </mission_attitude>
    </posture>
    <posture>
      <time>2017-02-21T12:32:44.0072983+08:00</time>
      <mission_attitude>
        <time_boot_ms>5360000</time_boot_ms>
        <roll>-0.0157079622</roll>
        <pitch>-0.07853982</pitch>
        <yaw>1.6406095</yaw>
        <rollspeed>0</rollspeed>
        <pitchspeed>0</pitchspeed>
        <yawspeed>0</yawspeed>
      </mission_attitude>
    </posture>
    <posture>
      <time>2017-02-21T12:32:45.0073555+08:00</time>
      <mission_attitude>
        <time_boot_ms>6360000</time_boot_ms>
        <roll>-0.0157079622</roll>
        <pitch>-0.07853982</pitch>
        <yaw>1.65806282</yaw>
        <rollspeed>0</rollspeed>
        <pitchspeed>0</pitchspeed>
        <yawspeed>0</yawspeed>
      </mission_attitude>
    </posture>
    <posture>
      <time>2017-02-21T12:32:46.0074127+08:00</time>
      <mission_attitude>
        <time_boot_ms>7380000</time_boot_ms>
        <roll>-0.0157079622</roll>
        <pitch>-0.07853982</pitch>
        <yaw>2.024582</yaw>
        <rollspeed>0</rollspeed>
        <pitchspeed>0</pitchspeed>
        <yawspeed>0</yawspeed>
      </mission_attitude>
    </posture>
    <posture>
      <time>2017-02-21T12:32:47.0074699+08:00</time>
      <mission_attitude>
        <time_boot_ms>8380000</time_boot_ms>
        <roll>-0.0157079622</roll>
        <pitch>-0.07679448</pitch>
        <yaw>2.024582</yaw>
        <rollspeed>0</rollspeed>
        <pitchspeed>0</pitchspeed>
        <yawspeed>0</yawspeed>
      </mission_attitude>
    </posture>
    <posture>
      <time>2017-02-21T12:32:48.0075271+08:00</time>
      <mission_attitude>
        <time_boot_ms>9360000</time_boot_ms>
        <roll>-0.0157079622</roll>
        <pitch>-0.07679448</pitch>
        <yaw>2.024582</yaw>
        <rollspeed>0</rollspeed>
        <pitchspeed>0</pitchspeed>
        <yawspeed>0</yawspeed>
      </mission_attitude>
    </posture>
    <posture>
      <time>2017-02-21T12:32:49.0575872+08:00</time>
      <mission_attitude>
        <time_boot_ms>10380000</time_boot_ms>
        <roll>-0.0157079622</roll>
        <pitch>-0.07679448</pitch>
        <yaw>2.042035</yaw>
        <rollspeed>0</rollspeed>
        <pitchspeed>0</pitchspeed>
        <yawspeed>0</yawspeed>
      </mission_attitude>
    </posture>
    <posture>
      <time>2017-02-21T12:32:50.0576444+08:00</time>
      <mission_attitude>
        <time_boot_ms>11360000</time_boot_ms>
        <roll>-0.0157079622</roll>
        <pitch>-0.07679448</pitch>
        <yaw>2.00712872</yaw>
        <rollspeed>0</rollspeed>
        <pitchspeed>0</pitchspeed>
        <yawspeed>0</yawspeed>
      </mission_attitude>
    </posture>
    <posture>
      <time>2017-02-21T12:32:51.0577016+08:00</time>
      <mission_attitude>
        <time_boot_ms>12360000</time_boot_ms>
        <roll>-0.0157079622</roll>
        <pitch>-0.0750491545</pitch>
        <yaw>2.07694173</yaw>
        <rollspeed>0</rollspeed>
        <pitchspeed>0</pitchspeed>
        <yawspeed>0</yawspeed>
      </mission_attitude>
    </posture>
    <posture>
      <time>2017-02-21T12:32:52.0567587+08:00</time>
      <mission_attitude>
        <time_boot_ms>13340000</time_boot_ms>
        <roll>-0.0157079622</roll>
        <pitch>-0.0750491545</pitch>
        <yaw>2.07694173</yaw>
        <rollspeed>0</rollspeed>
        <pitchspeed>0</pitchspeed>
        <yawspeed>0</yawspeed>
      </mission_attitude>
    </posture>
    <posture>
      <time>2017-02-21T12:32:53.006813+08:00</time>
      <mission_attitude>
        <time_boot_ms>14340000</time_boot_ms>
        <roll>-0.0157079622</roll>
        <pitch>-0.0750491545</pitch>
        <yaw>2.042035</yaw>
        <rollspeed>0</rollspeed>
        <pitchspeed>0</pitchspeed>
        <yawspeed>0</yawspeed>
      </mission_attitude>
    </posture>
    <posture>
      <time>2017-02-21T12:32:54.0068702+08:00</time>
      <mission_attitude>
        <time_boot_ms>15320000</time_boot_ms>
        <roll>-0.0157079622</roll>
        <pitch>-0.0750491545</pitch>
        <yaw>2.07694173</yaw>
        <rollspeed>0</rollspeed>
        <pitchspeed>0</pitchspeed>
        <yawspeed>0</yawspeed>
      </mission_attitude>
    </posture>
    <posture>
      <time>2017-02-21T12:32:55.0069274+08:00</time>
      <mission_attitude>
        <time_boot_ms>16300000</time_boot_ms>
        <roll>-0.0157079622</roll>
        <pitch>-0.0750491545</pitch>
        <yaw>2.09439516</yaw>
        <rollspeed>0</rollspeed>
        <pitchspeed>0</pitchspeed>
        <yawspeed>0</yawspeed>
      </mission_attitude>
    </posture>
    <posture>
      <time>2017-02-21T12:32:56.0069846+08:00</time>
      <mission_attitude>
        <time_boot_ms>17300000</time_boot_ms>
        <roll>-0.0157079622</roll>
        <pitch>-0.0750491545</pitch>
        <yaw>2.07694173</yaw>
        <rollspeed>0</rollspeed>
        <pitchspeed>0</pitchspeed>
        <yawspeed>0</yawspeed>
      </mission_attitude>
    </posture>
    <posture>
      <time>2017-02-21T12:32:57.0070418+08:00</time>
      <mission_attitude>
        <time_boot_ms>18280000</time_boot_ms>
        <roll>-0.0157079622</roll>
        <pitch>-0.0750491545</pitch>
        <yaw>2.05948853</yaw>
        <rollspeed>0</rollspeed>
        <pitchspeed>0</pitchspeed>
        <yawspeed>0</yawspeed>
      </mission_attitude>
    </posture>
    <posture>
      <time>2017-02-21T12:32:58.007099+08:00</time>
      <mission_attitude>
        <time_boot_ms>19300000</time_boot_ms>
        <roll>-0.0157079622</roll>
        <pitch>-0.0750491545</pitch>
        <yaw>2.05948853</yaw>
        <rollspeed>0</rollspeed>
        <pitchspeed>0</pitchspeed>
        <yawspeed>0</yawspeed>
      </mission_attitude>
    </posture>
    <posture>
      <time>2017-02-21T12:32:59.0071562+08:00</time>
      <mission_attitude>
        <time_boot_ms>20280000</time_boot_ms>
        <roll>-0.0157079622</roll>
        <pitch>-0.0750491545</pitch>
        <yaw>2.042035</yaw>
        <rollspeed>0</rollspeed>
        <pitchspeed>0</pitchspeed>
        <yawspeed>0</yawspeed>
      </mission_attitude>
    </posture>
    <posture>
      <time>2017-02-21T12:33:00.0072134+08:00</time>
      <mission_attitude>
        <time_boot_ms>21320000</time_boot_ms>
        <roll>-0.0157079622</roll>
        <pitch>-0.0750491545</pitch>
        <yaw>2.042035</yaw>
        <rollspeed>0</rollspeed>
        <pitchspeed>0</pitchspeed>
        <yawspeed>0</yawspeed>
      </mission_attitude>
    </posture>
    <posture>
      <time>2017-02-21T12:33:01.0072706+08:00</time>
      <mission_attitude>
        <time_boot_ms>22300000</time_boot_ms>
        <roll>-0.0157079622</roll>
        <pitch>-0.0733038262</pitch>
        <yaw>2.05948853</yaw>
        <rollspeed>0</rollspeed>
        <pitchspeed>0</pitchspeed>
        <yawspeed>0</yawspeed>
      </mission_attitude>
    </posture>
    <posture>
      <time>2017-02-21T12:33:02.0073278+08:00</time>
      <mission_attitude>
        <time_boot_ms>23300000</time_boot_ms>
        <roll>-0.0157079622</roll>
        <pitch>-0.0750491545</pitch>
        <yaw>2.09439516</yaw>
        <rollspeed>0</rollspeed>
        <pitchspeed>0</pitchspeed>
        <yawspeed>0</yawspeed>
      </mission_attitude>
    </posture>
    <posture>
      <time>2017-02-21T12:33:03.007385+08:00</time>
      <mission_attitude>
        <time_boot_ms>24280000</time_boot_ms>
        <roll>-0.0157079622</roll>
        <pitch>-0.0733038262</pitch>
        <yaw>2.12930155</yaw>
        <rollspeed>0</rollspeed>
        <pitchspeed>0</pitchspeed>
        <yawspeed>0</yawspeed>
      </mission_attitude>
    </posture>
    <posture>
      <time>2017-02-21T12:33:04.0074422+08:00</time>
      <mission_attitude>
        <time_boot_ms>25280000</time_boot_ms>
        <roll>-0.0157079622</roll>
        <pitch>-0.0750491545</pitch>
        <yaw>2.042035</yaw>
        <rollspeed>0</rollspeed>
        <pitchspeed>0</pitchspeed>
        <yawspeed>0</yawspeed>
      </mission_attitude>
    </posture>
    <posture>
      <time>2017-02-21T12:33:05.0074994+08:00</time>
      <mission_attitude>
        <time_boot_ms>26260000</time_boot_ms>
        <roll>-0.0157079622</roll>
        <pitch>-0.0750491545</pitch>
        <yaw>2.024582</yaw>
        <rollspeed>0</rollspeed>
        <pitchspeed>0</pitchspeed>
        <yawspeed>0</yawspeed>
      </mission_attitude>
    </posture>
    <posture>
      <time>2017-02-21T12:33:06.0075566+08:00</time>
      <mission_attitude>
        <time_boot_ms>27260000</time_boot_ms>
        <roll>-0.0157079622</roll>
        <pitch>-0.0750491545</pitch>
        <yaw>2.042035</yaw>
        <rollspeed>0</rollspeed>
        <pitchspeed>0</pitchspeed>
        <yawspeed>0</yawspeed>
      </mission_attitude>
    </posture>
    <posture>
      <time>2017-02-21T12:33:07.0076138+08:00</time>
      <mission_attitude>
        <time_boot_ms>28240000</time_boot_ms>
        <roll>-0.0157079622</roll>
        <pitch>-0.0733038262</pitch>
        <yaw>2.05948853</yaw>
        <rollspeed>0</rollspeed>
        <pitchspeed>0</pitchspeed>
        <yawspeed>0</yawspeed>
      </mission_attitude>
    </posture>
    <posture>
      <time>2017-02-21T12:33:08.007671+08:00</time>
      <mission_attitude>
        <time_boot_ms>29240000</time_boot_ms>
        <roll>-0.0157079622</roll>
        <pitch>-0.0733038262</pitch>
        <yaw>2.024582</yaw>
        <rollspeed>0</rollspeed>
        <pitchspeed>0</pitchspeed>
        <yawspeed>0</yawspeed>
      </mission_attitude>
    </posture>
    <posture>
      <time>2017-02-21T12:33:09.0067282+08:00</time>
      <mission_attitude>
        <time_boot_ms>30220000</time_boot_ms>
        <roll>-0.0157079622</roll>
        <pitch>-0.0733038262</pitch>
        <yaw>2.05948853</yaw>
        <rollspeed>0</rollspeed>
        <pitchspeed>0</pitchspeed>
        <yawspeed>0</yawspeed>
      </mission_attitude>
    </posture>
    <posture>
      <time>2017-02-21T12:33:09.9567825+08:00</time>
      <mission_attitude>
        <time_boot_ms>31200000</time_boot_ms>
        <roll>-0.0157079622</roll>
        <pitch>-0.0733038262</pitch>
        <yaw>2.042035</yaw>
        <rollspeed>0</rollspeed>
        <pitchspeed>0</pitchspeed>
        <yawspeed>0</yawspeed>
      </mission_attitude>
    </posture>
    <posture>
      <time>2017-02-21T12:33:11.0068426+08:00</time>
      <mission_attitude>
        <time_boot_ms>32220000</time_boot_ms>
        <roll>-0.0157079622</roll>
        <pitch>-0.0733038262</pitch>
        <yaw>2.09439516</yaw>
        <rollspeed>0</rollspeed>
        <pitchspeed>0</pitchspeed>
        <yawspeed>0</yawspeed>
      </mission_attitude>
    </posture>
    <posture>
      <time>2017-02-21T12:33:12.0068998+08:00</time>
      <mission_attitude>
        <time_boot_ms>33200000</time_boot_ms>
        <roll>-0.0139626339</roll>
        <pitch>-0.0733038262</pitch>
        <yaw>2.07694173</yaw>
        <rollspeed>0</rollspeed>
        <pitchspeed>0</pitchspeed>
        <yawspeed>0</yawspeed>
      </mission_attitude>
    </posture>
    <posture>
      <time>2017-02-21T12:33:13.006957+08:00</time>
      <mission_attitude>
        <time_boot_ms>34200000</time_boot_ms>
        <roll>-0.0139626339</roll>
        <pitch>-0.0733038262</pitch>
        <yaw>2.05948853</yaw>
        <rollspeed>0</rollspeed>
        <pitchspeed>0</pitchspeed>
        <yawspeed>0</yawspeed>
      </mission_attitude>
    </posture>
    <posture>
      <time>2017-02-21T12:33:14.0070142+08:00</time>
      <mission_attitude>
        <time_boot_ms>35200000</time_boot_ms>
        <roll>-0.0139626339</roll>
        <pitch>-0.0733038262</pitch>
        <yaw>2.05948853</yaw>
        <rollspeed>0</rollspeed>
        <pitchspeed>0</pitchspeed>
        <yawspeed>0</yawspeed>
      </mission_attitude>
    </posture>
    <posture>
      <time>2017-02-21T12:33:15.0070714+08:00</time>
      <mission_attitude>
        <time_boot_ms>36180000</time_boot_ms>
        <roll>-0.0139626339</roll>
        <pitch>-0.0733038262</pitch>
        <yaw>2.042035</yaw>
        <rollspeed>0</rollspeed>
        <pitchspeed>0</pitchspeed>
        <yawspeed>0</yawspeed>
      </mission_attitude>
    </posture>
    <posture>
      <time>2017-02-21T12:33:15.9571257+08:00</time>
      <mission_attitude>
        <time_boot_ms>37160000</time_boot_ms>
        <roll>-0.0157079622</roll>
        <pitch>-0.0733038262</pitch>
        <yaw>1.91986215</yaw>
        <rollspeed>0</rollspeed>
        <pitchspeed>0</pitchspeed>
        <yawspeed>0</yawspeed>
      </mission_attitude>
    </posture>
    <posture>
      <time>2017-02-21T12:33:16.9571829+08:00</time>
      <mission_attitude>
        <time_boot_ms>38160000</time_boot_ms>
        <roll>-0.0157079622</roll>
        <pitch>-0.0733038262</pitch>
        <yaw>2.024582</yaw>
        <rollspeed>0</rollspeed>
        <pitchspeed>0</pitchspeed>
        <yawspeed>0</yawspeed>
      </mission_attitude>
    </posture>
    <posture>
      <time>2017-02-21T12:33:17.9572401+08:00</time>
      <mission_attitude>
        <time_boot_ms>39140000</time_boot_ms>
        <roll>-0.0157079622</roll>
        <pitch>-0.0733038262</pitch>
        <yaw>2.09439516</yaw>
        <rollspeed>0</rollspeed>
        <pitchspeed>0</pitchspeed>
        <yawspeed>0</yawspeed>
      </mission_attitude>
    </posture>
    <posture>
      <time>2017-02-21T12:33:18.9072945+08:00</time>
      <mission_attitude>
        <time_boot_ms>40120000</time_boot_ms>
        <roll>-0.0139626339</roll>
        <pitch>-0.0733038262</pitch>
        <yaw>2.07694173</yaw>
        <rollspeed>0</rollspeed>
        <pitchspeed>0</pitchspeed>
        <yawspeed>0</yawspeed>
      </mission_attitude>
    </posture>
    <posture>
      <time>2017-02-21T12:33:19.9073517+08:00</time>
      <mission_attitude>
        <time_boot_ms>41120000</time_boot_ms>
        <roll>-0.0139626339</roll>
        <pitch>-0.0733038262</pitch>
        <yaw>2.09439516</yaw>
        <rollspeed>0</rollspeed>
        <pitchspeed>0</pitchspeed>
        <yawspeed>0</yawspeed>
      </mission_attitude>
    </posture>
    <posture>
      <time>2017-02-21T12:33:20.9074089+08:00</time>
      <mission_attitude>
        <time_boot_ms>42100000</time_boot_ms>
        <roll>-0.0139626339</roll>
        <pitch>-0.0733038262</pitch>
        <yaw>2.09439516</yaw>
        <rollspeed>0</rollspeed>
        <pitchspeed>0</pitchspeed>
        <yawspeed>0</yawspeed>
      </mission_attitude>
    </posture>
    <posture>
      <time>2017-02-21T12:33:21.9574689+08:00</time>
      <mission_attitude>
        <time_boot_ms>43120000</time_boot_ms>
        <roll>-0.0139626339</roll>
        <pitch>-0.0733038262</pitch>
        <yaw>1.95476878</yaw>
        <rollspeed>0</rollspeed>
        <pitchspeed>0</pitchspeed>
        <yawspeed>0</yawspeed>
      </mission_attitude>
    </posture>
    <posture>
      <time>2017-02-21T12:33:22.9575261+08:00</time>
      <mission_attitude>
        <time_boot_ms>44100000</time_boot_ms>
        <roll>-0.0139626339</roll>
        <pitch>-0.0733038262</pitch>
        <yaw>2.042035</yaw>
        <rollspeed>0</rollspeed>
        <pitchspeed>0</pitchspeed>
        <yawspeed>0</yawspeed>
      </mission_attitude>
    </posture>
    <posture>
      <time>2017-02-21T12:33:23.9075805+08:00</time>
      <mission_attitude>
        <time_boot_ms>45080000</time_boot_ms>
        <roll>-0.0157079622</roll>
        <pitch>-0.0733038262</pitch>
        <yaw>2.024582</yaw>
        <rollspeed>0</rollspeed>
        <pitchspeed>0</pitchspeed>
        <yawspeed>0</yawspeed>
      </mission_attitude>
    </posture>
    <posture>
      <time>2017-02-21T12:33:24.9076377+08:00</time>
      <mission_attitude>
        <time_boot_ms>46060000</time_boot_ms>
        <roll>-0.0157079622</roll>
        <pitch>-0.0733038262</pitch>
        <yaw>2.042035</yaw>
        <rollspeed>0</rollspeed>
        <pitchspeed>0</pitchspeed>
        <yawspeed>0</yawspeed>
      </mission_attitude>
    </posture>
    <posture>
      <time>2017-02-21T12:33:25.9576977+08:00</time>
      <mission_attitude>
        <time_boot_ms>47080000</time_boot_ms>
        <roll>-0.0157079622</roll>
        <pitch>-0.0733038262</pitch>
        <yaw>2.05948853</yaw>
        <rollspeed>0</rollspeed>
        <pitchspeed>0</pitchspeed>
        <yawspeed>0</yawspeed>
      </mission_attitude>
    </posture>
    <posture>
      <time>2017-02-21T12:33:29.6569093+08:00</time>
      <mission_attitude>
        <time_boot_ms>50800000</time_boot_ms>
        <roll>-0.0139626339</roll>
        <pitch>-0.0733038262</pitch>
        <yaw>2.07694173</yaw>
        <rollspeed>0</rollspeed>
        <pitchspeed>0</pitchspeed>
        <yawspeed>0</yawspeed>
      </mission_attitude>
    </posture>
    <posture>
      <time>2017-02-21T12:33:34.5571896+08:00</time>
      <mission_attitude>
        <time_boot_ms>55660000</time_boot_ms>
        <roll>-0.0157079622</roll>
        <pitch>-0.0733038262</pitch>
        <yaw>2.09439516</yaw>
        <rollspeed>0</rollspeed>
        <pitchspeed>0</pitchspeed>
        <yawspeed>0</yawspeed>
      </mission_attitude>
    </posture>
    <posture>
      <time>2017-02-21T12:33:35.5572468+08:00</time>
      <mission_attitude>
        <time_boot_ms>56660000</time_boot_ms>
        <roll>-0.0157079622</roll>
        <pitch>-0.0733038262</pitch>
        <yaw>2.11184835</yaw>
        <rollspeed>0</rollspeed>
        <pitchspeed>0</pitchspeed>
        <yawspeed>0</yawspeed>
      </mission_attitude>
    </posture>
    <posture>
      <time>2017-02-21T12:33:36.557304+08:00</time>
      <mission_attitude>
        <time_boot_ms>57660000</time_boot_ms>
        <roll>-0.0139626339</roll>
        <pitch>-0.0733038262</pitch>
        <yaw>2.09439516</yaw>
        <rollspeed>0</rollspeed>
        <pitchspeed>0</pitchspeed>
        <yawspeed>0</yawspeed>
      </mission_attitude>
    </posture>
    <posture>
      <time>2017-02-21T12:33:37.5573612+08:00</time>
      <mission_attitude>
        <time_boot_ms>58660000</time_boot_ms>
        <roll>-0.0139626339</roll>
        <pitch>-0.0733038262</pitch>
        <yaw>2.09439516</yaw>
        <rollspeed>0</rollspeed>
        <pitchspeed>0</pitchspeed>
        <yawspeed>0</yawspeed>
      </mission_attitude>
    </posture>
    <posture>
      <time>2017-02-21T12:33:38.5574184+08:00</time>
      <mission_attitude>
        <time_boot_ms>59640000</time_boot_ms>
        <roll>-0.0139626339</roll>
        <pitch>-0.0733038262</pitch>
        <yaw>2.042035</yaw>
        <rollspeed>0</rollspeed>
        <pitchspeed>0</pitchspeed>
        <yawspeed>0</yawspeed>
      </mission_attitude>
    </posture>
    <posture>
      <time>2017-02-21T12:33:39.5074727+08:00</time>
      <mission_attitude>
        <time_boot_ms>60620000</time_boot_ms>
        <roll>-0.0139626339</roll>
        <pitch>-0.0733038262</pitch>
        <yaw>2.042035</yaw>
        <rollspeed>0</rollspeed>
        <pitchspeed>0</pitchspeed>
        <yawspeed>0</yawspeed>
      </mission_attitude>
    </posture>
    <posture>
      <time>2017-02-21T12:33:40.5075299+08:00</time>
      <mission_attitude>
        <time_boot_ms>61600000</time_boot_ms>
        <roll>-0.0157079622</roll>
        <pitch>-0.0733038262</pitch>
        <yaw>2.024582</yaw>
        <rollspeed>0</rollspeed>
        <pitchspeed>0</pitchspeed>
        <yawspeed>0</yawspeed>
      </mission_attitude>
    </posture>
    <posture>
      <time>2017-02-21T12:33:41.5075871+08:00</time>
      <mission_attitude>
        <time_boot_ms>62600000</time_boot_ms>
        <roll>-0.0157079622</roll>
        <pitch>-0.0733038262</pitch>
        <yaw>2.042035</yaw>
        <rollspeed>0</rollspeed>
        <pitchspeed>0</pitchspeed>
        <yawspeed>0</yawspeed>
      </mission_attitude>
    </posture>
    <posture>
      <time>2017-02-21T12:33:42.5076443+08:00</time>
      <mission_attitude>
        <time_boot_ms>63600000</time_boot_ms>
        <roll>-0.0157079622</roll>
        <pitch>-0.0733038262</pitch>
        <yaw>2.042035</yaw>
        <rollspeed>0</rollspeed>
        <pitchspeed>0</pitchspeed>
        <yawspeed>0</yawspeed>
      </mission_attitude>
    </posture>
    <posture>
      <time>2017-02-21T12:33:43.5077015+08:00</time>
      <mission_attitude>
        <time_boot_ms>64580000</time_boot_ms>
        <roll>-0.0157079622</roll>
        <pitch>-0.0733038262</pitch>
        <yaw>2.09439516</yaw>
        <rollspeed>0</rollspeed>
        <pitchspeed>0</pitchspeed>
        <yawspeed>0</yawspeed>
      </mission_attitude>
    </posture>
    <posture>
      <time>2017-02-21T12:33:44.5067587+08:00</time>
      <mission_attitude>
        <time_boot_ms>65560000</time_boot_ms>
        <roll>-0.0157079622</roll>
        <pitch>-0.0733038262</pitch>
        <yaw>2.09439516</yaw>
        <rollspeed>0</rollspeed>
        <pitchspeed>0</pitchspeed>
        <yawspeed>0</yawspeed>
      </mission_attitude>
    </posture>
    <posture>
      <time>2017-02-21T12:33:45.5068159+08:00</time>
      <mission_attitude>
        <time_boot_ms>66540000</time_boot_ms>
        <roll>-0.0139626339</roll>
        <pitch>-0.0733038262</pitch>
        <yaw>2.07694173</yaw>
        <rollspeed>0</rollspeed>
        <pitchspeed>0</pitchspeed>
        <yawspeed>0</yawspeed>
      </mission_attitude>
    </posture>
    <posture>
      <time>2017-02-21T12:33:46.5068731+08:00</time>
      <mission_attitude>
        <time_boot_ms>67560000</time_boot_ms>
        <roll>-0.0139626339</roll>
        <pitch>-0.0733038262</pitch>
        <yaw>2.024582</yaw>
        <rollspeed>0</rollspeed>
        <pitchspeed>0</pitchspeed>
        <yawspeed>0</yawspeed>
      </mission_attitude>
    </posture>
    <posture>
      <time>2017-02-21T12:33:47.5069303+08:00</time>
      <mission_attitude>
        <time_boot_ms>68540000</time_boot_ms>
        <roll>-0.0139626339</roll>
        <pitch>-0.0733038262</pitch>
        <yaw>2.042035</yaw>
        <rollspeed>0</rollspeed>
        <pitchspeed>0</pitchspeed>
        <yawspeed>0</yawspeed>
      </mission_attitude>
    </posture>
    <posture>
      <time>2017-02-21T12:33:48.5569903+08:00</time>
      <mission_attitude>
        <time_boot_ms>69560000</time_boot_ms>
        <roll>-0.0139626339</roll>
        <pitch>-0.0733038262</pitch>
        <yaw>2.05948853</yaw>
        <rollspeed>0</rollspeed>
        <pitchspeed>0</pitchspeed>
        <yawspeed>0</yawspeed>
      </mission_attitude>
    </posture>
    <posture>
      <time>2017-02-21T12:33:49.5570475+08:00</time>
      <mission_attitude>
        <time_boot_ms>70580000</time_boot_ms>
        <roll>-0.0157079622</roll>
        <pitch>-0.0733038262</pitch>
        <yaw>2.042035</yaw>
        <rollspeed>0</rollspeed>
        <pitchspeed>0</pitchspeed>
        <yawspeed>0</yawspeed>
      </mission_attitude>
    </posture>
    <posture>
      <time>2017-02-21T12:33:50.5571047+08:00</time>
      <mission_attitude>
        <time_boot_ms>71580000</time_boot_ms>
        <roll>-0.0157079622</roll>
        <pitch>-0.0733038262</pitch>
        <yaw>2.024582</yaw>
        <rollspeed>0</rollspeed>
        <pitchspeed>0</pitchspeed>
        <yawspeed>0</yawspeed>
      </mission_attitude>
    </posture>
    <posture>
      <time>2017-02-21T12:33:51.5571619+08:00</time>
      <mission_attitude>
        <time_boot_ms>72560000</time_boot_ms>
        <roll>-0.0139626339</roll>
        <pitch>-0.0733038262</pitch>
        <yaw>2.07694173</yaw>
        <rollspeed>0</rollspeed>
        <pitchspeed>0</pitchspeed>
        <yawspeed>0</yawspeed>
      </mission_attitude>
    </posture>
    <posture>
      <time>2017-02-21T12:33:52.5572191+08:00</time>
      <mission_attitude>
        <time_boot_ms>73560000</time_boot_ms>
        <roll>-0.0139626339</roll>
        <pitch>-0.0733038262</pitch>
        <yaw>2.11184835</yaw>
        <rollspeed>0</rollspeed>
        <pitchspeed>0</pitchspeed>
        <yawspeed>0</yawspeed>
      </mission_attitude>
    </posture>
    <posture>
      <time>2017-02-21T12:33:53.5072735+08:00</time>
      <mission_attitude>
        <time_boot_ms>74540000</time_boot_ms>
        <roll>-0.0139626339</roll>
        <pitch>-0.0733038262</pitch>
        <yaw>2.05948853</yaw>
        <rollspeed>0</rollspeed>
        <pitchspeed>0</pitchspeed>
        <yawspeed>0</yawspeed>
      </mission_attitude>
    </posture>
    <posture>
      <time>2017-02-21T12:33:54.5573335+08:00</time>
      <mission_attitude>
        <time_boot_ms>75540000</time_boot_ms>
        <roll>-0.0139626339</roll>
        <pitch>-0.0733038262</pitch>
        <yaw>2.09439516</yaw>
        <rollspeed>0</rollspeed>
        <pitchspeed>0</pitchspeed>
        <yawspeed>0</yawspeed>
      </mission_attitude>
    </posture>
    <posture>
      <time>2017-02-21T12:33:58.307548+08:00</time>
      <mission_attitude>
        <time_boot_ms>79280000</time_boot_ms>
        <roll>-0.0157079622</roll>
        <pitch>-0.0733038262</pitch>
        <yaw>2.07694173</yaw>
        <rollspeed>0</rollspeed>
        <pitchspeed>0</pitchspeed>
        <yawspeed>0</yawspeed>
      </mission_attitude>
    </posture>
    <posture>
      <time>2017-02-21T12:34:02.1567682+08:00</time>
      <mission_attitude>
        <time_boot_ms>83140000</time_boot_ms>
        <roll>-0.0139626339</roll>
        <pitch>-0.0733038262</pitch>
        <yaw>2.024582</yaw>
        <rollspeed>0</rollspeed>
        <pitchspeed>0</pitchspeed>
        <yawspeed>0</yawspeed>
      </mission_attitude>
    </posture>
    <posture>
      <time>2017-02-21T12:34:03.1568254+08:00</time>
      <mission_attitude>
        <time_boot_ms>84120000</time_boot_ms>
        <roll>-0.0122173047</roll>
        <pitch>-0.0733038262</pitch>
        <yaw>2.024582</yaw>
        <rollspeed>0</rollspeed>
        <pitchspeed>0</pitchspeed>
        <yawspeed>0</yawspeed>
      </mission_attitude>
    </posture>
    <posture>
      <time>2017-02-21T12:34:04.1568826+08:00</time>
      <mission_attitude>
        <time_boot_ms>85140000</time_boot_ms>
        <roll>-0.0139626339</roll>
        <pitch>-0.0733038262</pitch>
        <yaw>2.00712872</yaw>
        <rollspeed>0</rollspeed>
        <pitchspeed>0</pitchspeed>
        <yawspeed>0</yawspeed>
      </mission_attitude>
    </posture>
    <posture>
      <time>2017-02-21T12:34:05.1569398+08:00</time>
      <mission_attitude>
        <time_boot_ms>86120000</time_boot_ms>
        <roll>-0.0139626339</roll>
        <pitch>-0.0733038262</pitch>
        <yaw>2.12930155</yaw>
        <rollspeed>0</rollspeed>
        <pitchspeed>0</pitchspeed>
        <yawspeed>0</yawspeed>
      </mission_attitude>
    </posture>
    <posture>
      <time>2017-02-21T12:34:06.156997+08:00</time>
      <mission_attitude>
        <time_boot_ms>87120000</time_boot_ms>
        <roll>-0.0139626339</roll>
        <pitch>-0.0733038262</pitch>
        <yaw>2.28638124</yaw>
        <rollspeed>0</rollspeed>
        <pitchspeed>0</pitchspeed>
        <yawspeed>0</yawspeed>
      </mission_attitude>
    </posture>
    <posture>
      <time>2017-02-21T12:34:07.1570542+08:00</time>
      <mission_attitude>
        <time_boot_ms>88100000</time_boot_ms>
        <roll>-0.0139626339</roll>
        <pitch>-0.0733038262</pitch>
        <yaw>2.3561945</yaw>
        <rollspeed>0</rollspeed>
        <pitchspeed>0</pitchspeed>
        <yawspeed>0</yawspeed>
      </mission_attitude>
    </posture>
    <posture>
      <time>2017-02-21T12:34:08.1571114+08:00</time>
      <mission_attitude>
        <time_boot_ms>89100000</time_boot_ms>
        <roll>-0.0139626339</roll>
        <pitch>-0.0733038262</pitch>
        <yaw>2.40855432</yaw>
        <rollspeed>0</rollspeed>
        <pitchspeed>0</pitchspeed>
        <yawspeed>0</yawspeed>
      </mission_attitude>
    </posture>
    <posture>
      <time>2017-02-21T12:34:11.9073259+08:00</time>
      <mission_attitude>
        <time_boot_ms>92840000</time_boot_ms>
        <roll>-0.0139626339</roll>
        <pitch>-0.0733038262</pitch>
        <yaw>2.42600751</yaw>
        <rollspeed>0</rollspeed>
        <pitchspeed>0</pitchspeed>
        <yawspeed>0</yawspeed>
      </mission_attitude>
    </posture>
    <posture>
      <time>2017-02-21T12:34:12.957386+08:00</time>
      <mission_attitude>
        <time_boot_ms>93840000</time_boot_ms>
        <roll>-0.0139626339</roll>
        <pitch>-0.0733038262</pitch>
        <yaw>2.37364769</yaw>
        <rollspeed>0</rollspeed>
        <pitchspeed>0</pitchspeed>
        <yawspeed>0</yawspeed>
      </mission_attitude>
    </posture>
    <posture>
      <time>2017-02-21T12:34:16.7576033+08:00</time>
      <mission_attitude>
        <time_boot_ms>97620000</time_boot_ms>
        <roll>-0.0157079622</roll>
        <pitch>-0.0733038262</pitch>
        <yaw>2.40855432</yaw>
        <rollspeed>0</rollspeed>
        <pitchspeed>0</pitchspeed>
        <yawspeed>0</yawspeed>
      </mission_attitude>
    </posture>
    <posture>
      <time>2017-02-21T12:34:20.1067949+08:00</time>
      <mission_attitude>
        <time_boot_ms>101000000</time_boot_ms>
        <roll>-0.0139626339</roll>
        <pitch>-0.0733038262</pitch>
        <yaw>2.32128787</yaw>
        <rollspeed>0</rollspeed>
        <pitchspeed>0</pitchspeed>
        <yawspeed>0</yawspeed>
      </mission_attitude>
    </posture>
    <posture>
      <time>2017-02-21T12:34:23.6069951+08:00</time>
      <mission_attitude>
        <time_boot_ms>104460000</time_boot_ms>
        <roll>-0.0139626339</roll>
        <pitch>-0.0733038262</pitch>
        <yaw>2.37364769</yaw>
        <rollspeed>0</rollspeed>
        <pitchspeed>0</pitchspeed>
        <yawspeed>0</yawspeed>
      </mission_attitude>
    </posture>
    <posture>
      <time>2017-02-21T12:34:28.6072811+08:00</time>
      <mission_attitude>
        <time_boot_ms>109460000</time_boot_ms>
        <roll>-0.0139626339</roll>
        <pitch>-0.0733038262</pitch>
        <yaw>2.39110112</yaw>
        <rollspeed>0</rollspeed>
        <pitchspeed>0</pitchspeed>
        <yawspeed>0</yawspeed>
      </mission_attitude>
    </posture>
    <posture>
      <time>2017-02-21T12:34:29.6073383+08:00</time>
      <mission_attitude>
        <time_boot_ms>110460000</time_boot_ms>
        <roll>-0.0139626339</roll>
        <pitch>-0.0733038262</pitch>
        <yaw>2.39110112</yaw>
        <rollspeed>0</rollspeed>
        <pitchspeed>0</pitchspeed>
        <yawspeed>0</yawspeed>
      </mission_attitude>
    </posture>
    <posture>
      <time>2017-02-21T12:34:30.6573983+08:00</time>
      <mission_attitude>
        <time_boot_ms>111480000</time_boot_ms>
        <roll>-0.0139626339</roll>
        <pitch>-0.0733038262</pitch>
        <yaw>2.37364769</yaw>
        <rollspeed>0</rollspeed>
        <pitchspeed>0</pitchspeed>
        <yawspeed>0</yawspeed>
      </mission_attitude>
    </posture>
    <posture>
      <time>2017-02-21T12:34:31.6574555+08:00</time>
      <mission_attitude>
        <time_boot_ms>112460000</time_boot_ms>
        <roll>-0.0139626339</roll>
        <pitch>-0.0733038262</pitch>
        <yaw>2.3561945</yaw>
        <rollspeed>0</rollspeed>
        <pitchspeed>0</pitchspeed>
        <yawspeed>0</yawspeed>
      </mission_attitude>
    </posture>
    <posture>
      <time>2017-02-21T12:34:32.7075156+08:00</time>
      <mission_attitude>
        <time_boot_ms>113500000</time_boot_ms>
        <roll>-0.0139626339</roll>
        <pitch>-0.0733038262</pitch>
        <yaw>2.40855432</yaw>
        <rollspeed>0</rollspeed>
        <pitchspeed>0</pitchspeed>
        <yawspeed>0</yawspeed>
      </mission_attitude>
    </posture>
    <posture>
      <time>2017-02-21T12:34:33.6575699+08:00</time>
      <mission_attitude>
        <time_boot_ms>114480000</time_boot_ms>
        <roll>-0.0139626339</roll>
        <pitch>-0.0733038262</pitch>
        <yaw>2.42600751</yaw>
        <rollspeed>0</rollspeed>
        <pitchspeed>0</pitchspeed>
        <yawspeed>0</yawspeed>
      </mission_attitude>
    </posture>
    <posture>
      <time>2017-02-21T12:34:35.7076872+08:00</time>
      <mission_attitude>
        <time_boot_ms>116480000</time_boot_ms>
        <roll>-0.0139626339</roll>
        <pitch>-0.0733038262</pitch>
        <yaw>2.443461</yaw>
        <rollspeed>0</rollspeed>
        <pitchspeed>0</pitchspeed>
        <yawspeed>0</yawspeed>
      </mission_attitude>
    </posture>
    <posture>
      <time>2017-02-21T12:34:36.7067443+08:00</time>
      <mission_attitude>
        <time_boot_ms>117480000</time_boot_ms>
        <roll>-0.0139626339</roll>
        <pitch>-0.0733038262</pitch>
        <yaw>2.443461</yaw>
        <rollspeed>0</rollspeed>
        <pitchspeed>0</pitchspeed>
        <yawspeed>0</yawspeed>
      </mission_attitude>
    </posture>
    <posture>
      <time>2017-02-21T12:34:37.7568044+08:00</time>
      <mission_attitude>
        <time_boot_ms>118500000</time_boot_ms>
        <roll>-0.0139626339</roll>
        <pitch>-0.0733038262</pitch>
        <yaw>2.39110112</yaw>
        <rollspeed>0</rollspeed>
        <pitchspeed>0</pitchspeed>
        <yawspeed>0</yawspeed>
      </mission_attitude>
    </posture>
    <posture>
      <time>2017-02-21T12:34:38.7568616+08:00</time>
      <mission_attitude>
        <time_boot_ms>119500000</time_boot_ms>
        <roll>-0.0139626339</roll>
        <pitch>-0.0733038262</pitch>
        <yaw>2.37364769</yaw>
        <rollspeed>0</rollspeed>
        <pitchspeed>0</pitchspeed>
        <yawspeed>0</yawspeed>
      </mission_attitude>
    </posture>
    <posture>
      <time>2017-02-21T12:34:40.756976+08:00</time>
      <mission_attitude>
        <time_boot_ms>121480000</time_boot_ms>
        <roll>-0.0139626339</roll>
        <pitch>-0.0733038262</pitch>
        <yaw>2.39110112</yaw>
        <rollspeed>0</rollspeed>
        <pitchspeed>0</pitchspeed>
        <yawspeed>0</yawspeed>
      </mission_attitude>
    </posture>
    <posture>
      <time>2017-02-21T12:34:41.7070303+08:00</time>
      <mission_attitude>
        <time_boot_ms>122460000</time_boot_ms>
        <roll>-0.0139626339</roll>
        <pitch>-0.0733038262</pitch>
        <yaw>2.30383468</yaw>
        <rollspeed>0</rollspeed>
        <pitchspeed>0</pitchspeed>
        <yawspeed>0</yawspeed>
      </mission_attitude>
    </posture>
    <posture>
      <time>2017-02-21T12:34:42.7570904+08:00</time>
      <mission_attitude>
        <time_boot_ms>123480000</time_boot_ms>
        <roll>-0.0139626339</roll>
        <pitch>-0.0733038262</pitch>
        <yaw>2.42600751</yaw>
        <rollspeed>0</rollspeed>
        <pitchspeed>0</pitchspeed>
        <yawspeed>0</yawspeed>
      </mission_attitude>
    </posture>
    <posture>
      <time>2017-02-21T12:34:43.7571476+08:00</time>
      <mission_attitude>
        <time_boot_ms>124480000</time_boot_ms>
        <roll>-0.0139626339</roll>
        <pitch>-0.0750491545</pitch>
        <yaw>2.443461</yaw>
        <rollspeed>0</rollspeed>
        <pitchspeed>0</pitchspeed>
        <yawspeed>0</yawspeed>
      </mission_attitude>
    </posture>
    <posture>
      <time>2017-02-21T12:34:44.7572048+08:00</time>
      <mission_attitude>
        <time_boot_ms>125480000</time_boot_ms>
        <roll>-0.0139626339</roll>
        <pitch>-0.0750491545</pitch>
        <yaw>2.30383468</yaw>
        <rollspeed>0</rollspeed>
        <pitchspeed>0</pitchspeed>
        <yawspeed>0</yawspeed>
      </mission_attitude>
    </posture>
    <posture>
      <time>2017-02-21T12:34:45.757262+08:00</time>
      <mission_attitude>
        <time_boot_ms>126480000</time_boot_ms>
        <roll>-0.0139626339</roll>
        <pitch>-0.0750491545</pitch>
        <yaw>2.338741</yaw>
        <rollspeed>0</rollspeed>
        <pitchspeed>0</pitchspeed>
        <yawspeed>0</yawspeed>
      </mission_attitude>
    </posture>
    <posture>
      <time>2017-02-21T12:34:46.7573192+08:00</time>
      <mission_attitude>
        <time_boot_ms>127480000</time_boot_ms>
        <roll>-0.0139626339</roll>
        <pitch>-0.0750491545</pitch>
        <yaw>2.3561945</yaw>
        <rollspeed>0</rollspeed>
        <pitchspeed>0</pitchspeed>
        <yawspeed>0</yawspeed>
      </mission_attitude>
    </posture>
    <posture>
      <time>2017-02-21T12:34:47.7573764+08:00</time>
      <mission_attitude>
        <time_boot_ms>128480000</time_boot_ms>
        <roll>-0.0139626339</roll>
        <pitch>-0.0750491545</pitch>
        <yaw>2.3561945</yaw>
        <rollspeed>0</rollspeed>
        <pitchspeed>0</pitchspeed>
        <yawspeed>0</yawspeed>
      </mission_attitude>
    </posture>
    <posture>
      <time>2017-02-21T12:34:48.7574336+08:00</time>
      <mission_attitude>
        <time_boot_ms>129480000</time_boot_ms>
        <roll>-0.0139626339</roll>
        <pitch>-0.0750491545</pitch>
        <yaw>2.338741</yaw>
        <rollspeed>0</rollspeed>
        <pitchspeed>0</pitchspeed>
        <yawspeed>0</yawspeed>
      </mission_attitude>
    </posture>
    <posture>
      <time>2017-02-21T12:34:49.7574908+08:00</time>
      <mission_attitude>
        <time_boot_ms>130480000</time_boot_ms>
        <roll>-0.0139626339</roll>
        <pitch>-0.0750491545</pitch>
        <yaw>2.1991148</yaw>
        <rollspeed>0</rollspeed>
        <pitchspeed>0</pitchspeed>
        <yawspeed>0</yawspeed>
      </mission_attitude>
    </posture>
    <posture>
      <time>2017-02-21T12:34:50.8075509+08:00</time>
      <mission_attitude>
        <time_boot_ms>131500000</time_boot_ms>
        <roll>-0.0139626339</roll>
        <pitch>-0.0750491545</pitch>
        <yaw>2.42600751</yaw>
        <rollspeed>0</rollspeed>
        <pitchspeed>0</pitchspeed>
        <yawspeed>0</yawspeed>
      </mission_attitude>
    </posture>
    <posture>
      <time>2017-02-21T12:34:51.8076081+08:00</time>
      <mission_attitude>
        <time_boot_ms>132480000</time_boot_ms>
        <roll>-0.0139626339</roll>
        <pitch>-0.0750491545</pitch>
        <yaw>2.39110112</yaw>
        <rollspeed>0</rollspeed>
        <pitchspeed>0</pitchspeed>
        <yawspeed>0</yawspeed>
      </mission_attitude>
    </posture>
    <posture>
      <time>2017-02-21T12:34:52.7576624+08:00</time>
      <mission_attitude>
        <time_boot_ms>133460000</time_boot_ms>
        <roll>-0.0139626339</roll>
        <pitch>-0.0750491545</pitch>
        <yaw>1.553343</yaw>
        <rollspeed>0</rollspeed>
        <pitchspeed>0</pitchspeed>
        <yawspeed>0</yawspeed>
      </mission_attitude>
    </posture>
    <posture>
      <time>2017-02-21T12:34:53.7577196+08:00</time>
      <mission_attitude>
        <time_boot_ms>134480000</time_boot_ms>
        <roll>-0.0139626339</roll>
        <pitch>-0.0750491545</pitch>
        <yaw>1.60570288</yaw>
        <rollspeed>0</rollspeed>
        <pitchspeed>0</pitchspeed>
        <yawspeed>0</yawspeed>
      </mission_attitude>
    </posture>
    <posture>
      <time>2017-02-21T12:34:54.8067796+08:00</time>
      <mission_attitude>
        <time_boot_ms>135500000</time_boot_ms>
        <roll>-0.0139626339</roll>
        <pitch>-0.0750491545</pitch>
        <yaw>1.60570288</yaw>
        <rollspeed>0</rollspeed>
        <pitchspeed>0</pitchspeed>
        <yawspeed>0</yawspeed>
      </mission_attitude>
    </posture>
    <posture>
      <time>2017-02-21T12:34:55.8068368+08:00</time>
      <mission_attitude>
        <time_boot_ms>136500000</time_boot_ms>
        <roll>-0.0139626339</roll>
        <pitch>-0.0733038262</pitch>
        <yaw>1.58824956</yaw>
        <rollspeed>0</rollspeed>
        <pitchspeed>0</pitchspeed>
        <yawspeed>0</yawspeed>
      </mission_attitude>
    </posture>
    <posture>
      <time>2017-02-21T12:34:56.806894+08:00</time>
      <mission_attitude>
        <time_boot_ms>137520000</time_boot_ms>
        <roll>-0.0139626339</roll>
        <pitch>-0.0733038262</pitch>
        <yaw>1.62315619</yaw>
        <rollspeed>0</rollspeed>
        <pitchspeed>0</pitchspeed>
        <yawspeed>0</yawspeed>
      </mission_attitude>
    </posture>
    <posture>
      <time>2017-02-21T12:34:57.8069512+08:00</time>
      <mission_attitude>
        <time_boot_ms>138500000</time_boot_ms>
        <roll>-0.0139626339</roll>
        <pitch>-0.0733038262</pitch>
        <yaw>1.60570288</yaw>
        <rollspeed>0</rollspeed>
        <pitchspeed>0</pitchspeed>
        <yawspeed>0</yawspeed>
      </mission_attitude>
    </posture>
    <posture>
      <time>2017-02-21T12:34:58.8070084+08:00</time>
      <mission_attitude>
        <time_boot_ms>139500000</time_boot_ms>
        <roll>-0.0139626339</roll>
        <pitch>-0.0733038262</pitch>
        <yaw>1.62315619</yaw>
        <rollspeed>0</rollspeed>
        <pitchspeed>0</pitchspeed>
        <yawspeed>0</yawspeed>
      </mission_attitude>
    </posture>
    <posture>
      <time>2017-02-21T12:34:59.8570685+08:00</time>
      <mission_attitude>
        <time_boot_ms>140500000</time_boot_ms>
        <roll>-0.0139626339</roll>
        <pitch>-0.0733038262</pitch>
        <yaw>1.65806282</yaw>
        <rollspeed>0</rollspeed>
        <pitchspeed>0</pitchspeed>
        <yawspeed>0</yawspeed>
      </mission_attitude>
    </posture>
    <posture>
      <time>2017-02-21T12:35:00.8071228+08:00</time>
      <mission_attitude>
        <time_boot_ms>141500000</time_boot_ms>
        <roll>-0.0139626339</roll>
        <pitch>-0.0750491545</pitch>
        <yaw>1.6406095</yaw>
        <rollspeed>0</rollspeed>
        <pitchspeed>0</pitchspeed>
        <yawspeed>0</yawspeed>
      </mission_attitude>
    </posture>
    <posture>
      <time>2017-02-21T12:35:01.8571829+08:00</time>
      <mission_attitude>
        <time_boot_ms>142520000</time_boot_ms>
        <roll>-0.0139626339</roll>
        <pitch>-0.0750491545</pitch>
        <yaw>1.60570288</yaw>
        <rollspeed>0</rollspeed>
        <pitchspeed>0</pitchspeed>
        <yawspeed>0</yawspeed>
      </mission_attitude>
    </posture>
    <posture>
      <time>2017-02-21T12:35:02.8572401+08:00</time>
      <mission_attitude>
        <time_boot_ms>143540000</time_boot_ms>
        <roll>-0.0139626339</roll>
        <pitch>-0.0750491545</pitch>
        <yaw>1.58824956</yaw>
        <rollspeed>0</rollspeed>
        <pitchspeed>0</pitchspeed>
        <yawspeed>0</yawspeed>
      </mission_attitude>
    </posture>
    <posture>
      <time>2017-02-21T12:35:03.9073001+08:00</time>
      <mission_attitude>
        <time_boot_ms>144560000</time_boot_ms>
        <roll>-0.0139626339</roll>
        <pitch>-0.0750491545</pitch>
        <yaw>1.58824956</yaw>
        <rollspeed>0</rollspeed>
        <pitchspeed>0</pitchspeed>
        <yawspeed>0</yawspeed>
      </mission_attitude>
    </posture>
    <posture>
      <time>2017-02-21T12:35:04.9073573+08:00</time>
      <mission_attitude>
        <time_boot_ms>145560000</time_boot_ms>
        <roll>-0.0139626339</roll>
        <pitch>-0.0733038262</pitch>
        <yaw>1.58824956</yaw>
        <rollspeed>0</rollspeed>
        <pitchspeed>0</pitchspeed>
        <yawspeed>0</yawspeed>
      </mission_attitude>
    </posture>
    <posture>
      <time>2017-02-21T12:35:05.8574117+08:00</time>
      <mission_attitude>
        <time_boot_ms>146540000</time_boot_ms>
        <roll>-0.0139626339</roll>
        <pitch>-0.0733038262</pitch>
        <yaw>1.57079625</yaw>
        <rollspeed>0</rollspeed>
        <pitchspeed>0</pitchspeed>
        <yawspeed>0</yawspeed>
      </mission_attitude>
    </posture>
    <posture>
      <time>2017-02-21T12:35:06.9074717+08:00</time>
      <mission_attitude>
        <time_boot_ms>147520000</time_boot_ms>
        <roll>-0.0139626339</roll>
        <pitch>-0.0733038262</pitch>
        <yaw>1.6406095</yaw>
        <rollspeed>0</rollspeed>
        <pitchspeed>0</pitchspeed>
        <yawspeed>0</yawspeed>
      </mission_attitude>
    </posture>
    <posture>
      <time>2017-02-21T12:35:07.9075289+08:00</time>
      <mission_attitude>
        <time_boot_ms>148520000</time_boot_ms>
        <roll>-0.0139626339</roll>
        <pitch>-0.0750491545</pitch>
        <yaw>1.65806282</yaw>
        <rollspeed>0</rollspeed>
        <pitchspeed>0</pitchspeed>
        <yawspeed>0</yawspeed>
      </mission_attitude>
    </posture>
    <posture>
      <time>2017-02-21T12:35:08.9075861+08:00</time>
      <mission_attitude>
        <time_boot_ms>149540000</time_boot_ms>
        <roll>-0.0139626339</roll>
        <pitch>-0.0750491545</pitch>
        <yaw>1.58824956</yaw>
        <rollspeed>0</rollspeed>
        <pitchspeed>0</pitchspeed>
        <yawspeed>0</yawspeed>
      </mission_attitude>
    </posture>
    <posture>
      <time>2017-02-21T12:35:09.9076433+08:00</time>
      <mission_attitude>
        <time_boot_ms>150540000</time_boot_ms>
        <roll>-0.0139626339</roll>
        <pitch>-0.0750491545</pitch>
        <yaw>1.62315619</yaw>
        <rollspeed>0</rollspeed>
        <pitchspeed>0</pitchspeed>
        <yawspeed>0</yawspeed>
      </mission_attitude>
    </posture>
    <posture>
      <time>2017-02-21T12:35:10.9577034+08:00</time>
      <mission_attitude>
        <time_boot_ms>151580000</time_boot_ms>
        <roll>-0.0139626339</roll>
        <pitch>-0.0750491545</pitch>
        <yaw>1.57079625</yaw>
        <rollspeed>0</rollspeed>
        <pitchspeed>0</pitchspeed>
        <yawspeed>0</yawspeed>
      </mission_attitude>
    </posture>
    <posture>
      <time>2017-02-21T12:35:11.9567605+08:00</time>
      <mission_attitude>
        <time_boot_ms>152560000</time_boot_ms>
        <roll>-0.0139626339</roll>
        <pitch>-0.0750491545</pitch>
        <yaw>1.58824956</yaw>
        <rollspeed>0</rollspeed>
        <pitchspeed>0</pitchspeed>
        <yawspeed>0</yawspeed>
      </mission_attitude>
    </posture>
    <posture>
      <time>2017-02-21T12:35:12.9068149+08:00</time>
      <mission_attitude>
        <time_boot_ms>153560000</time_boot_ms>
        <roll>-0.0139626339</roll>
        <pitch>-0.0750491545</pitch>
        <yaw>1.553343</yaw>
        <rollspeed>0</rollspeed>
        <pitchspeed>0</pitchspeed>
        <yawspeed>0</yawspeed>
      </mission_attitude>
    </posture>
    <posture>
      <time>2017-02-21T12:35:13.9568749+08:00</time>
      <mission_attitude>
        <time_boot_ms>154540000</time_boot_ms>
        <roll>-0.0139626339</roll>
        <pitch>-0.0750491545</pitch>
        <yaw>1.58824956</yaw>
        <rollspeed>0</rollspeed>
        <pitchspeed>0</pitchspeed>
        <yawspeed>0</yawspeed>
      </mission_attitude>
    </posture>
    <posture>
      <time>2017-02-21T12:35:14.9069293+08:00</time>
      <mission_attitude>
        <time_boot_ms>155540000</time_boot_ms>
        <roll>-0.0139626339</roll>
        <pitch>-0.0750491545</pitch>
        <yaw>1.58824956</yaw>
        <rollspeed>0</rollspeed>
        <pitchspeed>0</pitchspeed>
        <yawspeed>0</yawspeed>
      </mission_attitude>
    </posture>
    <posture>
      <time>2017-02-21T12:35:15.9069865+08:00</time>
      <mission_attitude>
        <time_boot_ms>156520000</time_boot_ms>
        <roll>-0.0139626339</roll>
        <pitch>-0.0733038262</pitch>
        <yaw>1.62315619</yaw>
        <rollspeed>0</rollspeed>
        <pitchspeed>0</pitchspeed>
        <yawspeed>0</yawspeed>
      </mission_attitude>
    </posture>
    <posture>
      <time>2017-02-21T12:35:16.9070437+08:00</time>
      <mission_attitude>
        <time_boot_ms>157500000</time_boot_ms>
        <roll>-0.0139626339</roll>
        <pitch>-0.0733038262</pitch>
        <yaw>1.62315619</yaw>
        <rollspeed>0</rollspeed>
        <pitchspeed>0</pitchspeed>
        <yawspeed>0</yawspeed>
      </mission_attitude>
    </posture>
    <posture>
      <time>2017-02-21T12:35:17.9571037+08:00</time>
      <mission_attitude>
        <time_boot_ms>158500000</time_boot_ms>
        <roll>-0.0139626339</roll>
        <pitch>-0.0733038262</pitch>
        <yaw>1.60570288</yaw>
        <rollspeed>0</rollspeed>
        <pitchspeed>0</pitchspeed>
        <yawspeed>0</yawspeed>
      </mission_attitude>
    </posture>
    <posture>
      <time>2017-02-21T12:35:18.9071581+08:00</time>
      <mission_attitude>
        <time_boot_ms>159520000</time_boot_ms>
        <roll>-0.0139626339</roll>
        <pitch>-0.0733038262</pitch>
        <yaw>1.60570288</yaw>
        <rollspeed>0</rollspeed>
        <pitchspeed>0</pitchspeed>
        <yawspeed>0</yawspeed>
      </mission_attitude>
    </posture>
    <posture>
      <time>2017-02-21T12:35:19.9572181+08:00</time>
      <mission_attitude>
        <time_boot_ms>160500000</time_boot_ms>
        <roll>-0.0139626339</roll>
        <pitch>-0.0733038262</pitch>
        <yaw>1.65806282</yaw>
        <rollspeed>0</rollspeed>
        <pitchspeed>0</pitchspeed>
        <yawspeed>0</yawspeed>
      </mission_attitude>
    </posture>
    <posture>
      <time>2017-02-21T12:35:20.9572753+08:00</time>
      <mission_attitude>
        <time_boot_ms>161500000</time_boot_ms>
        <roll>-0.0139626339</roll>
        <pitch>-0.0733038262</pitch>
        <yaw>1.74532926</yaw>
        <rollspeed>0</rollspeed>
        <pitchspeed>0</pitchspeed>
        <yawspeed>0</yawspeed>
      </mission_attitude>
    </posture>
    <posture>
      <time>2017-02-21T12:35:21.9073297+08:00</time>
      <mission_attitude>
        <time_boot_ms>162500000</time_boot_ms>
        <roll>-0.0139626339</roll>
        <pitch>-0.0733038262</pitch>
        <yaw>1.74532926</yaw>
        <rollspeed>0</rollspeed>
        <pitchspeed>0</pitchspeed>
        <yawspeed>0</yawspeed>
      </mission_attitude>
    </posture>
    <posture>
      <time>2017-02-21T12:35:22.9573897+08:00</time>
      <mission_attitude>
        <time_boot_ms>163500000</time_boot_ms>
        <roll>-0.0139626339</roll>
        <pitch>-0.0733038262</pitch>
        <yaw>1.727876</yaw>
        <rollspeed>0</rollspeed>
        <pitchspeed>0</pitchspeed>
        <yawspeed>0</yawspeed>
      </mission_attitude>
    </posture>
    <posture>
      <time>2017-02-21T12:35:23.9574469+08:00</time>
      <mission_attitude>
        <time_boot_ms>164500000</time_boot_ms>
        <roll>-0.0139626339</roll>
        <pitch>-0.0733038262</pitch>
        <yaw>1.74532926</yaw>
        <rollspeed>0</rollspeed>
        <pitchspeed>0</pitchspeed>
        <yawspeed>0</yawspeed>
      </mission_attitude>
    </posture>
    <posture>
      <time>2017-02-21T12:35:24.9575041+08:00</time>
      <mission_attitude>
        <time_boot_ms>165500000</time_boot_ms>
        <roll>-0.0139626339</roll>
        <pitch>-0.0733038262</pitch>
        <yaw>1.675516</yaw>
        <rollspeed>0</rollspeed>
        <pitchspeed>0</pitchspeed>
        <yawspeed>0</yawspeed>
      </mission_attitude>
    </posture>
    <posture>
      <time>2017-02-21T12:35:25.9575613+08:00</time>
      <mission_attitude>
        <time_boot_ms>166500000</time_boot_ms>
        <roll>-0.0139626339</roll>
        <pitch>-0.0733038262</pitch>
        <yaw>1.78023577</yaw>
        <rollspeed>0</rollspeed>
        <pitchspeed>0</pitchspeed>
        <yawspeed>0</yawspeed>
      </mission_attitude>
    </posture>
    <posture>
      <time>2017-02-21T12:35:26.9576185+08:00</time>
      <mission_attitude>
        <time_boot_ms>167500000</time_boot_ms>
        <roll>-0.0139626339</roll>
        <pitch>-0.0733038262</pitch>
        <yaw>1.972222</yaw>
        <rollspeed>0</rollspeed>
        <pitchspeed>0</pitchspeed>
        <yawspeed>0</yawspeed>
      </mission_attitude>
    </posture>
    <posture>
      <time>2017-02-21T12:35:30.9568473+08:00</time>
      <mission_attitude>
        <time_boot_ms>171480000</time_boot_ms>
        <roll>-0.0139626339</roll>
        <pitch>-0.0733038262</pitch>
        <yaw>2.25147462</yaw>
        <rollspeed>0</rollspeed>
        <pitchspeed>0</pitchspeed>
        <yawspeed>0</yawspeed>
      </mission_attitude>
    </posture>
    <posture>
      <time>2017-02-21T12:35:34.0570246+08:00</time>
      <mission_attitude>
        <time_boot_ms>174480000</time_boot_ms>
        <roll>-0.0139626339</roll>
        <pitch>-0.0733038262</pitch>
        <yaw>2.443461</yaw>
        <rollspeed>0</rollspeed>
        <pitchspeed>0</pitchspeed>
        <yawspeed>0</yawspeed>
      </mission_attitude>
    </posture>
    <posture>
      <time>2017-02-21T12:35:35.0570818+08:00</time>
      <mission_attitude>
        <time_boot_ms>175500000</time_boot_ms>
        <roll>-0.0139626339</roll>
        <pitch>-0.0733038262</pitch>
        <yaw>2.37364769</yaw>
        <rollspeed>0</rollspeed>
        <pitchspeed>0</pitchspeed>
        <yawspeed>0</yawspeed>
      </mission_attitude>
    </posture>
    <posture>
      <time>2017-02-21T12:35:36.057139+08:00</time>
      <mission_attitude>
        <time_boot_ms>176500000</time_boot_ms>
        <roll>-0.0139626339</roll>
        <pitch>-0.0733038262</pitch>
        <yaw>2.3561945</yaw>
        <rollspeed>0</rollspeed>
        <pitchspeed>0</pitchspeed>
        <yawspeed>0</yawspeed>
      </mission_attitude>
    </posture>
  </listposture>
  <listsysstatus>
    <sysstatus>
      <time>2017-02-21T12:32:39.9570666+08:00</time>
      <mission_sysstatus>
        <onboard_control_sensors_present>0</onboard_control_sensors_present>
        <onboard_control_sensors_enabled>0</onboard_control_sensors_enabled>
        <onboard_control_sensors_health>0</onboard_control_sensors_health>
        <load>0</load>
        <voltage_battery>1507</voltage_battery>
        <current_battery>4867</current_battery>
        <drop_rate_comm>0</drop_rate_comm>
        <errors_comm>0</errors_comm>
        <errors_count1>4</errors_count1>
        <errors_count2>0</errors_count2>
        <errors_count3>6000</errors_count3>
        <errors_count4>0</errors_count4>
        <battery_remaining>255</battery_remaining>
      </mission_sysstatus>
    </sysstatus>
    <sysstatus>
      <time>2017-02-21T12:32:40.9571238+08:00</time>
      <mission_sysstatus>
        <onboard_control_sensors_present>0</onboard_control_sensors_present>
        <onboard_control_sensors_enabled>0</onboard_control_sensors_enabled>
        <onboard_control_sensors_health>0</onboard_control_sensors_health>
        <load>0</load>
        <voltage_battery>1508</voltage_battery>
        <current_battery>4877</current_battery>
        <drop_rate_comm>0</drop_rate_comm>
        <errors_comm>0</errors_comm>
        <errors_count1>2</errors_count1>
        <errors_count2>0</errors_count2>
        <errors_count3>6000</errors_count3>
        <errors_count4>0</errors_count4>
        <battery_remaining>255</battery_remaining>
      </mission_sysstatus>
    </sysstatus>
    <sysstatus>
      <time>2017-02-21T12:32:44.7073383+08:00</time>
      <mission_sysstatus>
        <onboard_control_sensors_present>0</onboard_control_sensors_present>
        <onboard_control_sensors_enabled>0</onboard_control_sensors_enabled>
        <onboard_control_sensors_health>0</onboard_control_sensors_health>
        <load>0</load>
        <voltage_battery>1507</voltage_battery>
        <current_battery>4874</current_battery>
        <drop_rate_comm>0</drop_rate_comm>
        <errors_comm>0</errors_comm>
        <errors_count1>2</errors_count1>
        <errors_count2>6</errors_count2>
        <errors_count3>6000</errors_count3>
        <errors_count4>0</errors_count4>
        <battery_remaining>0</battery_remaining>
      </mission_sysstatus>
    </sysstatus>
    <sysstatus>
      <time>2017-02-21T12:32:45.7073955+08:00</time>
      <mission_sysstatus>
        <onboard_control_sensors_present>0</onboard_control_sensors_present>
        <onboard_control_sensors_enabled>0</onboard_control_sensors_enabled>
        <onboard_control_sensors_health>0</onboard_control_sensors_health>
        <load>0</load>
        <voltage_battery>1507</voltage_battery>
        <current_battery>4886</current_battery>
        <drop_rate_comm>0</drop_rate_comm>
        <errors_comm>0</errors_comm>
        <errors_count1>2</errors_count1>
        <errors_count2>14</errors_count2>
        <errors_count3>6000</errors_count3>
        <errors_count4>0</errors_count4>
        <battery_remaining>0</battery_remaining>
      </mission_sysstatus>
    </sysstatus>
    <sysstatus>
      <time>2017-02-21T12:32:46.7074527+08:00</time>
      <mission_sysstatus>
        <onboard_control_sensors_present>0</onboard_control_sensors_present>
        <onboard_control_sensors_enabled>0</onboard_control_sensors_enabled>
        <onboard_control_sensors_health>0</onboard_control_sensors_health>
        <load>0</load>
        <voltage_battery>1508</voltage_battery>
        <current_battery>4894</current_battery>
        <drop_rate_comm>0</drop_rate_comm>
        <errors_comm>0</errors_comm>
        <errors_count1>2</errors_count1>
        <errors_count2>65502</errors_count2>
        <errors_count3>6000</errors_count3>
        <errors_count4>0</errors_count4>
        <battery_remaining>0</battery_remaining>
      </mission_sysstatus>
    </sysstatus>
    <sysstatus>
      <time>2017-02-21T12:32:47.7075099+08:00</time>
      <mission_sysstatus>
        <onboard_control_sensors_present>0</onboard_control_sensors_present>
        <onboard_control_sensors_enabled>0</onboard_control_sensors_enabled>
        <onboard_control_sensors_health>0</onboard_control_sensors_health>
        <load>0</load>
        <voltage_battery>1508</voltage_battery>
        <current_battery>4901</current_battery>
        <drop_rate_comm>0</drop_rate_comm>
        <errors_comm>0</errors_comm>
        <errors_count1>2</errors_count1>
        <errors_count2>65520</errors_count2>
        <errors_count3>6000</errors_count3>
        <errors_count4>0</errors_count4>
        <battery_remaining>0</battery_remaining>
      </mission_sysstatus>
    </sysstatus>
    <sysstatus>
      <time>2017-02-21T12:32:48.7075671+08:00</time>
      <mission_sysstatus>
        <onboard_control_sensors_present>0</onboard_control_sensors_present>
        <onboard_control_sensors_enabled>0</onboard_control_sensors_enabled>
        <onboard_control_sensors_health>0</onboard_control_sensors_health>
        <load>0</load>
        <voltage_battery>1507</voltage_battery>
        <current_battery>4905</current_battery>
        <drop_rate_comm>0</drop_rate_comm>
        <errors_comm>0</errors_comm>
        <errors_count1>2</errors_count1>
        <errors_count2>24</errors_count2>
        <errors_count3>6000</errors_count3>
        <errors_count4>0</errors_count4>
        <battery_remaining>0</battery_remaining>
      </mission_sysstatus>
    </sysstatus>
    <sysstatus>
      <time>2017-02-21T12:32:49.7076243+08:00</time>
      <mission_sysstatus>
        <onboard_control_sensors_present>0</onboard_control_sensors_present>
        <onboard_control_sensors_enabled>0</onboard_control_sensors_enabled>
        <onboard_control_sensors_health>0</onboard_control_sensors_health>
        <load>0</load>
        <voltage_battery>1507</voltage_battery>
        <current_battery>4894</current_battery>
        <drop_rate_comm>0</drop_rate_comm>
        <errors_comm>0</errors_comm>
        <errors_count1>2</errors_count1>
        <errors_count2>2</errors_count2>
        <errors_count3>6000</errors_count3>
        <errors_count4>0</errors_count4>
        <battery_remaining>0</battery_remaining>
      </mission_sysstatus>
    </sysstatus>
    <sysstatus>
