<?xml version="1.0" encoding="utf-8"?>
<SerializeDataClass xmlns:xsi="http://www.w3.org/2001/XMLSchema-instance" xmlns:xsd="http://www.w3.org/2001/XMLSchema">
  <listposture>
    <posture>
      <time>2017-11-16T15:01:28.722474+08:00</time>
      <mission_attitude>
        <time_boot_ms>78320000</time_boot_ms>
        <roll>-0.050614547</roll>
        <pitch>-0.1675516</pitch>
        <yaw>1.69296932</yaw>
        <rollspeed>0</rollspeed>
        <pitchspeed>0</pitchspeed>
        <yawspeed>0</yawspeed>
      </mission_attitude>
    </posture>
    <posture>
      <time>2017-11-16T15:01:29.8215369+08:00</time>
      <mission_attitude>
        <time_boot_ms>79400000</time_boot_ms>
        <roll>-0.050614547</roll>
        <pitch>-0.1675516</pitch>
        <yaw>1.69296932</yaw>
        <rollspeed>0</rollspeed>
        <pitchspeed>0</pitchspeed>
        <yawspeed>0</yawspeed>
      </mission_attitude>
    </posture>
    <posture>
      <time>2017-11-16T15:01:30.8715969+08:00</time>
      <mission_attitude>
        <time_boot_ms>80420000</time_boot_ms>
        <roll>-0.04886922</roll>
        <pitch>-0.1675516</pitch>
        <yaw>1.69296932</yaw>
        <rollspeed>0</rollspeed>
        <pitchspeed>0</pitchspeed>
        <yawspeed>0</yawspeed>
      </mission_attitude>
    </posture>
    <posture>
      <time>2017-11-16T15:01:31.8716541+08:00</time>
      <mission_attitude>
        <time_boot_ms>81440000</time_boot_ms>
        <roll>-0.050614547</roll>
        <pitch>-0.1675516</pitch>
        <yaw>1.69296932</yaw>
        <rollspeed>0</rollspeed>
        <pitchspeed>0</pitchspeed>
        <yawspeed>0</yawspeed>
      </mission_attitude>
    </posture>
    <posture>
      <time>2017-11-16T15:01:32.8717113+08:00</time>
      <mission_attitude>
        <time_boot_ms>82440000</time_boot_ms>
        <roll>-0.050614547</roll>
        <pitch>-0.1675516</pitch>
        <yaw>1.69296932</yaw>
        <rollspeed>0</rollspeed>
        <pitchspeed>0</pitchspeed>
        <yawspeed>0</yawspeed>
      </mission_attitude>
    </posture>
    <posture>
      <time>2017-11-16T15:01:33.8717685+08:00</time>
      <mission_attitude>
        <time_boot_ms>83440000</time_boot_ms>
        <roll>-0.050614547</roll>
        <pitch>-0.1675516</pitch>
        <yaw>1.69296932</yaw>
        <rollspeed>0</rollspeed>
        <pitchspeed>0</pitchspeed>
        <yawspeed>0</yawspeed>
      </mission_attitude>
    </posture>
    <posture>
      <time>2017-11-16T15:01:34.8718257+08:00</time>
      <mission_attitude>
        <time_boot_ms>84440000</time_boot_ms>
        <roll>-0.0523598753</roll>
        <pitch>-0.1675516</pitch>
        <yaw>1.69296932</yaw>
        <rollspeed>0</rollspeed>
        <pitchspeed>0</pitchspeed>
        <yawspeed>0</yawspeed>
      </mission_attitude>
    </posture>
    <posture>
      <time>2017-11-16T15:01:35.8718829+08:00</time>
      <mission_attitude>
        <time_boot_ms>85440000</time_boot_ms>
        <roll>-0.050614547</roll>
        <pitch>-0.1675516</pitch>
        <yaw>1.69296932</yaw>
        <rollspeed>0.0174532924</rollspeed>
        <pitchspeed>0</pitchspeed>
        <yawspeed>0</yawspeed>
      </mission_attitude>
    </posture>
    <posture>
      <time>2017-11-16T15:01:36.8719401+08:00</time>
      <mission_attitude>
        <time_boot_ms>86440000</time_boot_ms>
        <roll>-0.0523598753</roll>
        <pitch>-0.1675516</pitch>
        <yaw>1.675516</yaw>
        <rollspeed>0</rollspeed>
        <pitchspeed>0</pitchspeed>
        <yawspeed>0</yawspeed>
      </mission_attitude>
    </posture>
    <posture>
      <time>2017-11-16T15:01:37.9220002+08:00</time>
      <mission_attitude>
        <time_boot_ms>87440000</time_boot_ms>
        <roll>-0.0523598753</roll>
        <pitch>-0.1675516</pitch>
        <yaw>1.69296932</yaw>
        <rollspeed>0</rollspeed>
        <pitchspeed>0</pitchspeed>
        <yawspeed>0</yawspeed>
      </mission_attitude>
    </posture>
    <posture>
      <time>2017-11-16T15:01:38.8720545+08:00</time>
      <mission_attitude>
        <time_boot_ms>88420000</time_boot_ms>
        <roll>-0.0523598753</roll>
        <pitch>-0.1675516</pitch>
        <yaw>1.69296932</yaw>
        <rollspeed>0</rollspeed>
        <pitchspeed>0</pitchspeed>
        <yawspeed>0</yawspeed>
      </mission_attitude>
    </posture>
    <posture>
      <time>2017-11-16T15:01:39.9211145+08:00</time>
      <mission_attitude>
        <time_boot_ms>89420000</time_boot_ms>
        <roll>-0.0523598753</roll>
        <pitch>-0.1675516</pitch>
        <yaw>1.69296932</yaw>
        <rollspeed>0</rollspeed>
        <pitchspeed>0</pitchspeed>
        <yawspeed>0</yawspeed>
      </mission_attitude>
    </posture>
    <posture>
      <time>2017-11-16T15:01:40.9211717+08:00</time>
      <mission_attitude>
        <time_boot_ms>90440000</time_boot_ms>
        <roll>-0.0523598753</roll>
        <pitch>-0.1675516</pitch>
        <yaw>1.69296932</yaw>
        <rollspeed>0</rollspeed>
        <pitchspeed>0</pitchspeed>
        <yawspeed>0</yawspeed>
      </mission_attitude>
    </posture>
    <posture>
      <time>2017-11-16T15:01:41.9212289+08:00</time>
      <mission_attitude>
        <time_boot_ms>91420000</time_boot_ms>
        <roll>-0.0523598753</roll>
        <pitch>-0.1675516</pitch>
        <yaw>1.69296932</yaw>
        <rollspeed>0</rollspeed>
        <pitchspeed>0</pitchspeed>
        <yawspeed>0</yawspeed>
      </mission_attitude>
    </posture>
    <posture>
      <time>2017-11-16T15:01:42.9212861+08:00</time>
      <mission_attitude>
        <time_boot_ms>92440000</time_boot_ms>
        <roll>-0.0523598753</roll>
        <pitch>-0.1675516</pitch>
        <yaw>1.69296932</yaw>
        <rollspeed>0</rollspeed>
        <pitchspeed>0</pitchspeed>
        <yawspeed>0</yawspeed>
      </mission_attitude>
    </posture>
    <posture>
      <time>2017-11-16T15:01:43.9213433+08:00</time>
      <mission_attitude>
        <time_boot_ms>93440000</time_boot_ms>
        <roll>-0.0523598753</roll>
        <pitch>-0.1675516</pitch>
        <yaw>1.69296932</yaw>
        <rollspeed>0</rollspeed>
        <pitchspeed>0</pitchspeed>
        <yawspeed>0</yawspeed>
      </mission_attitude>
    </posture>
    <posture>
      <time>2017-11-16T15:01:44.9214005+08:00</time>
      <mission_attitude>
        <time_boot_ms>94440000</time_boot_ms>
        <roll>-0.050614547</roll>
        <pitch>-0.1675516</pitch>
        <yaw>1.69296932</yaw>
        <rollspeed>0.0174532924</rollspeed>
        <pitchspeed>0</pitchspeed>
        <yawspeed>0.0174532924</yawspeed>
      </mission_attitude>
    </posture>
    <posture>
      <time>2017-11-16T15:01:45.9214577+08:00</time>
      <mission_attitude>
        <time_boot_ms>95420000</time_boot_ms>
        <roll>-0.0523598753</roll>
        <pitch>-0.1675516</pitch>
        <yaw>1.69296932</yaw>
        <rollspeed>0</rollspeed>
        <pitchspeed>0</pitchspeed>
        <yawspeed>0</yawspeed>
      </mission_attitude>
    </posture>
    <posture>
      <time>2017-11-16T15:01:46.9215149+08:00</time>
      <mission_attitude>
        <time_boot_ms>96420000</time_boot_ms>
        <roll>-0.0523598753</roll>
        <pitch>-0.1675516</pitch>
        <yaw>1.69296932</yaw>
        <rollspeed>0</rollspeed>
        <pitchspeed>0</pitchspeed>
        <yawspeed>0</yawspeed>
      </mission_attitude>
    </posture>
    <posture>
      <time>2017-11-16T15:01:47.9215721+08:00</time>
      <mission_attitude>
        <time_boot_ms>97400000</time_boot_ms>
        <roll>-0.0523598753</roll>
        <pitch>-0.1675516</pitch>
        <yaw>1.69296932</yaw>
        <rollspeed>0</rollspeed>
        <pitchspeed>0</pitchspeed>
        <yawspeed>0</yawspeed>
      </mission_attitude>
    </posture>
    <posture>
      <time>2017-11-16T15:01:48.9216293+08:00</time>
      <mission_attitude>
        <time_boot_ms>98380000</time_boot_ms>
        <roll>-0.0523598753</roll>
        <pitch>-0.1675516</pitch>
        <yaw>1.69296932</yaw>
        <rollspeed>0</rollspeed>
        <pitchspeed>0</pitchspeed>
        <yawspeed>0</yawspeed>
      </mission_attitude>
    </posture>
    <posture>
      <time>2017-11-16T15:01:49.9216865+08:00</time>
      <mission_attitude>
        <time_boot_ms>99380000</time_boot_ms>
        <roll>-0.0523598753</roll>
        <pitch>-0.1675516</pitch>
        <yaw>1.69296932</yaw>
        <rollspeed>0</rollspeed>
        <pitchspeed>0</pitchspeed>
        <yawspeed>0</yawspeed>
      </mission_attitude>
    </posture>
    <posture>
      <time>2017-11-16T15:01:50.9217437+08:00</time>
      <mission_attitude>
        <time_boot_ms>100400000</time_boot_ms>
        <roll>-0.0523598753</roll>
        <pitch>-0.1675516</pitch>
        <yaw>1.69296932</yaw>
        <rollspeed>0</rollspeed>
        <pitchspeed>0</pitchspeed>
        <yawspeed>0</yawspeed>
      </mission_attitude>
    </posture>
    <posture>
      <time>2017-11-16T15:01:51.9218009+08:00</time>
      <mission_attitude>
        <time_boot_ms>101380000</time_boot_ms>
        <roll>-0.0523598753</roll>
        <pitch>-0.1675516</pitch>
        <yaw>1.69296932</yaw>
        <rollspeed>0</rollspeed>
        <pitchspeed>0</pitchspeed>
        <yawspeed>0</yawspeed>
      </mission_attitude>
    </posture>
    <posture>
      <time>2017-11-16T15:01:52.9218581+08:00</time>
      <mission_attitude>
        <time_boot_ms>102380000</time_boot_ms>
        <roll>-0.0523598753</roll>
        <pitch>-0.1675516</pitch>
        <yaw>1.69296932</yaw>
        <rollspeed>0</rollspeed>
        <pitchspeed>0</pitchspeed>
        <yawspeed>0</yawspeed>
      </mission_attitude>
    </posture>
    <posture>
      <time>2017-11-16T15:01:53.9219153+08:00</time>
      <mission_attitude>
        <time_boot_ms>103380000</time_boot_ms>
        <roll>-0.0523598753</roll>
        <pitch>-0.1675516</pitch>
        <yaw>1.69296932</yaw>
        <rollspeed>0</rollspeed>
        <pitchspeed>0</pitchspeed>
        <yawspeed>0</yawspeed>
      </mission_attitude>
    </posture>
    <posture>
      <time>2017-11-16T15:01:54.9219725+08:00</time>
      <mission_attitude>
        <time_boot_ms>104380000</time_boot_ms>
        <roll>-0.0523598753</roll>
        <pitch>-0.1675516</pitch>
        <yaw>1.69296932</yaw>
        <rollspeed>0</rollspeed>
        <pitchspeed>0</pitchspeed>
        <yawspeed>0</yawspeed>
      </mission_attitude>
    </posture>
    <posture>
      <time>2017-11-16T15:01:55.9220297+08:00</time>
      <mission_attitude>
        <time_boot_ms>105380000</time_boot_ms>
        <roll>-0.0523598753</roll>
        <pitch>-0.1675516</pitch>
        <yaw>1.69296932</yaw>
        <rollspeed>0</rollspeed>
        <pitchspeed>0</pitchspeed>
        <yawspeed>0</yawspeed>
      </mission_attitude>
    </posture>
    <posture>
      <time>2017-11-16T15:01:56.9210869+08:00</time>
      <mission_attitude>
        <time_boot_ms>106380000</time_boot_ms>
        <roll>-0.0523598753</roll>
        <pitch>-0.1675516</pitch>
        <yaw>1.69296932</yaw>
        <rollspeed>0</rollspeed>
        <pitchspeed>0</pitchspeed>
        <yawspeed>0</yawspeed>
      </mission_attitude>
    </posture>
    <posture>
      <time>2017-11-16T15:01:57.9711469+08:00</time>
      <mission_attitude>
        <time_boot_ms>107380000</time_boot_ms>
        <roll>-0.0523598753</roll>
        <pitch>-0.1675516</pitch>
        <yaw>1.69296932</yaw>
        <rollspeed>0</rollspeed>
        <pitchspeed>0</pitchspeed>
        <yawspeed>0</yawspeed>
      </mission_attitude>
    </posture>
    <posture>
      <time>2017-11-16T15:01:58.9212013+08:00</time>
      <mission_attitude>
        <time_boot_ms>108360000</time_boot_ms>
        <roll>-0.0523598753</roll>
        <pitch>-0.1675516</pitch>
        <yaw>1.69296932</yaw>
        <rollspeed>0</rollspeed>
        <pitchspeed>0</pitchspeed>
        <yawspeed>0</yawspeed>
      </mission_attitude>
    </posture>
    <posture>
      <time>2017-11-16T15:01:59.9212585+08:00</time>
      <mission_attitude>
        <time_boot_ms>109360000</time_boot_ms>
        <roll>-0.0523598753</roll>
        <pitch>-0.1675516</pitch>
        <yaw>1.69296932</yaw>
        <rollspeed>0</rollspeed>
        <pitchspeed>0</pitchspeed>
        <yawspeed>0.0174532924</yawspeed>
      </mission_attitude>
    </posture>
    <posture>
      <time>2017-11-16T15:02:00.9713185+08:00</time>
      <mission_attitude>
        <time_boot_ms>110380000</time_boot_ms>
        <roll>-0.0523598753</roll>
        <pitch>-0.1675516</pitch>
        <yaw>1.69296932</yaw>
        <rollspeed>0</rollspeed>
        <pitchspeed>0</pitchspeed>
        <yawspeed>0</yawspeed>
      </mission_attitude>
    </posture>
    <posture>
      <time>2017-11-16T15:02:01.9213729+08:00</time>
      <mission_attitude>
        <time_boot_ms>111360000</time_boot_ms>
        <roll>-0.0523598753</roll>
        <pitch>-0.1675516</pitch>
        <yaw>1.69296932</yaw>
        <rollspeed>0</rollspeed>
        <pitchspeed>0</pitchspeed>
        <yawspeed>0</yawspeed>
      </mission_attitude>
    </posture>
    <posture>
      <time>2017-11-16T15:02:02.9714329+08:00</time>
      <mission_attitude>
        <time_boot_ms>112360000</time_boot_ms>
        <roll>-0.0523598753</roll>
        <pitch>-0.1675516</pitch>
        <yaw>1.69296932</yaw>
        <rollspeed>0</rollspeed>
        <pitchspeed>0</pitchspeed>
        <yawspeed>0</yawspeed>
      </mission_attitude>
    </posture>
    <posture>
      <time>2017-11-16T15:02:03.9714901+08:00</time>
      <mission_attitude>
        <time_boot_ms>113360000</time_boot_ms>
        <roll>-0.0523598753</roll>
        <pitch>-0.1675516</pitch>
        <yaw>1.69296932</yaw>
        <rollspeed>0</rollspeed>
        <pitchspeed>0</pitchspeed>
        <yawspeed>0</yawspeed>
      </mission_attitude>
    </posture>
    <posture>
      <time>2017-11-16T15:02:04.9715473+08:00</time>
      <mission_attitude>
        <time_boot_ms>114360000</time_boot_ms>
        <roll>-0.0523598753</roll>
        <pitch>-0.1675516</pitch>
        <yaw>1.69296932</yaw>
        <rollspeed>0</rollspeed>
        <pitchspeed>0</pitchspeed>
        <yawspeed>0</yawspeed>
      </mission_attitude>
    </posture>
    <posture>
      <time>2017-11-16T15:02:05.9716045+08:00</time>
      <mission_attitude>
        <time_boot_ms>115360000</time_boot_ms>
        <roll>-0.0523598753</roll>
        <pitch>-0.1675516</pitch>
        <yaw>1.69296932</yaw>
        <rollspeed>0</rollspeed>
        <pitchspeed>0</pitchspeed>
        <yawspeed>0</yawspeed>
      </mission_attitude>
    </posture>
    <posture>
      <time>2017-11-16T15:02:06.9716617+08:00</time>
      <mission_attitude>
        <time_boot_ms>116360000</time_boot_ms>
        <roll>-0.0523598753</roll>
        <pitch>-0.1675516</pitch>
        <yaw>1.69296932</yaw>
        <rollspeed>0</rollspeed>
        <pitchspeed>0</pitchspeed>
        <yawspeed>0</yawspeed>
      </mission_attitude>
    </posture>
    <posture>
      <time>2017-11-16T15:02:07.9717189+08:00</time>
      <mission_attitude>
        <time_boot_ms>117360000</time_boot_ms>
        <roll>-0.0523598753</roll>
        <pitch>-0.1675516</pitch>
        <yaw>1.69296932</yaw>
        <rollspeed>0</rollspeed>
        <pitchspeed>0</pitchspeed>
        <yawspeed>0</yawspeed>
      </mission_attitude>
    </posture>
    <posture>
      <time>2017-11-16T15:02:08.9717761+08:00</time>
      <mission_attitude>
        <time_boot_ms>118340000</time_boot_ms>
        <roll>-0.0523598753</roll>
        <pitch>-0.169296935</pitch>
        <yaw>1.69296932</yaw>
        <rollspeed>0</rollspeed>
        <pitchspeed>0</pitchspeed>
        <yawspeed>0</yawspeed>
      </mission_attitude>
    </posture>
    <posture>
      <time>2017-11-16T15:02:09.9718333+08:00</time>
      <mission_attitude>
        <time_boot_ms>119340000</time_boot_ms>
        <roll>-0.0523598753</roll>
        <pitch>-0.169296935</pitch>
        <yaw>1.69296932</yaw>
        <rollspeed>0</rollspeed>
        <pitchspeed>0</pitchspeed>
        <yawspeed>0</yawspeed>
      </mission_attitude>
    </posture>
    <posture>
      <time>2017-11-16T15:02:11.0218934+08:00</time>
      <mission_attitude>
        <time_boot_ms>120380000</time_boot_ms>
        <roll>-0.0523598753</roll>
        <pitch>-0.169296935</pitch>
        <yaw>1.69296932</yaw>
        <rollspeed>0</rollspeed>
        <pitchspeed>0</pitchspeed>
        <yawspeed>0</yawspeed>
      </mission_attitude>
    </posture>
    <posture>
      <time>2017-11-16T15:02:12.0219506+08:00</time>
      <mission_attitude>
        <time_boot_ms>121380000</time_boot_ms>
        <roll>-0.0523598753</roll>
        <pitch>-0.1675516</pitch>
        <yaw>1.69296932</yaw>
        <rollspeed>0</rollspeed>
        <pitchspeed>0</pitchspeed>
        <yawspeed>0</yawspeed>
      </mission_attitude>
    </posture>
    <posture>
      <time>2017-11-16T15:02:13.0220078+08:00</time>
      <mission_attitude>
        <time_boot_ms>122380000</time_boot_ms>
        <roll>-0.0523598753</roll>
        <pitch>-0.1675516</pitch>
        <yaw>1.69296932</yaw>
        <rollspeed>0</rollspeed>
        <pitchspeed>0</pitchspeed>
        <yawspeed>0</yawspeed>
      </mission_attitude>
    </posture>
    <posture>
      <time>2017-11-16T15:02:14.022065+08:00</time>
      <mission_attitude>
        <time_boot_ms>123380000</time_boot_ms>
        <roll>-0.0523598753</roll>
        <pitch>-0.1675516</pitch>
        <yaw>1.69296932</yaw>
        <rollspeed>0</rollspeed>
        <pitchspeed>0</pitchspeed>
        <yawspeed>0</yawspeed>
      </mission_attitude>
    </posture>
    <posture>
      <time>2017-11-16T15:02:15.0211221+08:00</time>
      <mission_attitude>
        <time_boot_ms>124380000</time_boot_ms>
        <roll>-0.0523598753</roll>
        <pitch>-0.1675516</pitch>
        <yaw>1.69296932</yaw>
        <rollspeed>0</rollspeed>
        <pitchspeed>0</pitchspeed>
        <yawspeed>0</yawspeed>
      </mission_attitude>
    </posture>
    <posture>
      <time>2017-11-16T15:02:16.0211793+08:00</time>
      <mission_attitude>
        <time_boot_ms>125380000</time_boot_ms>
        <roll>-0.0523598753</roll>
        <pitch>-0.1675516</pitch>
        <yaw>1.69296932</yaw>
        <rollspeed>0</rollspeed>
        <pitchspeed>0</pitchspeed>
        <yawspeed>0</yawspeed>
      </mission_attitude>
    </posture>
    <posture>
      <time>2017-11-16T15:02:17.0712394+08:00</time>
      <mission_attitude>
        <time_boot_ms>126380000</time_boot_ms>
        <roll>-0.0523598753</roll>
        <pitch>-0.1675516</pitch>
        <yaw>1.675516</yaw>
        <rollspeed>0</rollspeed>
        <pitchspeed>0</pitchspeed>
        <yawspeed>0</yawspeed>
      </mission_attitude>
    </posture>
    <posture>
      <time>2017-11-16T15:02:18.0712966+08:00</time>
      <mission_attitude>
        <time_boot_ms>127380000</time_boot_ms>
        <roll>-0.0523598753</roll>
        <pitch>-0.169296935</pitch>
        <yaw>1.69296932</yaw>
        <rollspeed>0</rollspeed>
        <pitchspeed>0</pitchspeed>
        <yawspeed>0</yawspeed>
      </mission_attitude>
    </posture>
    <posture>
      <time>2017-11-16T15:02:19.0713538+08:00</time>
      <mission_attitude>
        <time_boot_ms>128380000</time_boot_ms>
        <roll>-0.0523598753</roll>
        <pitch>-0.169296935</pitch>
        <yaw>1.69296932</yaw>
        <rollspeed>0</rollspeed>
        <pitchspeed>0</pitchspeed>
        <yawspeed>0</yawspeed>
      </mission_attitude>
    </posture>
    <posture>
      <time>2017-11-16T15:02:20.071411+08:00</time>
      <mission_attitude>
        <time_boot_ms>129380000</time_boot_ms>
        <roll>-0.0523598753</roll>
        <pitch>-0.1675516</pitch>
        <yaw>1.69296932</yaw>
        <rollspeed>0</rollspeed>
        <pitchspeed>0</pitchspeed>
        <yawspeed>0</yawspeed>
      </mission_attitude>
    </posture>
    <posture>
      <time>2017-11-16T15:02:21.0714682+08:00</time>
      <mission_attitude>
        <time_boot_ms>130380000</time_boot_ms>
        <roll>-0.0523598753</roll>
        <pitch>-0.1675516</pitch>
        <yaw>1.69296932</yaw>
        <rollspeed>0</rollspeed>
        <pitchspeed>0</pitchspeed>
        <yawspeed>0</yawspeed>
      </mission_attitude>
    </posture>
    <posture>
      <time>2017-11-16T15:02:22.0715254+08:00</time>
      <mission_attitude>
        <time_boot_ms>131380000</time_boot_ms>
        <roll>-0.0523598753</roll>
        <pitch>-0.1675516</pitch>
        <yaw>1.69296932</yaw>
        <rollspeed>0</rollspeed>
        <pitchspeed>0</pitchspeed>
        <yawspeed>0</yawspeed>
      </mission_attitude>
    </posture>
    <posture>
      <time>2017-11-16T15:02:23.1715883+08:00</time>
      <mission_attitude>
        <time_boot_ms>132500000</time_boot_ms>
        <roll>-0.0523598753</roll>
        <pitch>-0.1675516</pitch>
        <yaw>1.69296932</yaw>
        <rollspeed>0</rollspeed>
        <pitchspeed>0</pitchspeed>
        <yawspeed>0</yawspeed>
      </mission_attitude>
    </posture>
    <posture>
      <time>2017-11-16T15:02:24.2216484+08:00</time>
      <mission_attitude>
        <time_boot_ms>133500000</time_boot_ms>
        <roll>-0.0523598753</roll>
        <pitch>-0.1675516</pitch>
        <yaw>1.69296932</yaw>
        <rollspeed>0</rollspeed>
        <pitchspeed>0</pitchspeed>
        <yawspeed>0</yawspeed>
      </mission_attitude>
    </posture>
    <posture>
      <time>2017-11-16T15:02:25.1717027+08:00</time>
      <mission_attitude>
        <time_boot_ms>134500000</time_boot_ms>
        <roll>-0.0523598753</roll>
        <pitch>-0.1675516</pitch>
        <yaw>1.69296932</yaw>
        <rollspeed>-0.0174532924</rollspeed>
        <pitchspeed>0</pitchspeed>
        <yawspeed>0</yawspeed>
      </mission_attitude>
    </posture>
    <posture>
      <time>2017-11-16T15:02:26.1717599+08:00</time>
      <mission_attitude>
        <time_boot_ms>135480000</time_boot_ms>
        <roll>-0.0523598753</roll>
        <pitch>-0.1675516</pitch>
        <yaw>1.69296932</yaw>
        <rollspeed>0</rollspeed>
        <pitchspeed>0</pitchspeed>
        <yawspeed>0</yawspeed>
      </mission_attitude>
    </posture>
    <posture>
      <time>2017-11-16T15:02:27.1718171+08:00</time>
      <mission_attitude>
        <time_boot_ms>136480000</time_boot_ms>
        <roll>-0.0523598753</roll>
        <pitch>-0.169296935</pitch>
        <yaw>1.69296932</yaw>
        <rollspeed>0</rollspeed>
        <pitchspeed>0</pitchspeed>
        <yawspeed>0</yawspeed>
      </mission_attitude>
    </posture>
    <posture>
      <time>2017-11-16T15:02:28.1718743+08:00</time>
      <mission_attitude>
        <time_boot_ms>137460000</time_boot_ms>
        <roll>-0.0523598753</roll>
        <pitch>-0.169296935</pitch>
        <yaw>1.69296932</yaw>
        <rollspeed>0</rollspeed>
        <pitchspeed>0</pitchspeed>
        <yawspeed>0</yawspeed>
      </mission_attitude>
    </posture>
    <posture>
      <time>2017-11-16T15:02:29.1719315+08:00</time>
      <mission_attitude>
        <time_boot_ms>138440000</time_boot_ms>
        <roll>-0.0523598753</roll>
        <pitch>-0.169296935</pitch>
        <yaw>1.69296932</yaw>
        <rollspeed>0</rollspeed>
        <pitchspeed>0</pitchspeed>
        <yawspeed>0</yawspeed>
      </mission_attitude>
    </posture>
    <posture>
      <time>2017-11-16T15:02:30.1719887+08:00</time>
      <mission_attitude>
        <time_boot_ms>139440000</time_boot_ms>
        <roll>-0.0523598753</roll>
        <pitch>-0.1675516</pitch>
        <yaw>1.69296932</yaw>
        <rollspeed>0</rollspeed>
        <pitchspeed>0</pitchspeed>
        <yawspeed>0</yawspeed>
      </mission_attitude>
    </posture>
    <posture>
      <time>2017-11-16T15:02:31.2220488+08:00</time>
      <mission_attitude>
        <time_boot_ms>140460000</time_boot_ms>
        <roll>-0.0541052073</roll>
        <pitch>-0.1675516</pitch>
        <yaw>1.69296932</yaw>
        <rollspeed>0</rollspeed>
        <pitchspeed>0</pitchspeed>
        <yawspeed>0</yawspeed>
      </mission_attitude>
    </posture>
    <posture>
      <time>2017-11-16T15:02:32.1711031+08:00</time>
      <mission_attitude>
        <time_boot_ms>141440000</time_boot_ms>
        <roll>-0.0541052073</roll>
        <pitch>-0.1675516</pitch>
        <yaw>1.69296932</yaw>
        <rollspeed>0</rollspeed>
        <pitchspeed>0</pitchspeed>
        <yawspeed>0</yawspeed>
      </mission_attitude>
    </posture>
    <posture>
      <time>2017-11-16T15:02:33.1711603+08:00</time>
      <mission_attitude>
        <time_boot_ms>142440000</time_boot_ms>
        <roll>-0.0541052073</roll>
        <pitch>-0.1675516</pitch>
        <yaw>1.69296932</yaw>
        <rollspeed>0</rollspeed>
        <pitchspeed>0</pitchspeed>
        <yawspeed>0</yawspeed>
      </mission_attitude>
    </posture>
    <posture>
      <time>2017-11-16T15:02:34.1712175+08:00</time>
      <mission_attitude>
        <time_boot_ms>143440000</time_boot_ms>
        <roll>-0.0541052073</roll>
        <pitch>-0.1675516</pitch>
        <yaw>1.69296932</yaw>
        <rollspeed>0</rollspeed>
        <pitchspeed>0</pitchspeed>
        <yawspeed>0</yawspeed>
      </mission_attitude>
    </posture>
    <posture>
      <time>2017-11-16T15:02:35.2212775+08:00</time>
      <mission_attitude>
        <time_boot_ms>144440000</time_boot_ms>
        <roll>-0.0523598753</roll>
        <pitch>-0.169296935</pitch>
        <yaw>1.69296932</yaw>
        <rollspeed>0</rollspeed>
        <pitchspeed>0</pitchspeed>
        <yawspeed>0</yawspeed>
      </mission_attitude>
    </posture>
    <posture>
      <time>2017-11-16T15:02:36.1713319+08:00</time>
      <mission_attitude>
        <time_boot_ms>145440000</time_boot_ms>
        <roll>-0.0523598753</roll>
        <pitch>-0.169296935</pitch>
        <yaw>1.69296932</yaw>
        <rollspeed>0</rollspeed>
        <pitchspeed>0</pitchspeed>
        <yawspeed>0</yawspeed>
      </mission_attitude>
    </posture>
    <posture>
      <time>2017-11-16T15:02:37.1713891+08:00</time>
      <mission_attitude>
        <time_boot_ms>146420000</time_boot_ms>
        <roll>-0.0523598753</roll>
        <pitch>-0.169296935</pitch>
        <yaw>1.69296932</yaw>
        <rollspeed>0</rollspeed>
        <pitchspeed>0</pitchspeed>
        <yawspeed>0</yawspeed>
      </mission_attitude>
    </posture>
    <posture>
      <time>2017-11-16T15:02:38.1714463+08:00</time>
      <mission_attitude>
        <time_boot_ms>147420000</time_boot_ms>
        <roll>-0.0523598753</roll>
        <pitch>-0.1675516</pitch>
        <yaw>1.69296932</yaw>
        <rollspeed>0</rollspeed>
        <pitchspeed>0</pitchspeed>
        <yawspeed>0</yawspeed>
      </mission_attitude>
    </posture>
    <posture>
      <time>2017-11-16T15:02:39.1715035+08:00</time>
      <mission_attitude>
        <time_boot_ms>148420000</time_boot_ms>
        <roll>-0.0541052073</roll>
        <pitch>-0.1675516</pitch>
        <yaw>1.69296932</yaw>
        <rollspeed>0</rollspeed>
        <pitchspeed>0</pitchspeed>
        <yawspeed>0</yawspeed>
      </mission_attitude>
    </posture>
    <posture>
      <time>2017-11-16T15:02:40.2215635+08:00</time>
      <mission_attitude>
        <time_boot_ms>149420000</time_boot_ms>
        <roll>-0.0541052073</roll>
        <pitch>-0.1675516</pitch>
        <yaw>1.69296932</yaw>
        <rollspeed>0</rollspeed>
        <pitchspeed>0</pitchspeed>
        <yawspeed>0</yawspeed>
      </mission_attitude>
    </posture>
    <posture>
      <time>2017-11-16T15:02:41.2216207+08:00</time>
      <mission_attitude>
        <time_boot_ms>150440000</time_boot_ms>
        <roll>-0.0541052073</roll>
        <pitch>-0.1675516</pitch>
        <yaw>1.69296932</yaw>
        <rollspeed>0</rollspeed>
        <pitchspeed>0</pitchspeed>
        <yawspeed>0</yawspeed>
      </mission_attitude>
    </posture>
    <posture>
      <time>2017-11-16T15:02:42.2216779+08:00</time>
      <mission_attitude>
        <time_boot_ms>151420000</time_boot_ms>
        <roll>-0.0541052073</roll>
        <pitch>-0.1675516</pitch>
        <yaw>1.69296932</yaw>
        <rollspeed>0</rollspeed>
        <pitchspeed>0</pitchspeed>
        <yawspeed>0</yawspeed>
      </mission_attitude>
    </posture>
    <posture>
      <time>2017-11-16T15:02:43.2217351+08:00</time>
      <mission_attitude>
        <time_boot_ms>152420000</time_boot_ms>
        <roll>-0.0541052073</roll>
        <pitch>-0.1675516</pitch>
        <yaw>1.69296932</yaw>
        <rollspeed>0</rollspeed>
        <pitchspeed>0</pitchspeed>
        <yawspeed>0</yawspeed>
      </mission_attitude>
    </posture>
    <posture>
      <time>2017-11-16T15:02:44.1717895+08:00</time>
      <mission_attitude>
        <time_boot_ms>153400000</time_boot_ms>
        <roll>-0.0523598753</roll>
        <pitch>-0.169296935</pitch>
        <yaw>1.69296932</yaw>
        <rollspeed>0</rollspeed>
        <pitchspeed>0</pitchspeed>
        <yawspeed>0</yawspeed>
      </mission_attitude>
    </posture>
    <posture>
      <time>2017-11-16T15:02:45.2218495+08:00</time>
      <mission_attitude>
        <time_boot_ms>154400000</time_boot_ms>
        <roll>-0.0523598753</roll>
        <pitch>-0.169296935</pitch>
        <yaw>1.69296932</yaw>
        <rollspeed>0</rollspeed>
        <pitchspeed>0</pitchspeed>
        <yawspeed>0</yawspeed>
      </mission_attitude>
    </posture>
    <posture>
      <time>2017-11-16T15:02:46.2219067+08:00</time>
      <mission_attitude>
        <time_boot_ms>155420000</time_boot_ms>
        <roll>-0.0523598753</roll>
        <pitch>-0.169296935</pitch>
        <yaw>1.69296932</yaw>
        <rollspeed>0</rollspeed>
        <pitchspeed>0</pitchspeed>
        <yawspeed>0</yawspeed>
      </mission_attitude>
    </posture>
    <posture>
      <time>2017-11-16T15:02:47.2219639+08:00</time>
      <mission_attitude>
        <time_boot_ms>156400000</time_boot_ms>
        <roll>-0.0541052073</roll>
        <pitch>-0.169296935</pitch>
        <yaw>1.69296932</yaw>
        <rollspeed>0</rollspeed>
        <pitchspeed>0</pitchspeed>
        <yawspeed>0</yawspeed>
      </mission_attitude>
    </posture>
    <posture>
      <time>2017-11-16T15:02:48.2220211+08:00</time>
      <mission_attitude>
        <time_boot_ms>157400000</time_boot_ms>
        <roll>-0.0541052073</roll>
        <pitch>-0.1675516</pitch>
        <yaw>1.69296932</yaw>
        <rollspeed>0</rollspeed>
        <pitchspeed>0</pitchspeed>
        <yawspeed>0</yawspeed>
      </mission_attitude>
    </posture>
    <posture>
      <time>2017-11-16T15:02:49.2210783+08:00</time>
      <mission_attitude>
        <time_boot_ms>158400000</time_boot_ms>
        <roll>-0.0541052073</roll>
        <pitch>-0.1675516</pitch>
        <yaw>1.69296932</yaw>
        <rollspeed>0</rollspeed>
        <pitchspeed>0</pitchspeed>
        <yawspeed>0</yawspeed>
      </mission_attitude>
    </posture>
    <posture>
      <time>2017-11-16T15:02:50.2211355+08:00</time>
      <mission_attitude>
        <time_boot_ms>159400000</time_boot_ms>
        <roll>-0.0541052073</roll>
        <pitch>-0.1675516</pitch>
        <yaw>1.69296932</yaw>
        <rollspeed>0</rollspeed>
        <pitchspeed>0</pitchspeed>
        <yawspeed>0</yawspeed>
      </mission_attitude>
    </posture>
    <posture>
      <time>2017-11-16T15:02:51.2211927+08:00</time>
      <mission_attitude>
        <time_boot_ms>160400000</time_boot_ms>
        <roll>-0.0541052073</roll>
        <pitch>-0.169296935</pitch>
        <yaw>1.69296932</yaw>
        <rollspeed>0</rollspeed>
        <pitchspeed>0</pitchspeed>
        <yawspeed>0</yawspeed>
      </mission_attitude>
    </posture>
    <posture>
      <time>2017-11-16T15:02:52.2212499+08:00</time>
      <mission_attitude>
        <time_boot_ms>161400000</time_boot_ms>
        <roll>-0.0523598753</roll>
        <pitch>-0.169296935</pitch>
        <yaw>1.69296932</yaw>
        <rollspeed>0</rollspeed>
        <pitchspeed>0</pitchspeed>
        <yawspeed>0</yawspeed>
      </mission_attitude>
    </posture>
    <posture>
      <time>2017-11-16T15:02:53.2713099+08:00</time>
      <mission_attitude>
        <time_boot_ms>162400000</time_boot_ms>
        <roll>-0.0523598753</roll>
        <pitch>-0.169296935</pitch>
        <yaw>1.69296932</yaw>
        <rollspeed>0</rollspeed>
        <pitchspeed>0</pitchspeed>
        <yawspeed>0</yawspeed>
      </mission_attitude>
    </posture>
    <posture>
      <time>2017-11-16T15:02:54.2213643+08:00</time>
      <mission_attitude>
        <time_boot_ms>163380000</time_boot_ms>
        <roll>-0.0541052073</roll>
        <pitch>-0.169296935</pitch>
        <yaw>1.69296932</yaw>
        <rollspeed>0</rollspeed>
        <pitchspeed>0</pitchspeed>
        <yawspeed>0</yawspeed>
      </mission_attitude>
    </posture>
    <posture>
      <time>2017-11-16T15:02:55.2214215+08:00</time>
      <mission_attitude>
        <time_boot_ms>164380000</time_boot_ms>
        <roll>-0.0541052073</roll>
        <pitch>-0.169296935</pitch>
        <yaw>1.69296932</yaw>
        <rollspeed>0</rollspeed>
        <pitchspeed>0</pitchspeed>
        <yawspeed>0</yawspeed>
      </mission_attitude>
    </posture>
    <posture>
      <time>2017-11-16T15:02:56.2714815+08:00</time>
      <mission_attitude>
        <time_boot_ms>165400000</time_boot_ms>
        <roll>-0.0541052073</roll>
        <pitch>-0.1675516</pitch>
        <yaw>1.69296932</yaw>
        <rollspeed>0</rollspeed>
        <pitchspeed>0</pitchspeed>
        <yawspeed>0</yawspeed>
      </mission_attitude>
    </posture>
    <posture>
      <time>2017-11-16T15:02:57.2215359+08:00</time>
      <mission_attitude>
        <time_boot_ms>166380000</time_boot_ms>
        <roll>-0.0541052073</roll>
        <pitch>-0.1675516</pitch>
        <yaw>1.69296932</yaw>
        <rollspeed>0</rollspeed>
        <pitchspeed>0</pitchspeed>
        <yawspeed>0</yawspeed>
      </mission_attitude>
    </posture>
    <posture>
      <time>2017-11-16T15:02:58.2715959+08:00</time>
      <mission_attitude>
        <time_boot_ms>167380000</time_boot_ms>
        <roll>-0.0541052073</roll>
        <pitch>-0.1675516</pitch>
        <yaw>1.69296932</yaw>
        <rollspeed>0</rollspeed>
        <pitchspeed>0</pitchspeed>
        <yawspeed>0</yawspeed>
      </mission_attitude>
    </posture>
    <posture>
      <time>2017-11-16T15:02:59.2216503+08:00</time>
      <mission_attitude>
        <time_boot_ms>168380000</time_boot_ms>
        <roll>-0.0541052073</roll>
        <pitch>-0.1675516</pitch>
        <yaw>1.69296932</yaw>
        <rollspeed>0</rollspeed>
        <pitchspeed>0</pitchspeed>
        <yawspeed>0</yawspeed>
      </mission_attitude>
    </posture>
    <posture>
      <time>2017-11-16T15:03:00.2717103+08:00</time>
      <mission_attitude>
        <time_boot_ms>169380000</time_boot_ms>
        <roll>-0.0541052073</roll>
        <pitch>-0.169296935</pitch>
        <yaw>1.69296932</yaw>
        <rollspeed>0</rollspeed>
        <pitchspeed>0</pitchspeed>
        <yawspeed>0</yawspeed>
      </mission_attitude>
    </posture>
    <posture>
      <time>2017-11-16T15:03:01.2717675+08:00</time>
      <mission_attitude>
        <time_boot_ms>170380000</time_boot_ms>
        <roll>-0.0541052073</roll>
        <pitch>-0.169296935</pitch>
        <yaw>1.69296932</yaw>
        <rollspeed>0</rollspeed>
        <pitchspeed>0</pitchspeed>
        <yawspeed>0</yawspeed>
      </mission_attitude>
    </posture>
    <posture>
      <time>2017-11-16T15:03:02.2718247+08:00</time>
      <mission_attitude>
        <time_boot_ms>171380000</time_boot_ms>
        <roll>-0.0523598753</roll>
        <pitch>-0.169296935</pitch>
        <yaw>1.69296932</yaw>
        <rollspeed>0</rollspeed>
        <pitchspeed>0</pitchspeed>
        <yawspeed>0</yawspeed>
      </mission_attitude>
    </posture>
    <posture>
      <time>2017-11-16T15:03:03.2718819+08:00</time>
      <mission_attitude>
        <time_boot_ms>172380000</time_boot_ms>
        <roll>-0.0523598753</roll>
        <pitch>-0.1675516</pitch>
        <yaw>1.69296932</yaw>
        <rollspeed>0</rollspeed>
        <pitchspeed>0</pitchspeed>
        <yawspeed>0</yawspeed>
      </mission_attitude>
    </posture>
    <posture>
      <time>2017-11-16T15:03:04.2219363+08:00</time>
      <mission_attitude>
        <time_boot_ms>173360000</time_boot_ms>
        <roll>-0.0523598753</roll>
        <pitch>-0.169296935</pitch>
        <yaw>1.69296932</yaw>
        <rollspeed>0</rollspeed>
        <pitchspeed>0</pitchspeed>
        <yawspeed>0</yawspeed>
      </mission_attitude>
    </posture>
    <posture>
      <time>2017-11-16T15:03:05.2719963+08:00</time>
      <mission_attitude>
        <time_boot_ms>174360000</time_boot_ms>
        <roll>-0.0523598753</roll>
        <pitch>-0.1675516</pitch>
        <yaw>1.69296932</yaw>
        <rollspeed>0</rollspeed>
        <pitchspeed>0</pitchspeed>
        <yawspeed>0</yawspeed>
      </mission_attitude>
    </posture>
    <posture>
      <time>2017-11-16T15:03:06.2720535+08:00</time>
      <mission_attitude>
        <time_boot_ms>175380000</time_boot_ms>
        <roll>-0.0523598753</roll>
        <pitch>-0.1675516</pitch>
        <yaw>1.69296932</yaw>
        <rollspeed>0</rollspeed>
        <pitchspeed>0</pitchspeed>
        <yawspeed>0</yawspeed>
      </mission_attitude>
    </posture>
    <posture>
      <time>2017-11-16T15:03:07.2711107+08:00</time>
      <mission_attitude>
        <time_boot_ms>176360000</time_boot_ms>
        <roll>-0.0523598753</roll>
        <pitch>-0.1675516</pitch>
        <yaw>1.69296932</yaw>
        <rollspeed>0</rollspeed>
        <pitchspeed>0</pitchspeed>
        <yawspeed>0</yawspeed>
      </mission_attitude>
    </posture>
    <posture>
      <time>2017-11-16T15:03:08.2711679+08:00</time>
      <mission_attitude>
        <time_boot_ms>177360000</time_boot_ms>
        <roll>-0.0523598753</roll>
        <pitch>-0.1675516</pitch>
        <yaw>1.69296932</yaw>
        <rollspeed>0</rollspeed>
        <pitchspeed>0</pitchspeed>
        <yawspeed>0</yawspeed>
      </mission_attitude>
    </posture>
    <posture>
      <time>2017-11-16T15:03:09.2712251+08:00</time>
      <mission_attitude>
        <time_boot_ms>178360000</time_boot_ms>
        <roll>-0.0523598753</roll>
        <pitch>-0.169296935</pitch>
        <yaw>1.69296932</yaw>
        <rollspeed>0</rollspeed>
        <pitchspeed>0</pitchspeed>
        <yawspeed>0</yawspeed>
      </mission_attitude>
    </posture>
    <posture>
      <time>2017-11-16T15:03:10.3212851+08:00</time>
      <mission_attitude>
        <time_boot_ms>179360000</time_boot_ms>
        <roll>-0.0523598753</roll>
        <pitch>-0.169296935</pitch>
        <yaw>1.69296932</yaw>
        <rollspeed>0</rollspeed>
        <pitchspeed>0</pitchspeed>
        <yawspeed>0</yawspeed>
      </mission_attitude>
    </posture>
    <posture>
      <time>2017-11-16T15:03:11.2713395+08:00</time>
      <mission_attitude>
        <time_boot_ms>180340000</time_boot_ms>
        <roll>-0.0523598753</roll>
        <pitch>-0.169296935</pitch>
        <yaw>1.675516</yaw>
        <rollspeed>0</rollspeed>
        <pitchspeed>0</pitchspeed>
        <yawspeed>0</yawspeed>
      </mission_attitude>
    </posture>
    <posture>
      <time>2017-11-16T15:03:12.2713967+08:00</time>
      <mission_attitude>
        <time_boot_ms>181320000</time_boot_ms>
        <roll>-0.0523598753</roll>
        <pitch>-0.169296935</pitch>
        <yaw>1.69296932</yaw>
        <rollspeed>0</rollspeed>
        <pitchspeed>0</pitchspeed>
        <yawspeed>0</yawspeed>
      </mission_attitude>
    </posture>
    <posture>
      <time>2017-11-16T15:03:13.2714539+08:00</time>
      <mission_attitude>
        <time_boot_ms>182320000</time_boot_ms>
        <roll>-0.0523598753</roll>
        <pitch>-0.169296935</pitch>
        <yaw>1.69296932</yaw>
        <rollspeed>0</rollspeed>
        <pitchspeed>0</pitchspeed>
        <yawspeed>0</yawspeed>
      </mission_attitude>
    </posture>
    <posture>
      <time>2017-11-16T15:03:14.2215082+08:00</time>
      <mission_attitude>
        <time_boot_ms>183300000</time_boot_ms>
        <roll>-0.0523598753</roll>
        <pitch>-0.1675516</pitch>
        <yaw>1.69296932</yaw>
        <rollspeed>0</rollspeed>
        <pitchspeed>0</pitchspeed>
        <yawspeed>0</yawspeed>
      </mission_attitude>
    </posture>
    <posture>
      <time>2017-11-16T15:03:15.2715683+08:00</time>
      <mission_attitude>
        <time_boot_ms>184300000</time_boot_ms>
        <roll>-0.0523598753</roll>
        <pitch>-0.1675516</pitch>
        <yaw>1.69296932</yaw>
        <rollspeed>0</rollspeed>
        <pitchspeed>0</pitchspeed>
        <yawspeed>0</yawspeed>
      </mission_attitude>
    </posture>
    <posture>
      <time>2017-11-16T15:03:16.2216226+08:00</time>
      <mission_attitude>
        <time_boot_ms>185280000</time_boot_ms>
        <roll>-0.0523598753</roll>
        <pitch>-0.1675516</pitch>
        <yaw>1.69296932</yaw>
        <rollspeed>0</rollspeed>
        <pitchspeed>0</pitchspeed>
        <yawspeed>0</yawspeed>
      </mission_attitude>
    </posture>
    <posture>
      <time>2017-11-16T15:03:17.2216798+08:00</time>
      <mission_attitude>
        <time_boot_ms>186280000</time_boot_ms>
        <roll>-0.0523598753</roll>
        <pitch>-0.1675516</pitch>
        <yaw>1.69296932</yaw>
        <rollspeed>0</rollspeed>
        <pitchspeed>0</pitchspeed>
        <yawspeed>0</yawspeed>
      </mission_attitude>
    </posture>
    <posture>
      <time>2017-11-16T15:03:18.2717399+08:00</time>
      <mission_attitude>
        <time_boot_ms>187280000</time_boot_ms>
        <roll>-0.0523598753</roll>
        <pitch>-0.1675516</pitch>
        <yaw>1.69296932</yaw>
        <rollspeed>0</rollspeed>
        <pitchspeed>0</pitchspeed>
        <yawspeed>0</yawspeed>
      </mission_attitude>
    </posture>
    <posture>
      <time>2017-11-16T15:03:19.2217942+08:00</time>
      <mission_attitude>
        <time_boot_ms>188280000</time_boot_ms>
        <roll>-0.0523598753</roll>
        <pitch>-0.169296935</pitch>
        <yaw>1.69296932</yaw>
        <rollspeed>0</rollspeed>
        <pitchspeed>0</pitchspeed>
        <yawspeed>0</yawspeed>
      </mission_attitude>
    </posture>
    <posture>
      <time>2017-11-16T15:03:20.2718543+08:00</time>
      <mission_attitude>
        <time_boot_ms>189280000</time_boot_ms>
        <roll>-0.0523598753</roll>
        <pitch>-0.169296935</pitch>
        <yaw>1.69296932</yaw>
        <rollspeed>0</rollspeed>
        <pitchspeed>0</pitchspeed>
        <yawspeed>0</yawspeed>
      </mission_attitude>
    </posture>
    <posture>
      <time>2017-11-16T15:03:21.2719115+08:00</time>
      <mission_attitude>
        <time_boot_ms>190260000</time_boot_ms>
        <roll>-0.0523598753</roll>
        <pitch>-0.169296935</pitch>
        <yaw>1.69296932</yaw>
        <rollspeed>0</rollspeed>
        <pitchspeed>0</pitchspeed>
        <yawspeed>0</yawspeed>
      </mission_attitude>
    </posture>
    <posture>
      <time>2017-11-16T15:03:22.2719687+08:00</time>
      <mission_attitude>
        <time_boot_ms>191280000</time_boot_ms>
        <roll>-0.0523598753</roll>
        <pitch>-0.1675516</pitch>
        <yaw>1.69296932</yaw>
        <rollspeed>0</rollspeed>
        <pitchspeed>0</pitchspeed>
        <yawspeed>-0.0174532924</yawspeed>
      </mission_attitude>
    </posture>
    <posture>
      <time>2017-11-16T15:03:23.2720259+08:00</time>
      <mission_attitude>
        <time_boot_ms>192280000</time_boot_ms>
        <roll>-0.0541052073</roll>
        <pitch>-0.1675516</pitch>
        <yaw>1.69296932</yaw>
        <rollspeed>0</rollspeed>
        <pitchspeed>0</pitchspeed>
        <yawspeed>0</yawspeed>
      </mission_attitude>
    </posture>
    <posture>
      <time>2017-11-16T15:03:24.271083+08:00</time>
      <mission_attitude>
        <time_boot_ms>193280000</time_boot_ms>
        <roll>-0.0541052073</roll>
        <pitch>-0.169296935</pitch>
        <yaw>1.69296932</yaw>
        <rollspeed>0</rollspeed>
        <pitchspeed>0</pitchspeed>
        <yawspeed>0</yawspeed>
      </mission_attitude>
    </posture>
    <posture>
      <time>2017-11-16T15:03:25.2711402+08:00</time>
      <mission_attitude>
        <time_boot_ms>194280000</time_boot_ms>
        <roll>-0.0523598753</roll>
        <pitch>-0.171042264</pitch>
        <yaw>1.69296932</yaw>
        <rollspeed>0</rollspeed>
        <pitchspeed>0</pitchspeed>
        <yawspeed>0</yawspeed>
      </mission_attitude>
    </posture>
    <posture>
      <time>2017-11-16T15:03:26.2711974+08:00</time>
      <mission_attitude>
        <time_boot_ms>195260000</time_boot_ms>
        <roll>-0.050614547</roll>
        <pitch>-0.169296935</pitch>
        <yaw>1.69296932</yaw>
        <rollspeed>-0.0174532924</rollspeed>
        <pitchspeed>0</pitchspeed>
        <yawspeed>0</yawspeed>
      </mission_attitude>
    </posture>
    <posture>
      <time>2017-11-16T15:03:27.2712546+08:00</time>
      <mission_attitude>
        <time_boot_ms>196260000</time_boot_ms>
        <roll>-0.0523598753</roll>
        <pitch>-0.169296935</pitch>
        <yaw>1.69296932</yaw>
        <rollspeed>0</rollspeed>
        <pitchspeed>0</pitchspeed>
        <yawspeed>0</yawspeed>
      </mission_attitude>
    </posture>
    <posture>
      <time>2017-11-16T15:03:28.2713118+08:00</time>
      <mission_attitude>
        <time_boot_ms>197260000</time_boot_ms>
        <roll>-0.0523598753</roll>
        <pitch>-0.169296935</pitch>
        <yaw>1.675516</yaw>
        <rollspeed>0</rollspeed>
        <pitchspeed>0</pitchspeed>
        <yawspeed>0</yawspeed>
      </mission_attitude>
    </posture>
    <posture>
      <time>2017-11-16T15:03:29.271369+08:00</time>
      <mission_attitude>
        <time_boot_ms>198260000</time_boot_ms>
        <roll>-0.0523598753</roll>
        <pitch>-0.169296935</pitch>
        <yaw>1.69296932</yaw>
        <rollspeed>0</rollspeed>
        <pitchspeed>0</pitchspeed>
        <yawspeed>0</yawspeed>
      </mission_attitude>
    </posture>
    <posture>
      <time>2017-11-16T15:03:30.2714262+08:00</time>
      <mission_attitude>
        <time_boot_ms>199260000</time_boot_ms>
        <roll>-0.0541052073</roll>
        <pitch>-0.169296935</pitch>
        <yaw>1.69296932</yaw>
        <rollspeed>0</rollspeed>
        <pitchspeed>0</pitchspeed>
        <yawspeed>0</yawspeed>
      </mission_attitude>
    </posture>
    <posture>
      <time>2017-11-16T15:03:31.2714834+08:00</time>
      <mission_attitude>
        <time_boot_ms>200240000</time_boot_ms>
        <roll>-0.0523598753</roll>
        <pitch>-0.169296935</pitch>
        <yaw>1.69296932</yaw>
        <rollspeed>0</rollspeed>
        <pitchspeed>0</pitchspeed>
        <yawspeed>0</yawspeed>
      </mission_attitude>
    </posture>
    <posture>
      <time>2017-11-16T15:03:32.2715406+08:00</time>
      <mission_attitude>
        <time_boot_ms>201260000</time_boot_ms>
        <roll>-0.0541052073</roll>
        <pitch>-0.169296935</pitch>
        <yaw>1.69296932</yaw>
        <rollspeed>0</rollspeed>
        <pitchspeed>0</pitchspeed>
        <yawspeed>0</yawspeed>
      </mission_attitude>
    </posture>
    <posture>
      <time>2017-11-16T15:03:33.3216007+08:00</time>
      <mission_attitude>
        <time_boot_ms>202260000</time_boot_ms>
        <roll>-0.0523598753</roll>
        <pitch>-0.169296935</pitch>
        <yaw>1.69296932</yaw>
        <rollspeed>0</rollspeed>
        <pitchspeed>0</pitchspeed>
        <yawspeed>0</yawspeed>
      </mission_attitude>
    </posture>
    <posture>
      <time>2017-11-16T15:03:34.271655+08:00</time>
      <mission_attitude>
        <time_boot_ms>203240000</time_boot_ms>
        <roll>-0.0541052073</roll>
        <pitch>-0.169296935</pitch>
        <yaw>1.69296932</yaw>
        <rollspeed>0</rollspeed>
        <pitchspeed>0</pitchspeed>
        <yawspeed>0</yawspeed>
      </mission_attitude>
    </posture>
    <posture>
      <time>2017-11-16T15:03:35.3217151+08:00</time>
      <mission_attitude>
        <time_boot_ms>204240000</time_boot_ms>
        <roll>-0.0541052073</roll>
        <pitch>-0.171042264</pitch>
        <yaw>1.675516</yaw>
        <rollspeed>0</rollspeed>
        <pitchspeed>0</pitchspeed>
        <yawspeed>0</yawspeed>
      </mission_attitude>
    </posture>
    <posture>
      <time>2017-11-16T15:03:36.3217723+08:00</time>
      <mission_attitude>
        <time_boot_ms>205240000</time_boot_ms>
        <roll>-0.0523598753</roll>
        <pitch>-0.171042264</pitch>
        <yaw>1.69296932</yaw>
        <rollspeed>0</rollspeed>
        <pitchspeed>0</pitchspeed>
        <yawspeed>0</yawspeed>
      </mission_attitude>
    </posture>
    <posture>
      <time>2017-11-16T15:03:37.3218295+08:00</time>
      <mission_attitude>
        <time_boot_ms>206240000</time_boot_ms>
        <roll>-0.0523598753</roll>
        <pitch>-0.172787592</pitch>
        <yaw>1.69296932</yaw>
        <rollspeed>0</rollspeed>
        <pitchspeed>0</pitchspeed>
        <yawspeed>0.0174532924</yawspeed>
      </mission_attitude>
    </posture>
    <posture>
      <time>2017-11-16T15:03:38.3218867+08:00</time>
      <mission_attitude>
        <time_boot_ms>207240000</time_boot_ms>
        <roll>-0.0523598753</roll>
        <pitch>-0.171042264</pitch>
        <yaw>1.69296932</yaw>
        <rollspeed>-0.0174532924</rollspeed>
        <pitchspeed>0</pitchspeed>
        <yawspeed>0</yawspeed>
      </mission_attitude>
    </posture>
    <posture>
      <time>2017-11-16T15:03:39.3219439+08:00</time>
      <mission_attitude>
        <time_boot_ms>208240000</time_boot_ms>
        <roll>-0.0523598753</roll>
        <pitch>-0.169296935</pitch>
        <yaw>1.69296932</yaw>
        <rollspeed>0.0174532924</rollspeed>
        <pitchspeed>0</pitchspeed>
        <yawspeed>0</yawspeed>
      </mission_attitude>
    </posture>
    <posture>
      <time>2017-11-16T15:03:40.3220011+08:00</time>
      <mission_attitude>
        <time_boot_ms>209240000</time_boot_ms>
        <roll>-0.0523598753</roll>
        <pitch>-0.169296935</pitch>
        <yaw>1.69296932</yaw>
        <rollspeed>0</rollspeed>
        <pitchspeed>0</pitchspeed>
        <yawspeed>0</yawspeed>
      </mission_attitude>
    </posture>
    <posture>
      <time>2017-11-16T15:03:41.3220583+08:00</time>
      <mission_attitude>
        <time_boot_ms>210220000</time_boot_ms>
        <roll>-0.0523598753</roll>
        <pitch>-0.169296935</pitch>
        <yaw>1.69296932</yaw>
        <rollspeed>0</rollspeed>
        <pitchspeed>0</pitchspeed>
        <yawspeed>0</yawspeed>
      </mission_attitude>
    </posture>
    <posture>
      <time>2017-11-16T15:03:42.3211154+08:00</time>
      <mission_attitude>
        <time_boot_ms>211220000</time_boot_ms>
        <roll>-0.0523598753</roll>
        <pitch>-0.169296935</pitch>
        <yaw>1.675516</yaw>
        <rollspeed>0</rollspeed>
        <pitchspeed>0</pitchspeed>
        <yawspeed>0</yawspeed>
      </mission_attitude>
    </posture>
    <posture>
      <time>2017-11-16T15:03:43.3211726+08:00</time>
      <mission_attitude>
        <time_boot_ms>212220000</time_boot_ms>
        <roll>-0.0541052073</roll>
        <pitch>-0.169296935</pitch>
        <yaw>1.69296932</yaw>
        <rollspeed>0</rollspeed>
        <pitchspeed>0</pitchspeed>
        <yawspeed>0</yawspeed>
      </mission_attitude>
    </posture>
    <posture>
      <time>2017-11-16T15:03:44.3212298+08:00</time>
      <mission_attitude>
        <time_boot_ms>213220000</time_boot_ms>
        <roll>-0.0523598753</roll>
        <pitch>-0.171042264</pitch>
        <yaw>1.69296932</yaw>
        <rollspeed>0</rollspeed>
        <pitchspeed>0</pitchspeed>
        <yawspeed>0</yawspeed>
      </mission_attitude>
    </posture>
    <posture>
      <time>2017-11-16T15:03:45.321287+08:00</time>
      <mission_attitude>
        <time_boot_ms>214220000</time_boot_ms>
        <roll>-0.0541052073</roll>
        <pitch>-0.171042264</pitch>
        <yaw>1.69296932</yaw>
        <rollspeed>0</rollspeed>
        <pitchspeed>0</pitchspeed>
        <yawspeed>0</yawspeed>
      </mission_attitude>
    </posture>
    <posture>
      <time>2017-11-16T15:03:46.3213442+08:00</time>
      <mission_attitude>
        <time_boot_ms>215200000</time_boot_ms>
        <roll>-0.0541052073</roll>
        <pitch>-0.169296935</pitch>
        <yaw>1.69296932</yaw>
        <rollspeed>0</rollspeed>
        <pitchspeed>0</pitchspeed>
        <yawspeed>0</yawspeed>
      </mission_attitude>
    </posture>
    <posture>
      <time>2017-11-16T15:03:47.3214014+08:00</time>
      <mission_attitude>
        <time_boot_ms>216220000</time_boot_ms>
        <roll>-0.0541052073</roll>
        <pitch>-0.169296935</pitch>
        <yaw>1.69296932</yaw>
        <rollspeed>0</rollspeed>
        <pitchspeed>0</pitchspeed>
        <yawspeed>0</yawspeed>
      </mission_attitude>
    </posture>
    <posture>
      <time>2017-11-16T15:03:48.3714615+08:00</time>
      <mission_attitude>
        <time_boot_ms>217220000</time_boot_ms>
        <roll>-0.0523598753</roll>
        <pitch>-0.169296935</pitch>
        <yaw>1.69296932</yaw>
        <rollspeed>0</rollspeed>
        <pitchspeed>0</pitchspeed>
        <yawspeed>0</yawspeed>
      </mission_attitude>
    </posture>
    <posture>
      <time>2017-11-16T15:03:49.3215158+08:00</time>
      <mission_attitude>
        <time_boot_ms>218200000</time_boot_ms>
        <roll>-0.0523598753</roll>
        <pitch>-0.169296935</pitch>
        <yaw>1.69296932</yaw>
        <rollspeed>0</rollspeed>
        <pitchspeed>0</pitchspeed>
        <yawspeed>0</yawspeed>
      </mission_attitude>
    </posture>
    <posture>
      <time>2017-11-16T15:03:50.321573+08:00</time>
      <mission_attitude>
        <time_boot_ms>219200000</time_boot_ms>
        <roll>-0.0523598753</roll>
        <pitch>-0.169296935</pitch>
        <yaw>1.69296932</yaw>
        <rollspeed>0</rollspeed>
        <pitchspeed>0</pitchspeed>
        <yawspeed>0</yawspeed>
      </mission_attitude>
    </posture>
    <posture>
      <time>2017-11-16T15:03:51.3216302+08:00</time>
      <mission_attitude>
        <time_boot_ms>220200000</time_boot_ms>
        <roll>-0.0541052073</roll>
        <pitch>-0.169296935</pitch>
        <yaw>1.69296932</yaw>
        <rollspeed>0</rollspeed>
        <pitchspeed>0</pitchspeed>
        <yawspeed>0</yawspeed>
      </mission_attitude>
    </posture>
    <posture>
      <time>2017-11-16T15:03:52.3216874+08:00</time>
      <mission_attitude>
        <time_boot_ms>221200000</time_boot_ms>
        <roll>-0.0523598753</roll>
        <pitch>-0.171042264</pitch>
        <yaw>1.69296932</yaw>
        <rollspeed>-0.0174532924</rollspeed>
        <pitchspeed>0</pitchspeed>
        <yawspeed>-0.0174532924</yawspeed>
      </mission_attitude>
    </posture>
    <posture>
      <time>2017-11-16T15:03:53.3717475+08:00</time>
      <mission_attitude>
        <time_boot_ms>222200000</time_boot_ms>
        <roll>-0.0523598753</roll>
        <pitch>-0.171042264</pitch>
        <yaw>1.69296932</yaw>
        <rollspeed>-0.0174532924</rollspeed>
        <pitchspeed>0</pitchspeed>
        <yawspeed>0</yawspeed>
      </mission_attitude>
    </posture>
    <posture>
      <time>2017-11-16T15:03:54.3718047+08:00</time>
      <mission_attitude>
        <time_boot_ms>223220000</time_boot_ms>
        <roll>-0.0523598753</roll>
        <pitch>-0.171042264</pitch>
        <yaw>1.69296932</yaw>
        <rollspeed>0</rollspeed>
        <pitchspeed>0</pitchspeed>
        <yawspeed>0</yawspeed>
      </mission_attitude>
    </posture>
    <posture>
      <time>2017-11-16T15:03:55.3718619+08:00</time>
      <mission_attitude>
        <time_boot_ms>224200000</time_boot_ms>
        <roll>-0.0523598753</roll>
        <pitch>-0.169296935</pitch>
        <yaw>1.69296932</yaw>
        <rollspeed>0</rollspeed>
        <pitchspeed>0</pitchspeed>
        <yawspeed>0.0174532924</yawspeed>
      </mission_attitude>
    </posture>
    <posture>
      <time>2017-11-16T15:03:56.3219162+08:00</time>
      <mission_attitude>
        <time_boot_ms>225180000</time_boot_ms>
        <roll>-0.0523598753</roll>
        <pitch>-0.169296935</pitch>
        <yaw>1.69296932</yaw>
        <rollspeed>0</rollspeed>
        <pitchspeed>0</pitchspeed>
        <yawspeed>0</yawspeed>
      </mission_attitude>
    </posture>
    <posture>
      <time>2017-11-16T15:03:57.3219734+08:00</time>
      <mission_attitude>
        <time_boot_ms>226180000</time_boot_ms>
        <roll>-0.0523598753</roll>
        <pitch>-0.169296935</pitch>
        <yaw>1.69296932</yaw>
        <rollspeed>0</rollspeed>
        <pitchspeed>0</pitchspeed>
        <yawspeed>0</yawspeed>
      </mission_attitude>
    </posture>
    <posture>
      <time>2017-11-16T15:03:58.3220306+08:00</time>
      <mission_attitude>
        <time_boot_ms>227160000</time_boot_ms>
        <roll>-0.0523598753</roll>
        <pitch>-0.169296935</pitch>
        <yaw>1.69296932</yaw>
        <rollspeed>0</rollspeed>
        <pitchspeed>0</pitchspeed>
        <yawspeed>0</yawspeed>
      </mission_attitude>
    </posture>
    <posture>
      <time>2017-11-16T15:03:59.3210878+08:00</time>
      <mission_attitude>
        <time_boot_ms>228160000</time_boot_ms>
        <roll>-0.0523598753</roll>
        <pitch>-0.169296935</pitch>
        <yaw>1.69296932</yaw>
        <rollspeed>-0.0174532924</rollspeed>
        <pitchspeed>0</pitchspeed>
        <yawspeed>0</yawspeed>
      </mission_attitude>
    </posture>
    <posture>
      <time>2017-11-16T15:04:00.321145+08:00</time>
      <mission_attitude>
        <time_boot_ms>229160000</time_boot_ms>
        <roll>-0.0523598753</roll>
        <pitch>-0.171042264</pitch>
        <yaw>1.69296932</yaw>
        <rollspeed>0</rollspeed>
        <pitchspeed>0</pitchspeed>
        <yawspeed>0</yawspeed>
      </mission_attitude>
    </posture>
    <posture>
      <time>2017-11-16T15:04:01.3212022+08:00</time>
      <mission_attitude>
        <time_boot_ms>230140000</time_boot_ms>
        <roll>-0.0523598753</roll>
        <pitch>-0.171042264</pitch>
        <yaw>1.69296932</yaw>
        <rollspeed>0</rollspeed>
        <pitchspeed>0</pitchspeed>
        <yawspeed>0</yawspeed>
      </mission_attitude>
    </posture>
    <posture>
      <time>2017-11-16T15:04:02.3212594+08:00</time>
      <mission_attitude>
        <time_boot_ms>231140000</time_boot_ms>
        <roll>-0.0523598753</roll>
        <pitch>-0.171042264</pitch>
        <yaw>1.69296932</yaw>
        <rollspeed>0</rollspeed>
        <pitchspeed>0</pitchspeed>
        <yawspeed>0</yawspeed>
      </mission_attitude>
    </posture>
    <posture>
      <time>2017-11-16T15:04:03.3213166+08:00</time>
      <mission_attitude>
        <time_boot_ms>232140000</time_boot_ms>
        <roll>-0.050614547</roll>
        <pitch>-0.171042264</pitch>
        <yaw>1.69296932</yaw>
        <rollspeed>0</rollspeed>
        <pitchspeed>0</pitchspeed>
        <yawspeed>0</yawspeed>
      </mission_attitude>
    </posture>
    <posture>
      <time>2017-11-16T15:04:04.3213738+08:00</time>
      <mission_attitude>
        <time_boot_ms>233140000</time_boot_ms>
        <roll>-0.0523598753</roll>
        <pitch>-0.171042264</pitch>
        <yaw>1.69296932</yaw>
        <rollspeed>0</rollspeed>
        <pitchspeed>0</pitchspeed>
        <yawspeed>0</yawspeed>
      </mission_attitude>
    </posture>
    <posture>
      <time>2017-11-16T15:04:05.3714338+08:00</time>
      <mission_attitude>
        <time_boot_ms>234140000</time_boot_ms>
        <roll>-0.0523598753</roll>
        <pitch>-0.169296935</pitch>
        <yaw>1.69296932</yaw>
        <rollspeed>0</rollspeed>
        <pitchspeed>0</pitchspeed>
        <yawspeed>0</yawspeed>
      </mission_attitude>
    </posture>
    <posture>
      <time>2017-11-16T15:04:06.3214882+08:00</time>
      <mission_attitude>
        <time_boot_ms>235120000</time_boot_ms>
        <roll>-0.0523598753</roll>
        <pitch>-0.169296935</pitch>
