<?xml version="1.0" encoding="utf-8"?>
<SerializeDataClass xmlns:xsi="http://www.w3.org/2001/XMLSchema-instance" xmlns:xsd="http://www.w3.org/2001/XMLSchema">
  <listposture>
    <posture>
      <time>2019-04-11T17:45:13.5116857+08:00</time>
      <mission_attitude>
        <time_boot_ms>61520000</time_boot_ms>
        <roll>-3.117158</roll>
        <pitch>-0.0733038262</pitch>
        <yaw>0.9773844</yaw>
        <rollspeed>0</rollspeed>
        <pitchspeed>0</pitchspeed>
        <yawspeed>0</yawspeed>
      </mission_attitude>
    </posture>
    <posture>
      <time>2019-04-11T17:45:14.4107371+08:00</time>
      <mission_attitude>
        <time_boot_ms>62420000</time_boot_ms>
        <roll>-3.11541271</roll>
        <pitch>-0.0733038262</pitch>
        <yaw>0.9773844</yaw>
        <rollspeed>0</rollspeed>
        <pitchspeed>0</pitchspeed>
        <yawspeed>0</yawspeed>
      </mission_attitude>
    </posture>
    <posture>
      <time>2019-04-11T17:45:15.0607743+08:00</time>
      <mission_attitude>
        <time_boot_ms>63100000</time_boot_ms>
        <roll>-3.11541271</roll>
        <pitch>-0.0733038262</pitch>
        <yaw>0.9773844</yaw>
        <rollspeed>0</rollspeed>
        <pitchspeed>0</pitchspeed>
        <yawspeed>0</yawspeed>
      </mission_attitude>
    </posture>
    <posture>
      <time>2019-04-11T17:45:15.7608143+08:00</time>
      <mission_attitude>
        <time_boot_ms>63780000</time_boot_ms>
        <roll>-3.11541271</roll>
        <pitch>-0.0733038262</pitch>
        <yaw>0.9773844</yaw>
        <rollspeed>0</rollspeed>
        <pitchspeed>0</pitchspeed>
        <yawspeed>0</yawspeed>
      </mission_attitude>
    </posture>
    <posture>
      <time>2019-04-11T17:45:16.6608658+08:00</time>
      <mission_attitude>
        <time_boot_ms>64680000</time_boot_ms>
        <roll>3.12937522</roll>
        <pitch>-0.0750491545</pitch>
        <yaw>0.9773844</yaw>
        <rollspeed>0</rollspeed>
        <pitchspeed>0</pitchspeed>
        <yawspeed>0</yawspeed>
      </mission_attitude>
    </posture>
    <posture>
      <time>2019-04-11T17:45:17.3599058+08:00</time>
      <mission_attitude>
        <time_boot_ms>65340000</time_boot_ms>
        <roll>0.3211406</roll>
        <pitch>-0.0575958639</pitch>
        <yaw>0.9075712</yaw>
        <rollspeed>0</rollspeed>
        <pitchspeed>0</pitchspeed>
        <yawspeed>0</yawspeed>
      </mission_attitude>
    </posture>
    <posture>
      <time>2019-04-11T17:45:18.009943+08:00</time>
      <mission_attitude>
        <time_boot_ms>66020000</time_boot_ms>
        <roll>0.102974422</roll>
        <pitch>-0.0349065848</pitch>
        <yaw>0.942477763</yaw>
        <rollspeed>0</rollspeed>
        <pitchspeed>0</pitchspeed>
        <yawspeed>0</yawspeed>
      </mission_attitude>
    </posture>
    <posture>
      <time>2019-04-11T17:45:18.9099945+08:00</time>
      <mission_attitude>
        <time_boot_ms>66920000</time_boot_ms>
        <roll>0.09773844</roll>
        <pitch>-0.0349065848</pitch>
        <yaw>0.942477763</yaw>
        <rollspeed>0</rollspeed>
        <pitchspeed>0</pitchspeed>
        <yawspeed>0</yawspeed>
      </mission_attitude>
    </posture>
    <posture>
      <time>2019-04-11T17:45:19.6100345+08:00</time>
      <mission_attitude>
        <time_boot_ms>67600000</time_boot_ms>
        <roll>0.09424778</roll>
        <pitch>-0.0349065848</pitch>
        <yaw>0.942477763</yaw>
        <rollspeed>0</rollspeed>
        <pitchspeed>0</pitchspeed>
        <yawspeed>0</yawspeed>
      </mission_attitude>
    </posture>
    <posture>
      <time>2019-04-11T17:45:20.2600717+08:00</time>
      <mission_attitude>
        <time_boot_ms>68280000</time_boot_ms>
        <roll>0.09075712</roll>
        <pitch>-0.0331612565</pitch>
        <yaw>0.942477763</yaw>
        <rollspeed>0</rollspeed>
        <pitchspeed>0</pitchspeed>
        <yawspeed>0</yawspeed>
      </mission_attitude>
    </posture>
    <posture>
      <time>2019-04-11T17:45:21.1601232+08:00</time>
      <mission_attitude>
        <time_boot_ms>69180000</time_boot_ms>
        <roll>0.08726646</roll>
        <pitch>-0.0349065848</pitch>
        <yaw>0.942477763</yaw>
        <rollspeed>0</rollspeed>
        <pitchspeed>0</pitchspeed>
        <yawspeed>0</yawspeed>
      </mission_attitude>
    </posture>
    <posture>
      <time>2019-04-11T17:45:21.8101603+08:00</time>
      <mission_attitude>
        <time_boot_ms>69840000</time_boot_ms>
        <roll>0.0837758</roll>
        <pitch>-0.0331612565</pitch>
        <yaw>0.942477763</yaw>
        <rollspeed>0</rollspeed>
        <pitchspeed>0</pitchspeed>
        <yawspeed>0</yawspeed>
      </mission_attitude>
    </posture>
    <posture>
      <time>2019-04-11T17:45:22.5102004+08:00</time>
      <mission_attitude>
        <time_boot_ms>70520000</time_boot_ms>
        <roll>0.0820304751</roll>
        <pitch>-0.0331612565</pitch>
        <yaw>0.942477763</yaw>
        <rollspeed>0</rollspeed>
        <pitchspeed>0</pitchspeed>
        <yawspeed>0</yawspeed>
      </mission_attitude>
    </posture>
    <posture>
      <time>2019-04-11T17:45:23.4102519+08:00</time>
      <mission_attitude>
        <time_boot_ms>71440000</time_boot_ms>
        <roll>0.08028515</roll>
        <pitch>-0.0331612565</pitch>
        <yaw>0.942477763</yaw>
        <rollspeed>0</rollspeed>
        <pitchspeed>0</pitchspeed>
        <yawspeed>0</yawspeed>
      </mission_attitude>
    </posture>
    <posture>
      <time>2019-04-11T17:45:24.1102919+08:00</time>
      <mission_attitude>
        <time_boot_ms>72120000</time_boot_ms>
        <roll>0.07853982</roll>
        <pitch>-0.0314159244</pitch>
        <yaw>0.942477763</yaw>
        <rollspeed>0</rollspeed>
        <pitchspeed>0</pitchspeed>
        <yawspeed>0</yawspeed>
      </mission_attitude>
    </posture>
    <posture>
      <time>2019-04-11T17:45:24.8103319+08:00</time>
      <mission_attitude>
        <time_boot_ms>72800000</time_boot_ms>
        <roll>0.07679448</roll>
        <pitch>-0.0314159244</pitch>
        <yaw>0.942477763</yaw>
        <rollspeed>0</rollspeed>
        <pitchspeed>0</pitchspeed>
        <yawspeed>0</yawspeed>
      </mission_attitude>
    </posture>
    <posture>
      <time>2019-04-11T17:45:26.9104521+08:00</time>
      <mission_attitude>
        <time_boot_ms>74920000</time_boot_ms>
        <roll>0.0715585</roll>
        <pitch>-0.0296705961</pitch>
        <yaw>0.942477763</yaw>
        <rollspeed>0</rollspeed>
        <pitchspeed>0</pitchspeed>
        <yawspeed>0</yawspeed>
      </mission_attitude>
    </posture>
    <posture>
      <time>2019-04-11T17:45:27.6104921+08:00</time>
      <mission_attitude>
        <time_boot_ms>75600000</time_boot_ms>
        <roll>0.06981317</roll>
        <pitch>-0.0296705961</pitch>
        <yaw>0.942477763</yaw>
        <rollspeed>0</rollspeed>
        <pitchspeed>0</pitchspeed>
        <yawspeed>0</yawspeed>
      </mission_attitude>
    </posture>
    <posture>
      <time>2019-04-11T17:45:28.5105436+08:00</time>
      <mission_attitude>
        <time_boot_ms>76520000</time_boot_ms>
        <roll>0.06806784</roll>
        <pitch>-0.0296705961</pitch>
        <yaw>0.942477763</yaw>
        <rollspeed>0</rollspeed>
        <pitchspeed>0</pitchspeed>
        <yawspeed>0</yawspeed>
      </mission_attitude>
    </posture>
    <posture>
      <time>2019-04-11T17:45:29.1605808+08:00</time>
      <mission_attitude>
        <time_boot_ms>77200000</time_boot_ms>
        <roll>0.06632251</roll>
        <pitch>-0.0296705961</pitch>
        <yaw>0.942477763</yaw>
        <rollspeed>0</rollspeed>
        <pitchspeed>0</pitchspeed>
        <yawspeed>0</yawspeed>
      </mission_attitude>
    </posture>
    <posture>
      <time>2019-04-11T17:45:29.8606208+08:00</time>
      <mission_attitude>
        <time_boot_ms>77880000</time_boot_ms>
        <roll>0.06632251</roll>
        <pitch>-0.0314159244</pitch>
        <yaw>0.942477763</yaw>
        <rollspeed>0</rollspeed>
        <pitchspeed>0</pitchspeed>
        <yawspeed>0</yawspeed>
      </mission_attitude>
    </posture>
    <posture>
      <time>2019-04-11T17:45:30.7606723+08:00</time>
      <mission_attitude>
        <time_boot_ms>78780000</time_boot_ms>
        <roll>0.0645771846</roll>
        <pitch>-0.0314159244</pitch>
        <yaw>0.942477763</yaw>
        <rollspeed>0</rollspeed>
        <pitchspeed>0</pitchspeed>
        <yawspeed>0</yawspeed>
      </mission_attitude>
    </posture>
    <posture>
      <time>2019-04-11T17:45:31.4607123+08:00</time>
      <mission_attitude>
        <time_boot_ms>79460000</time_boot_ms>
        <roll>0.0645771846</roll>
        <pitch>-0.0314159244</pitch>
        <yaw>0.942477763</yaw>
        <rollspeed>0</rollspeed>
        <pitchspeed>0</pitchspeed>
        <yawspeed>0</yawspeed>
      </mission_attitude>
    </posture>
    <posture>
      <time>2019-04-11T17:45:32.1107495+08:00</time>
      <mission_attitude>
        <time_boot_ms>80140000</time_boot_ms>
        <roll>0.06283185</roll>
        <pitch>-0.0314159244</pitch>
        <yaw>0.942477763</yaw>
        <rollspeed>0</rollspeed>
        <pitchspeed>0</pitchspeed>
        <yawspeed>0</yawspeed>
      </mission_attitude>
    </posture>
    <posture>
      <time>2019-04-11T17:45:33.010801+08:00</time>
      <mission_attitude>
        <time_boot_ms>81060000</time_boot_ms>
        <roll>0.06283185</roll>
        <pitch>-0.0314159244</pitch>
        <yaw>0.942477763</yaw>
        <rollspeed>0</rollspeed>
        <pitchspeed>0</pitchspeed>
        <yawspeed>0</yawspeed>
      </mission_attitude>
    </posture>
    <posture>
      <time>2019-04-11T17:45:33.710841+08:00</time>
      <mission_attitude>
        <time_boot_ms>81740000</time_boot_ms>
        <roll>0.0610865243</roll>
        <pitch>-0.0296705961</pitch>
        <yaw>0.942477763</yaw>
        <rollspeed>0</rollspeed>
        <pitchspeed>0</pitchspeed>
        <yawspeed>0</yawspeed>
      </mission_attitude>
    </posture>
    <posture>
      <time>2019-04-11T17:45:34.4108811+08:00</time>
      <mission_attitude>
        <time_boot_ms>82420000</time_boot_ms>
        <roll>0.0610865243</roll>
        <pitch>-0.0296705961</pitch>
        <yaw>0.942477763</yaw>
        <rollspeed>0</rollspeed>
        <pitchspeed>0</pitchspeed>
        <yawspeed>0</yawspeed>
      </mission_attitude>
    </posture>
    <posture>
      <time>2019-04-11T17:45:35.3099325+08:00</time>
      <mission_attitude>
        <time_boot_ms>83320000</time_boot_ms>
        <roll>0.0610865243</roll>
        <pitch>-0.0296705961</pitch>
        <yaw>0.942477763</yaw>
        <rollspeed>0</rollspeed>
        <pitchspeed>0</pitchspeed>
        <yawspeed>0</yawspeed>
      </mission_attitude>
    </posture>
    <posture>
      <time>2019-04-11T17:45:35.9599697+08:00</time>
      <mission_attitude>
        <time_boot_ms>84000000</time_boot_ms>
        <roll>0.0593411922</roll>
        <pitch>-0.0296705961</pitch>
        <yaw>0.942477763</yaw>
        <rollspeed>0</rollspeed>
        <pitchspeed>0</pitchspeed>
        <yawspeed>0</yawspeed>
      </mission_attitude>
    </posture>
    <posture>
      <time>2019-04-11T17:45:36.6600097+08:00</time>
      <mission_attitude>
        <time_boot_ms>84680000</time_boot_ms>
        <roll>0.0593411922</roll>
        <pitch>-0.0296705961</pitch>
        <yaw>0.942477763</yaw>
        <rollspeed>0</rollspeed>
        <pitchspeed>0</pitchspeed>
        <yawspeed>0</yawspeed>
      </mission_attitude>
    </posture>
    <posture>
      <time>2019-04-11T17:45:37.5600612+08:00</time>
      <mission_attitude>
        <time_boot_ms>85600000</time_boot_ms>
        <roll>0.0575958639</roll>
        <pitch>-0.0314159244</pitch>
        <yaw>0.942477763</yaw>
        <rollspeed>0</rollspeed>
        <pitchspeed>0</pitchspeed>
        <yawspeed>0</yawspeed>
      </mission_attitude>
    </posture>
    <posture>
      <time>2019-04-11T17:45:38.2601012+08:00</time>
      <mission_attitude>
        <time_boot_ms>86280000</time_boot_ms>
        <roll>0.0558505356</roll>
        <pitch>-0.0314159244</pitch>
        <yaw>0.942477763</yaw>
        <rollspeed>0</rollspeed>
        <pitchspeed>0</pitchspeed>
        <yawspeed>0</yawspeed>
      </mission_attitude>
    </posture>
    <posture>
      <time>2019-04-11T17:45:38.9101384+08:00</time>
      <mission_attitude>
        <time_boot_ms>86960000</time_boot_ms>
        <roll>0.0366519131</roll>
        <pitch>-0.0296705961</pitch>
        <yaw>0.942477763</yaw>
        <rollspeed>0</rollspeed>
        <pitchspeed>0</pitchspeed>
        <yawspeed>0</yawspeed>
      </mission_attitude>
    </posture>
    <posture>
      <time>2019-04-11T17:45:39.8601927+08:00</time>
      <mission_attitude>
        <time_boot_ms>87860000</time_boot_ms>
        <roll>0.0174532924</roll>
        <pitch>-0.518362761</pitch>
        <yaw>0.9599311</yaw>
        <rollspeed>0</rollspeed>
        <pitchspeed>0</pitchspeed>
        <yawspeed>0</yawspeed>
      </mission_attitude>
    </posture>
    <posture>
      <time>2019-04-11T17:45:40.5102299+08:00</time>
      <mission_attitude>
        <time_boot_ms>88540000</time_boot_ms>
        <roll>0.0610865243</roll>
        <pitch>-0.420624346</pitch>
        <yaw>0.942477763</yaw>
        <rollspeed>0</rollspeed>
        <pitchspeed>0</pitchspeed>
        <yawspeed>0</yawspeed>
      </mission_attitude>
    </posture>
    <posture>
      <time>2019-04-11T17:45:41.21027+08:00</time>
      <mission_attitude>
        <time_boot_ms>89220000</time_boot_ms>
        <roll>-0.169296935</roll>
        <pitch>0.3106686</pitch>
        <yaw>0.942477763</yaw>
        <rollspeed>0</rollspeed>
        <pitchspeed>0</pitchspeed>
        <yawspeed>0</yawspeed>
      </mission_attitude>
    </posture>
    <posture>
      <time>2019-04-11T17:45:42.1103214+08:00</time>
      <mission_attitude>
        <time_boot_ms>90140000</time_boot_ms>
        <roll>-0.0715585</roll>
        <pitch>-0.340339184</pitch>
        <yaw>0.9599311</yaw>
        <rollspeed>0</rollspeed>
        <pitchspeed>0</pitchspeed>
        <yawspeed>0</yawspeed>
      </mission_attitude>
    </posture>
    <posture>
      <time>2019-04-11T17:45:42.8103615+08:00</time>
      <mission_attitude>
        <time_boot_ms>90820000</time_boot_ms>
        <roll>-0.104719751</roll>
        <pitch>0.3228859</pitch>
        <yaw>0.9599311</yaw>
        <rollspeed>0</rollspeed>
        <pitchspeed>0</pitchspeed>
        <yawspeed>0</yawspeed>
      </mission_attitude>
    </posture>
    <posture>
      <time>2019-04-11T17:45:43.4603987+08:00</time>
      <mission_attitude>
        <time_boot_ms>91500000</time_boot_ms>
        <roll>0.347320527</roll>
        <pitch>-0.106465079</pitch>
        <yaw>0.8901179</yaw>
        <rollspeed>0</rollspeed>
        <pitchspeed>0</pitchspeed>
        <yawspeed>0</yawspeed>
      </mission_attitude>
    </posture>
    <posture>
      <time>2019-04-11T17:45:44.410453+08:00</time>
      <mission_attitude>
        <time_boot_ms>92400000</time_boot_ms>
        <roll>0.08028515</roll>
        <pitch>0.0174532924</pitch>
        <yaw>0.942477763</yaw>
        <rollspeed>0</rollspeed>
        <pitchspeed>0</pitchspeed>
        <yawspeed>0</yawspeed>
      </mission_attitude>
    </posture>
    <posture>
      <time>2019-04-11T17:45:45.0604902+08:00</time>
      <mission_attitude>
        <time_boot_ms>93060000</time_boot_ms>
        <roll>-0.04712389</roll>
        <pitch>0.0733038262</pitch>
        <yaw>0.942477763</yaw>
        <rollspeed>0</rollspeed>
        <pitchspeed>0</pitchspeed>
        <yawspeed>0</yawspeed>
      </mission_attitude>
    </posture>
    <posture>
      <time>2019-04-11T17:45:45.7105274+08:00</time>
      <mission_attitude>
        <time_boot_ms>93740000</time_boot_ms>
        <roll>-0.0401425734</roll>
        <pitch>0.0733038262</pitch>
        <yaw>0.942477763</yaw>
        <rollspeed>0</rollspeed>
        <pitchspeed>0</pitchspeed>
        <yawspeed>0</yawspeed>
      </mission_attitude>
    </posture>
    <posture>
      <time>2019-04-11T17:45:46.6105788+08:00</time>
      <mission_attitude>
        <time_boot_ms>94640000</time_boot_ms>
        <roll>-0.09599311</roll>
        <pitch>0.02443461</pitch>
        <yaw>0.9250245</yaw>
        <rollspeed>0</rollspeed>
        <pitchspeed>0</pitchspeed>
        <yawspeed>0</yawspeed>
      </mission_attitude>
    </posture>
    <posture>
      <time>2019-04-11T17:45:47.3106189+08:00</time>
      <mission_attitude>
        <time_boot_ms>95320000</time_boot_ms>
        <roll>0.0331612565</roll>
        <pitch>-0.0314159244</pitch>
        <yaw>0.9075712</yaw>
        <rollspeed>0</rollspeed>
        <pitchspeed>0</pitchspeed>
        <yawspeed>0</yawspeed>
      </mission_attitude>
    </posture>
    <posture>
      <time>2019-04-11T17:45:48.0106589+08:00</time>
      <mission_attitude>
        <time_boot_ms>96000000</time_boot_ms>
        <roll>0.0314159244</roll>
        <pitch>-0.0331612565</pitch>
        <yaw>0.9075712</yaw>
        <rollspeed>0</rollspeed>
        <pitchspeed>0</pitchspeed>
        <yawspeed>0</yawspeed>
      </mission_attitude>
    </posture>
    <posture>
      <time>2019-04-11T17:45:48.9107104+08:00</time>
      <mission_attitude>
        <time_boot_ms>96920000</time_boot_ms>
        <roll>0.0575958639</roll>
        <pitch>-0.06283185</pitch>
        <yaw>0.9250245</yaw>
        <rollspeed>0</rollspeed>
        <pitchspeed>0</pitchspeed>
        <yawspeed>0</yawspeed>
      </mission_attitude>
    </posture>
    <posture>
      <time>2019-04-11T17:45:49.5607476+08:00</time>
      <mission_attitude>
        <time_boot_ms>97600000</time_boot_ms>
        <roll>0.06806784</roll>
        <pitch>-0.0715585</pitch>
        <yaw>0.9773844</yaw>
        <rollspeed>0</rollspeed>
        <pitchspeed>0</pitchspeed>
        <yawspeed>0</yawspeed>
      </mission_attitude>
    </posture>
    <posture>
      <time>2019-04-11T17:45:50.2607876+08:00</time>
      <mission_attitude>
        <time_boot_ms>98280000</time_boot_ms>
        <roll>0.02268928</roll>
        <pitch>-0.0593411922</pitch>
        <yaw>0.9773844</yaw>
        <rollspeed>0</rollspeed>
        <pitchspeed>0</pitchspeed>
        <yawspeed>0</yawspeed>
      </mission_attitude>
    </posture>
    <posture>
      <time>2019-04-11T17:45:51.1608391+08:00</time>
      <mission_attitude>
        <time_boot_ms>99180000</time_boot_ms>
        <roll>0.02268928</roll>
        <pitch>-0.0575958639</pitch>
        <yaw>0.9773844</yaw>
        <rollspeed>0</rollspeed>
        <pitchspeed>0</pitchspeed>
        <yawspeed>0</yawspeed>
      </mission_attitude>
    </posture>
    <posture>
      <time>2019-04-11T17:45:51.8608791+08:00</time>
      <mission_attitude>
        <time_boot_ms>99860000</time_boot_ms>
        <roll>0.02094395</roll>
        <pitch>-0.0558505356</pitch>
        <yaw>0.9773844</yaw>
        <rollspeed>0</rollspeed>
        <pitchspeed>0</pitchspeed>
        <yawspeed>0</yawspeed>
      </mission_attitude>
    </posture>
    <posture>
      <time>2019-04-11T17:45:52.5099163+08:00</time>
      <mission_attitude>
        <time_boot_ms>100540000</time_boot_ms>
        <roll>0.02094395</roll>
        <pitch>-0.0541052073</pitch>
        <yaw>0.9773844</yaw>
        <rollspeed>0</rollspeed>
        <pitchspeed>0</pitchspeed>
        <yawspeed>0</yawspeed>
      </mission_attitude>
    </posture>
    <posture>
      <time>2019-04-11T17:45:53.4099678+08:00</time>
      <mission_attitude>
        <time_boot_ms>101440000</time_boot_ms>
        <roll>0.02094395</roll>
        <pitch>-0.0523598753</pitch>
        <yaw>0.9773844</yaw>
        <rollspeed>0</rollspeed>
        <pitchspeed>0</pitchspeed>
        <yawspeed>0</yawspeed>
      </mission_attitude>
    </posture>
    <posture>
      <time>2019-04-11T17:45:54.1100078+08:00</time>
      <mission_attitude>
        <time_boot_ms>102120000</time_boot_ms>
        <roll>0.02094395</roll>
        <pitch>-0.0523598753</pitch>
        <yaw>0.9773844</yaw>
        <rollspeed>0</rollspeed>
        <pitchspeed>0</pitchspeed>
        <yawspeed>0</yawspeed>
      </mission_attitude>
    </posture>
    <posture>
      <time>2019-04-11T17:45:54.760045+08:00</time>
      <mission_attitude>
        <time_boot_ms>102800000</time_boot_ms>
        <roll>0.02268928</roll>
        <pitch>-0.0523598753</pitch>
        <yaw>0.9599311</yaw>
        <rollspeed>0</rollspeed>
        <pitchspeed>0</pitchspeed>
        <yawspeed>0</yawspeed>
      </mission_attitude>
    </posture>
    <posture>
      <time>2019-04-11T17:45:55.6600965+08:00</time>
      <mission_attitude>
        <time_boot_ms>103700000</time_boot_ms>
        <roll>0.0349065848</roll>
        <pitch>-0.0418879</pitch>
        <yaw>0.9075712</yaw>
        <rollspeed>0</rollspeed>
        <pitchspeed>0</pitchspeed>
        <yawspeed>0</yawspeed>
      </mission_attitude>
    </posture>
    <posture>
      <time>2019-04-11T17:45:56.3601365+08:00</time>
      <mission_attitude>
        <time_boot_ms>104360000</time_boot_ms>
        <roll>0.04712389</roll>
        <pitch>-0.04363323</pitch>
        <yaw>0.8901179</yaw>
        <rollspeed>0</rollspeed>
        <pitchspeed>0</pitchspeed>
        <yawspeed>0</yawspeed>
      </mission_attitude>
    </posture>
    <posture>
      <time>2019-04-11T17:45:57.0101737+08:00</time>
      <mission_attitude>
        <time_boot_ms>105040000</time_boot_ms>
        <roll>0.0610865243</roll>
        <pitch>-0.04363323</pitch>
        <yaw>0.8901179</yaw>
        <rollspeed>0</rollspeed>
        <pitchspeed>0</pitchspeed>
        <yawspeed>0</yawspeed>
      </mission_attitude>
    </posture>
    <posture>
      <time>2019-04-11T17:45:57.9102252+08:00</time>
      <mission_attitude>
        <time_boot_ms>105940000</time_boot_ms>
        <roll>0.0261799376</roll>
        <pitch>-0.0610865243</pitch>
        <yaw>0.9250245</yaw>
        <rollspeed>0</rollspeed>
        <pitchspeed>0</pitchspeed>
        <yawspeed>0</yawspeed>
      </mission_attitude>
    </posture>
    <posture>
      <time>2019-04-11T17:45:58.5602623+08:00</time>
      <mission_attitude>
        <time_boot_ms>106600000</time_boot_ms>
        <roll>0.02094395</roll>
        <pitch>-0.0541052073</pitch>
        <yaw>0.9599311</yaw>
        <rollspeed>0</rollspeed>
        <pitchspeed>0</pitchspeed>
        <yawspeed>0</yawspeed>
      </mission_attitude>
    </posture>
    <posture>
      <time>2019-04-11T17:45:59.2603024+08:00</time>
      <mission_attitude>
        <time_boot_ms>107280000</time_boot_ms>
        <roll>0.02094395</roll>
        <pitch>-0.0541052073</pitch>
        <yaw>0.9599311</yaw>
        <rollspeed>0</rollspeed>
        <pitchspeed>0</pitchspeed>
        <yawspeed>0</yawspeed>
      </mission_attitude>
    </posture>
    <posture>
      <time>2019-04-11T17:46:00.1603539+08:00</time>
      <mission_attitude>
        <time_boot_ms>108180000</time_boot_ms>
        <roll>0.02094395</roll>
        <pitch>-0.0523598753</pitch>
        <yaw>0.9599311</yaw>
        <rollspeed>0</rollspeed>
        <pitchspeed>0</pitchspeed>
        <yawspeed>0</yawspeed>
      </mission_attitude>
    </posture>
    <posture>
      <time>2019-04-11T17:46:00.810391+08:00</time>
      <mission_attitude>
        <time_boot_ms>108840000</time_boot_ms>
        <roll>0.02094395</roll>
        <pitch>-0.0523598753</pitch>
        <yaw>0.9599311</yaw>
        <rollspeed>0</rollspeed>
        <pitchspeed>0</pitchspeed>
        <yawspeed>0</yawspeed>
      </mission_attitude>
    </posture>
    <posture>
      <time>2019-04-11T17:46:01.5104311+08:00</time>
      <mission_attitude>
        <time_boot_ms>109520000</time_boot_ms>
        <roll>0.01919862</roll>
        <pitch>-0.0523598753</pitch>
        <yaw>0.9599311</yaw>
        <rollspeed>0</rollspeed>
        <pitchspeed>0</pitchspeed>
        <yawspeed>0</yawspeed>
      </mission_attitude>
    </posture>
    <posture>
      <time>2019-04-11T17:46:02.4104826+08:00</time>
      <mission_attitude>
        <time_boot_ms>110440000</time_boot_ms>
        <roll>0.01919862</roll>
        <pitch>-0.0523598753</pitch>
        <yaw>0.9599311</yaw>
        <rollspeed>0</rollspeed>
        <pitchspeed>0</pitchspeed>
        <yawspeed>0</yawspeed>
      </mission_attitude>
    </posture>
    <posture>
      <time>2019-04-11T17:46:03.1105226+08:00</time>
      <mission_attitude>
        <time_boot_ms>111120000</time_boot_ms>
        <roll>0.01919862</roll>
        <pitch>-0.0523598753</pitch>
        <yaw>0.9599311</yaw>
        <rollspeed>0</rollspeed>
        <pitchspeed>0</pitchspeed>
        <yawspeed>0</yawspeed>
      </mission_attitude>
    </posture>
    <posture>
      <time>2019-04-11T17:46:03.7605598+08:00</time>
      <mission_attitude>
        <time_boot_ms>111780000</time_boot_ms>
        <roll>0.01919862</roll>
        <pitch>-0.0523598753</pitch>
        <yaw>0.9599311</yaw>
        <rollspeed>0</rollspeed>
        <pitchspeed>0</pitchspeed>
        <yawspeed>0</yawspeed>
      </mission_attitude>
    </posture>
    <posture>
      <time>2019-04-11T17:46:04.6606113+08:00</time>
      <mission_attitude>
        <time_boot_ms>112680000</time_boot_ms>
        <roll>0.01919862</roll>
        <pitch>-0.050614547</pitch>
        <yaw>0.9599311</yaw>
        <rollspeed>0</rollspeed>
        <pitchspeed>0</pitchspeed>
        <yawspeed>0</yawspeed>
      </mission_attitude>
    </posture>
    <posture>
      <time>2019-04-11T17:46:05.3606513+08:00</time>
      <mission_attitude>
        <time_boot_ms>113360000</time_boot_ms>
        <roll>0.0174532924</roll>
        <pitch>-0.050614547</pitch>
        <yaw>0.9599311</yaw>
        <rollspeed>0</rollspeed>
        <pitchspeed>0</pitchspeed>
        <yawspeed>0</yawspeed>
      </mission_attitude>
    </posture>
    <posture>
      <time>2019-04-11T17:46:06.0106885+08:00</time>
      <mission_attitude>
        <time_boot_ms>114020000</time_boot_ms>
        <roll>0.0174532924</roll>
        <pitch>-0.050614547</pitch>
        <yaw>0.9599311</yaw>
        <rollspeed>0</rollspeed>
        <pitchspeed>0</pitchspeed>
        <yawspeed>0</yawspeed>
      </mission_attitude>
    </posture>
    <posture>
      <time>2019-04-11T17:46:06.91074+08:00</time>
      <mission_attitude>
        <time_boot_ms>114920000</time_boot_ms>
        <roll>0.0174532924</roll>
        <pitch>-0.050614547</pitch>
        <yaw>0.9599311</yaw>
        <rollspeed>0</rollspeed>
        <pitchspeed>0</pitchspeed>
        <yawspeed>0</yawspeed>
      </mission_attitude>
    </posture>
    <posture>
      <time>2019-04-11T17:46:07.5607771+08:00</time>
      <mission_attitude>
        <time_boot_ms>115600000</time_boot_ms>
        <roll>0.0174532924</roll>
        <pitch>-0.04886922</pitch>
        <yaw>0.9599311</yaw>
        <rollspeed>0</rollspeed>
        <pitchspeed>0</pitchspeed>
        <yawspeed>0</yawspeed>
      </mission_attitude>
    </posture>
    <posture>
      <time>2019-04-11T17:46:08.2608172+08:00</time>
      <mission_attitude>
        <time_boot_ms>116280000</time_boot_ms>
        <roll>0.0174532924</roll>
        <pitch>-0.04886922</pitch>
        <yaw>0.9599311</yaw>
        <rollspeed>0</rollspeed>
        <pitchspeed>0</pitchspeed>
        <yawspeed>0</yawspeed>
      </mission_attitude>
    </posture>
    <posture>
      <time>2019-04-11T17:46:09.1608687+08:00</time>
      <mission_attitude>
        <time_boot_ms>117180000</time_boot_ms>
        <roll>0.0174532924</roll>
        <pitch>-0.04886922</pitch>
        <yaw>0.9599311</yaw>
        <rollspeed>0</rollspeed>
        <pitchspeed>0</pitchspeed>
        <yawspeed>0</yawspeed>
      </mission_attitude>
    </posture>
    <posture>
      <time>2019-04-11T17:46:09.8599086+08:00</time>
      <mission_attitude>
        <time_boot_ms>117860000</time_boot_ms>
        <roll>0.0174532924</roll>
        <pitch>-0.04886922</pitch>
        <yaw>0.9599311</yaw>
        <rollspeed>0</rollspeed>
        <pitchspeed>0</pitchspeed>
        <yawspeed>0</yawspeed>
      </mission_attitude>
    </posture>
    <posture>
      <time>2019-04-11T17:46:10.5599487+08:00</time>
      <mission_attitude>
        <time_boot_ms>118560000</time_boot_ms>
        <roll>0.0157079622</roll>
        <pitch>-0.04886922</pitch>
        <yaw>0.9599311</yaw>
        <rollspeed>0</rollspeed>
        <pitchspeed>0</pitchspeed>
        <yawspeed>0</yawspeed>
      </mission_attitude>
    </posture>
    <posture>
      <time>2019-04-11T17:46:11.4600002+08:00</time>
      <mission_attitude>
        <time_boot_ms>119460000</time_boot_ms>
        <roll>0.0157079622</roll>
        <pitch>-0.04712389</pitch>
        <yaw>0.9599311</yaw>
        <rollspeed>0</rollspeed>
        <pitchspeed>0</pitchspeed>
        <yawspeed>0</yawspeed>
      </mission_attitude>
    </posture>
    <posture>
      <time>2019-04-11T17:46:12.1100373+08:00</time>
      <mission_attitude>
        <time_boot_ms>120140000</time_boot_ms>
        <roll>0.0157079622</roll>
        <pitch>-0.04712389</pitch>
        <yaw>0.9599311</yaw>
        <rollspeed>0</rollspeed>
        <pitchspeed>0</pitchspeed>
        <yawspeed>0</yawspeed>
      </mission_attitude>
    </posture>
    <posture>
      <time>2019-04-11T17:46:12.8100774+08:00</time>
      <mission_attitude>
        <time_boot_ms>120820000</time_boot_ms>
        <roll>0.0157079622</roll>
        <pitch>-0.04712389</pitch>
        <yaw>0.9599311</yaw>
        <rollspeed>0</rollspeed>
        <pitchspeed>0</pitchspeed>
        <yawspeed>0</yawspeed>
      </mission_attitude>
    </posture>
    <posture>
      <time>2019-04-11T17:46:13.7101289+08:00</time>
      <mission_attitude>
        <time_boot_ms>121720000</time_boot_ms>
        <roll>0.0157079622</roll>
        <pitch>-0.04712389</pitch>
        <yaw>0.9599311</yaw>
        <rollspeed>0</rollspeed>
        <pitchspeed>0</pitchspeed>
        <yawspeed>0</yawspeed>
      </mission_attitude>
    </posture>
    <posture>
      <time>2019-04-11T17:46:14.360166+08:00</time>
      <mission_attitude>
        <time_boot_ms>122380000</time_boot_ms>
        <roll>0.0157079622</roll>
        <pitch>-0.04537856</pitch>
        <yaw>0.9599311</yaw>
        <rollspeed>0</rollspeed>
        <pitchspeed>0</pitchspeed>
        <yawspeed>0</yawspeed>
      </mission_attitude>
    </posture>
    <posture>
      <time>2019-04-11T17:46:15.0602061+08:00</time>
      <mission_attitude>
        <time_boot_ms>123060000</time_boot_ms>
        <roll>0.0139626339</roll>
        <pitch>-0.04537856</pitch>
        <yaw>0.9599311</yaw>
        <rollspeed>0</rollspeed>
        <pitchspeed>0</pitchspeed>
        <yawspeed>0</yawspeed>
      </mission_attitude>
    </posture>
    <posture>
      <time>2019-04-11T17:46:15.9602576+08:00</time>
      <mission_attitude>
        <time_boot_ms>123960000</time_boot_ms>
        <roll>0.0139626339</roll>
        <pitch>-0.04537856</pitch>
        <yaw>0.9599311</yaw>
        <rollspeed>0</rollspeed>
        <pitchspeed>0</pitchspeed>
        <yawspeed>0</yawspeed>
      </mission_attitude>
    </posture>
    <posture>
      <time>2019-04-11T17:46:16.6102947+08:00</time>
      <mission_attitude>
        <time_boot_ms>124640000</time_boot_ms>
        <roll>0.0139626339</roll>
        <pitch>-0.04537856</pitch>
        <yaw>0.9599311</yaw>
        <rollspeed>0</rollspeed>
        <pitchspeed>0</pitchspeed>
        <yawspeed>0</yawspeed>
      </mission_attitude>
    </posture>
    <posture>
      <time>2019-04-11T17:46:17.3103348+08:00</time>
      <mission_attitude>
        <time_boot_ms>125320000</time_boot_ms>
        <roll>0.0139626339</roll>
        <pitch>-0.04537856</pitch>
        <yaw>0.9599311</yaw>
        <rollspeed>0</rollspeed>
        <pitchspeed>0</pitchspeed>
        <yawspeed>0</yawspeed>
      </mission_attitude>
    </posture>
    <posture>
      <time>2019-04-11T17:46:18.2103863+08:00</time>
      <mission_attitude>
        <time_boot_ms>126240000</time_boot_ms>
        <roll>0.0139626339</roll>
        <pitch>-0.04537856</pitch>
        <yaw>0.9599311</yaw>
        <rollspeed>0</rollspeed>
        <pitchspeed>0</pitchspeed>
        <yawspeed>0</yawspeed>
      </mission_attitude>
    </posture>
    <posture>
      <time>2019-04-11T17:46:18.8604234+08:00</time>
      <mission_attitude>
        <time_boot_ms>126900000</time_boot_ms>
        <roll>0.0139626339</roll>
        <pitch>-0.04537856</pitch>
        <yaw>0.9599311</yaw>
        <rollspeed>0</rollspeed>
        <pitchspeed>0</pitchspeed>
        <yawspeed>0</yawspeed>
      </mission_attitude>
    </posture>
    <posture>
      <time>2019-04-11T17:46:19.5604635+08:00</time>
      <mission_attitude>
        <time_boot_ms>127580000</time_boot_ms>
        <roll>0.0139626339</roll>
        <pitch>-0.04363323</pitch>
        <yaw>0.9599311</yaw>
        <rollspeed>0</rollspeed>
        <pitchspeed>0</pitchspeed>
        <yawspeed>0</yawspeed>
      </mission_attitude>
    </posture>
    <posture>
      <time>2019-04-11T17:46:20.460515+08:00</time>
      <mission_attitude>
        <time_boot_ms>128480000</time_boot_ms>
        <roll>0.0139626339</roll>
        <pitch>-0.04537856</pitch>
        <yaw>0.9599311</yaw>
        <rollspeed>0</rollspeed>
        <pitchspeed>0</pitchspeed>
        <yawspeed>0</yawspeed>
      </mission_attitude>
    </posture>
    <posture>
      <time>2019-04-11T17:46:21.160555+08:00</time>
      <mission_attitude>
        <time_boot_ms>129160000</time_boot_ms>
        <roll>-0.006981317</roll>
        <pitch>-0.01919862</pitch>
        <yaw>0.9599311</yaw>
        <rollspeed>0</rollspeed>
        <pitchspeed>0</pitchspeed>
        <yawspeed>0</yawspeed>
      </mission_attitude>
    </posture>
    <posture>
      <time>2019-04-11T17:46:21.8105922+08:00</time>
      <mission_attitude>
        <time_boot_ms>129840000</time_boot_ms>
        <roll>-0.00523598772</roll>
        <pitch>-0.01919862</pitch>
        <yaw>0.9599311</yaw>
        <rollspeed>0</rollspeed>
        <pitchspeed>0</pitchspeed>
        <yawspeed>0</yawspeed>
      </mission_attitude>
    </posture>
    <posture>
      <time>2019-04-11T17:46:22.7106437+08:00</time>
      <mission_attitude>
        <time_boot_ms>130740000</time_boot_ms>
        <roll>-0.4956735</roll>
        <pitch>-0.139626339</pitch>
        <yaw>0.9250245</yaw>
        <rollspeed>0</rollspeed>
        <pitchspeed>0</pitchspeed>
        <yawspeed>0</yawspeed>
      </mission_attitude>
    </posture>
    <posture>
      <time>2019-04-11T17:46:23.4106837+08:00</time>
      <mission_attitude>
        <time_boot_ms>131420000</time_boot_ms>
        <roll>-0.0174532924</roll>
        <pitch>-0.01919862</pitch>
        <yaw>0.942477763</yaw>
        <rollspeed>0</rollspeed>
        <pitchspeed>0</pitchspeed>
        <yawspeed>0</yawspeed>
      </mission_attitude>
    </posture>
    <posture>
      <time>2019-04-11T17:46:24.1107237+08:00</time>
      <mission_attitude>
        <time_boot_ms>132100000</time_boot_ms>
        <roll>-0.0122173047</roll>
        <pitch>-0.02443461</pitch>
        <yaw>0.942477763</yaw>
        <rollspeed>0</rollspeed>
        <pitchspeed>0</pitchspeed>
        <yawspeed>0</yawspeed>
      </mission_attitude>
    </posture>
  </listposture>
  <listsysstatus>
    <sysstatus>
      <time>2019-04-11T17:45:13.7106971+08:00</time>
      <mission_sysstatus>
        <onboard_control_sensors_present>3</onboard_control_sensors_present>
        <onboard_control_sensors_enabled>0</onboard_control_sensors_enabled>
        <onboard_control_sensors_health>0</onboard_control_sensors_health>
        <load>0</load>
        <voltage_battery>12399</voltage_battery>
        <current_battery>15</current_battery>
        <drop_rate_comm>0</drop_rate_comm>
        <errors_comm>0</errors_comm>
        <errors_count1>0</errors_count1>
        <errors_count2>0</errors_count2>
        <errors_count3>0</errors_count3>
        <errors_count4>0</errors_count4>
        <battery_remaining>0</battery_remaining>
      </mission_sysstatus>
    </sysstatus>
    <sysstatus>
      <time>2019-04-11T17:45:15.9608258+08:00</time>
      <mission_sysstatus>
        <onboard_control_sensors_present>3</onboard_control_sensors_present>
        <onboard_control_sensors_enabled>0</onboard_control_sensors_enabled>
        <onboard_control_sensors_health>0</onboard_control_sensors_health>
        <load>0</load>
        <voltage_battery>12380</voltage_battery>
        <current_battery>13</current_battery>
        <drop_rate_comm>0</drop_rate_comm>
        <errors_comm>0</errors_comm>
        <errors_count1>0</errors_count1>
        <errors_count2>0</errors_count2>
        <errors_count3>0</errors_count3>
        <errors_count4>0</errors_count4>
        <battery_remaining>0</battery_remaining>
      </mission_sysstatus>
    </sysstatus>
    <sysstatus>
      <time>2019-04-11T17:45:18.2099544+08:00</time>
      <mission_sysstatus>
        <onboard_control_sensors_present>3</onboard_control_sensors_present>
        <onboard_control_sensors_enabled>0</onboard_control_sensors_enabled>
        <onboard_control_sensors_health>0</onboard_control_sensors_health>
        <load>0</load>
        <voltage_battery>12423</voltage_battery>
        <current_battery>17</current_battery>
        <drop_rate_comm>0</drop_rate_comm>
        <errors_comm>0</errors_comm>
        <errors_count1>0</errors_count1>
        <errors_count2>0</errors_count2>
        <errors_count3>0</errors_count3>
        <errors_count4>0</errors_count4>
        <battery_remaining>0</battery_remaining>
      </mission_sysstatus>
    </sysstatus>
    <sysstatus>
      <time>2019-04-11T17:45:20.510086+08:00</time>
      <mission_sysstatus>
        <onboard_control_sensors_present>3</onboard_control_sensors_present>
        <onboard_control_sensors_enabled>0</onboard_control_sensors_enabled>
        <onboard_control_sensors_health>0</onboard_control_sensors_health>
        <load>0</load>
        <voltage_battery>12384</voltage_battery>
        <current_battery>19</current_battery>
        <drop_rate_comm>0</drop_rate_comm>
        <errors_comm>0</errors_comm>
        <errors_count1>0</errors_count1>
        <errors_count2>0</errors_count2>
        <errors_count3>0</errors_count3>
        <errors_count4>0</errors_count4>
        <battery_remaining>0</battery_remaining>
      </mission_sysstatus>
    </sysstatus>
    <sysstatus>
      <time>2019-04-11T17:45:22.7602147+08:00</time>
      <mission_sysstatus>
        <onboard_control_sensors_present>3</onboard_control_sensors_present>
        <onboard_control_sensors_enabled>0</onboard_control_sensors_enabled>
        <onboard_control_sensors_health>0</onboard_control_sensors_health>
        <load>0</load>
        <voltage_battery>12390</voltage_battery>
        <current_battery>21</current_battery>
        <drop_rate_comm>0</drop_rate_comm>
        <errors_comm>0</errors_comm>
        <errors_count1>0</errors_count1>
        <errors_count2>0</errors_count2>
        <errors_count3>0</errors_count3>
        <errors_count4>0</errors_count4>
        <battery_remaining>0</battery_remaining>
      </mission_sysstatus>
    </sysstatus>
    <sysstatus>
      <time>2019-04-11T17:45:25.0103434+08:00</time>
      <mission_sysstatus>
        <onboard_control_sensors_present>3</onboard_control_sensors_present>
        <onboard_control_sensors_enabled>0</onboard_control_sensors_enabled>
        <onboard_control_sensors_health>0</onboard_control_sensors_health>
        <load>0</load>
        <voltage_battery>12385</voltage_battery>
        <current_battery>18</current_battery>
        <drop_rate_comm>0</drop_rate_comm>
        <errors_comm>0</errors_comm>
        <errors_count1>0</errors_count1>
        <errors_count2>0</errors_count2>
        <errors_count3>0</errors_count3>
        <errors_count4>0</errors_count4>
        <battery_remaining>0</battery_remaining>
      </mission_sysstatus>
    </sysstatus>
    <sysstatus>
      <time>2019-04-11T17:45:27.8105035+08:00</time>
      <mission_sysstatus>
        <onboard_control_sensors_present>3</onboard_control_sensors_present>
        <onboard_control_sensors_enabled>0</onboard_control_sensors_enabled>
        <onboard_control_sensors_health>0</onboard_control_sensors_health>
        <load>0</load>
        <voltage_battery>12438</voltage_battery>
        <current_battery>16</current_battery>
        <drop_rate_comm>0</drop_rate_comm>
        <errors_comm>0</errors_comm>
        <errors_count1>0</errors_count1>
        <errors_count2>0</errors_count2>
        <errors_count3>0</errors_count3>
        <errors_count4>0</errors_count4>
        <battery_remaining>0</battery_remaining>
      </mission_sysstatus>
    </sysstatus>
    <sysstatus>
      <time>2019-04-11T17:45:30.0606322+08:00</time>
      <mission_sysstatus>
        <onboard_control_sensors_present>3</onboard_control_sensors_present>
        <onboard_control_sensors_enabled>0</onboard_control_sensors_enabled>
        <onboard_control_sensors_health>0</onboard_control_sensors_health>
        <load>0</load>
        <voltage_battery>12387</voltage_battery>
        <current_battery>20</current_battery>
        <drop_rate_comm>0</drop_rate_comm>
        <errors_comm>0</errors_comm>
        <errors_count1>0</errors_count1>
        <errors_count2>0</errors_count2>
        <errors_count3>0</errors_count3>
        <errors_count4>0</errors_count4>
        <battery_remaining>0</battery_remaining>
      </mission_sysstatus>
    </sysstatus>
    <sysstatus>
      <time>2019-04-11T17:45:32.3607638+08:00</time>
      <mission_sysstatus>
        <onboard_control_sensors_present>3</onboard_control_sensors_present>
        <onboard_control_sensors_enabled>0</onboard_control_sensors_enabled>
        <onboard_control_sensors_health>0</onboard_control_sensors_health>
        <load>0</load>
        <voltage_battery>12387</voltage_battery>
        <current_battery>15</current_battery>
        <drop_rate_comm>0</drop_rate_comm>
        <errors_comm>0</errors_comm>
        <errors_count1>0</errors_count1>
        <errors_count2>0</errors_count2>
        <errors_count3>0</errors_count3>
        <errors_count4>0</errors_count4>
        <battery_remaining>0</battery_remaining>
      </mission_sysstatus>
    </sysstatus>
    <sysstatus>
      <time>2019-04-11T17:45:34.6108925+08:00</time>
      <mission_sysstatus>
        <onboard_control_sensors_present>3</onboard_control_sensors_present>
        <onboard_control_sensors_enabled>0</onboard_control_sensors_enabled>
        <onboard_control_sensors_health>0</onboard_control_sensors_health>
        <load>0</load>
        <voltage_battery>12381</voltage_battery>
        <current_battery>19</current_battery>
        <drop_rate_comm>0</drop_rate_comm>
        <errors_comm>0</errors_comm>
        <errors_count1>0</errors_count1>
        <errors_count2>0</errors_count2>
        <errors_count3>0</errors_count3>
        <errors_count4>0</errors_count4>
        <battery_remaining>0</battery_remaining>
      </mission_sysstatus>
    </sysstatus>
    <sysstatus>
      <time>2019-04-11T17:45:36.910024+08:00</time>
      <mission_sysstatus>
        <onboard_control_sensors_present>3</onboard_control_sensors_present>
        <onboard_control_sensors_enabled>0</onboard_control_sensors_enabled>
        <onboard_control_sensors_health>0</onboard_control_sensors_health>
        <load>0</load>
        <voltage_battery>12413</voltage_battery>
        <current_battery>12</current_battery>
        <drop_rate_comm>0</drop_rate_comm>
        <errors_comm>0</errors_comm>
        <errors_count1>0</errors_count1>
        <errors_count2>0</errors_count2>
        <errors_count3>0</errors_count3>
        <errors_count4>0</errors_count4>
        <battery_remaining>0</battery_remaining>
      </mission_sysstatus>
    </sysstatus>
    <sysstatus>
      <time>2019-04-11T17:45:39.1601527+08:00</time>
      <mission_sysstatus>
        <onboard_control_sensors_present>3</onboard_control_sensors_present>
        <onboard_control_sensors_enabled>0</onboard_control_sensors_enabled>
        <onboard_control_sensors_health>0</onboard_control_sensors_health>
        <load>0</load>
        <voltage_battery>12384</voltage_battery>
        <current_battery>15</current_battery>
        <drop_rate_comm>0</drop_rate_comm>
        <errors_comm>0</errors_comm>
        <errors_count1>0</errors_count1>
        <errors_count2>0</errors_count2>
        <errors_count3>0</errors_count3>
        <errors_count4>0</errors_count4>
        <battery_remaining>0</battery_remaining>
      </mission_sysstatus>
    </sysstatus>
    <sysstatus>
      <time>2019-04-11T17:45:41.4102814+08:00</time>
      <mission_sysstatus>
        <onboard_control_sensors_present>3</onboard_control_sensors_present>
        <onboard_control_sensors_enabled>0</onboard_control_sensors_enabled>
        <onboard_control_sensors_health>0</onboard_control_sensors_health>
        <load>0</load>
        <voltage_battery>12397</voltage_battery>
        <current_battery>17</current_battery>
        <drop_rate_comm>0</drop_rate_comm>
        <errors_comm>0</errors_comm>
        <errors_count1>0</errors_count1>
        <errors_count2>0</errors_count2>
        <errors_count3>0</errors_count3>
        <errors_count4>0</errors_count4>
        <battery_remaining>0</battery_remaining>
      </mission_sysstatus>
    </sysstatus>
    <sysstatus>
      <time>2019-04-11T17:45:43.710413+08:00</time>
      <mission_sysstatus>
        <onboard_control_sensors_present>3</onboard_control_sensors_present>
        <onboard_control_sensors_enabled>0</onboard_control_sensors_enabled>
        <onboard_control_sensors_health>0</onboard_control_sensors_health>
        <load>0</load>
        <voltage_battery>12384</voltage_battery>
        <current_battery>19</current_battery>
        <drop_rate_comm>0</drop_rate_comm>
        <errors_comm>0</errors_comm>
        <errors_count1>0</errors_count1>
        <errors_count2>0</errors_count2>
        <errors_count3>0</errors_count3>
        <errors_count4>0</errors_count4>
        <battery_remaining>0</battery_remaining>
      </mission_sysstatus>
    </sysstatus>
    <sysstatus>
      <time>2019-04-11T17:45:45.9605417+08:00</time>
      <mission_sysstatus>
        <onboard_control_sensors_present>3</onboard_control_sensors_present>
        <onboard_control_sensors_enabled>0</onboard_control_sensors_enabled>
        <onboard_control_sensors_health>0</onboard_control_sensors_health>
        <load>0</load>
        <voltage_battery>12425</voltage_battery>
        <current_battery>14</current_battery>
        <drop_rate_comm>0</drop_rate_comm>
        <errors_comm>0</errors_comm>
        <errors_count1>0</errors_count1>
        <errors_count2>0</errors_count2>
        <errors_count3>0</errors_count3>
        <errors_count4>0</errors_count4>
        <battery_remaining>0</battery_remaining>
      </mission_sysstatus>
    </sysstatus>
    <sysstatus>
      <time>2019-04-11T17:45:48.2106704+08:00</time>
      <mission_sysstatus>
        <onboard_control_sensors_present>3</onboard_control_sensors_present>
        <onboard_control_sensors_enabled>0</onboard_control_sensors_enabled>
        <onboard_control_sensors_health>0</onboard_control_sensors_health>
        <load>0</load>
        <voltage_battery>12389</voltage_battery>
        <current_battery>20</current_battery>
        <drop_rate_comm>0</drop_rate_comm>
        <errors_comm>0</errors_comm>
        <errors_count1>0</errors_count1>
        <errors_count2>0</errors_count2>
        <errors_count3>0</errors_count3>
        <errors_count4>0</errors_count4>
        <battery_remaining>0</battery_remaining>
      </mission_sysstatus>
    </sysstatus>
    <sysstatus>
      <time>2019-04-11T17:45:50.4607991+08:00</time>
      <mission_sysstatus>
        <onboard_control_sensors_present>3</onboard_control_sensors_present>
        <onboard_control_sensors_enabled>0</onboard_control_sensors_enabled>
        <onboard_control_sensors_health>0</onboard_control_sensors_health>
        <load>0</load>
        <voltage_battery>12381</voltage_battery>
        <current_battery>17</current_battery>
        <drop_rate_comm>0</drop_rate_comm>
        <errors_comm>0</errors_comm>
        <errors_count1>0</errors_count1>
        <errors_count2>0</errors_count2>
        <errors_count3>0</errors_count3>
        <errors_count4>0</errors_count4>
        <battery_remaining>0</battery_remaining>
      </mission_sysstatus>
    </sysstatus>
    <sysstatus>
      <time>2019-04-11T17:45:52.7099277+08:00</time>
      <mission_sysstatus>
        <onboard_control_sensors_present>3</onboard_control_sensors_present>
        <onboard_control_sensors_enabled>0</onboard_control_sensors_enabled>
        <onboard_control_sensors_health>0</onboard_control_sensors_health>
        <load>0</load>
        <voltage_battery>12378</voltage_battery>
        <current_battery>19</current_battery>
        <drop_rate_comm>0</drop_rate_comm>
        <errors_comm>0</errors_comm>
        <errors_count1>0</errors_count1>
        <errors_count2>0</errors_count2>
        <errors_count3>0</errors_count3>
        <errors_count4>0</errors_count4>
        <battery_remaining>0</battery_remaining>
      </mission_sysstatus>
    </sysstatus>
    <sysstatus>
      <time>2019-04-11T17:45:55.0100593+08:00</time>
      <mission_sysstatus>
        <onboard_control_sensors_present>3</onboard_control_sensors_present>
        <onboard_control_sensors_enabled>0</onboard_control_sensors_enabled>
        <onboard_control_sensors_health>0</onboard_control_sensors_health>
        <load>0</load>
        <voltage_battery>12394</voltage_battery>
        <current_battery>17</current_battery>
        <drop_rate_comm>0</drop_rate_comm>
        <errors_comm>0</errors_comm>
        <errors_count1>0</errors_count1>
        <errors_count2>0</errors_count2>
        <errors_count3>0</errors_count3>
        <errors_count4>0</errors_count4>
        <battery_remaining>0</battery_remaining>
      </mission_sysstatus>
    </sysstatus>
    <sysstatus>
      <time>2019-04-11T17:45:57.260188+08:00</time>
      <mission_sysstatus>
        <onboard_control_sensors_present>3</onboard_control_sensors_present>
        <onboard_control_sensors_enabled>0</onboard_control_sensors_enabled>
        <onboard_control_sensors_health>0</onboard_control_sensors_health>
        <load>0</load>
        <voltage_battery>12387</voltage_battery>
        <current_battery>18</current_battery>
        <drop_rate_comm>0</drop_rate_comm>
        <errors_comm>0</errors_comm>
        <errors_count1>0</errors_count1>
        <errors_count2>0</errors_count2>
        <errors_count3>0</errors_count3>
        <errors_count4>0</errors_count4>
        <battery_remaining>0</battery_remaining>
      </mission_sysstatus>
    </sysstatus>
    <sysstatus>
      <time>2019-04-11T17:45:59.5103167+08:00</time>
      <mission_sysstatus>
        <onboard_control_sensors_present>3</onboard_control_sensors_present>
        <onboard_control_sensors_enabled>0</onboard_control_sensors_enabled>
        <onboard_control_sensors_health>0</onboard_control_sensors_health>
        <load>0</load>
        <voltage_battery>12378</voltage_battery>
        <current_battery>18</current_battery>
        <drop_rate_comm>0</drop_rate_comm>
        <errors_comm>0</errors_comm>
        <errors_count1>0</errors_count1>
        <errors_count2>0</errors_count2>
        <errors_count3>0</errors_count3>
        <errors_count4>0</errors_count4>
        <battery_remaining>0</battery_remaining>
      </mission_sysstatus>
    </sysstatus>
    <sysstatus>
      <time>2019-04-11T17:46:01.7104425+08:00</time>
      <mission_sysstatus>
        <onboard_control_sensors_present>3</onboard_control_sensors_present>
        <onboard_control_sensors_enabled>0</onboard_control_sensors_enabled>
        <onboard_control_sensors_health>0</onboard_control_sensors_health>
        <load>0</load>
        <voltage_battery>12383</voltage_battery>
        <current_battery>18</current_battery>
        <drop_rate_comm>0</drop_rate_comm>
        <errors_comm>0</errors_comm>
        <errors_count1>0</errors_count1>
        <errors_count2>0</errors_count2>
        <errors_count3>0</errors_count3>
        <errors_count4>0</errors_count4>
        <battery_remaining>0</battery_remaining>
      </mission_sysstatus>
    </sysstatus>
    <sysstatus>
      <time>2019-04-11T17:46:03.9605712+08:00</time>
      <mission_sysstatus>
        <onboard_control_sensors_present>3</onboard_control_sensors_present>
        <onboard_control_sensors_enabled>0</onboard_control_sensors_enabled>
        <onboard_control_sensors_health>0</onboard_control_sensors_health>
        <load>0</load>
        <voltage_battery>12389</voltage_battery>
        <current_battery>22</current_battery>
        <drop_rate_comm>0</drop_rate_comm>
        <errors_comm>0</errors_comm>
        <errors_count1>0</errors_count1>
        <errors_count2>0</errors_count2>
        <errors_count3>0</errors_count3>
        <errors_count4>0</errors_count4>
        <battery_remaining>0</battery_remaining>
      </mission_sysstatus>
    </sysstatus>
    <sysstatus>
      <time>2019-04-11T17:46:06.2106999+08:00</time>
      <mission_sysstatus>
        <onboard_control_sensors_present>3</onboard_control_sensors_present>
        <onboard_control_sensors_enabled>0</onboard_control_sensors_enabled>
        <onboard_control_sensors_health>0</onboard_control_sensors_health>
        <load>0</load>
        <voltage_battery>12382</voltage_battery>
        <current_battery>21</current_battery>
        <drop_rate_comm>0</drop_rate_comm>
        <errors_comm>0</errors_comm>
        <errors_count1>0</errors_count1>
        <errors_count2>0</errors_count2>
        <errors_count3>0</errors_count3>
        <errors_count4>0</errors_count4>
        <battery_remaining>0</battery_remaining>
      </mission_sysstatus>
    </sysstatus>
    <sysstatus>
      <time>2019-04-11T17:46:08.5108315+08:00</time>
      <mission_sysstatus>
        <onboard_control_sensors_present>3</onboard_control_sensors_present>
        <onboard_control_sensors_enabled>0</onboard_control_sensors_enabled>
        <onboard_control_sensors_health>0</onboard_control_sensors_health>
        <load>0</load>
        <voltage_battery>12352</voltage_battery>
        <current_battery>21</current_battery>
        <drop_rate_comm>0</drop_rate_comm>
        <errors_comm>0</errors_comm>
        <errors_count1>0</errors_count1>
        <errors_count2>0</errors_count2>
        <errors_count3>0</errors_count3>
        <errors_count4>0</errors_count4>
        <battery_remaining>0</battery_remaining>
      </mission_sysstatus>
    </sysstatus>
    <sysstatus>
      <time>2019-04-11T17:46:10.7599601+08:00</time>
      <mission_sysstatus>
        <onboard_control_sensors_present>3</onboard_control_sensors_present>
        <onboard_control_sensors_enabled>0</onboard_control_sensors_enabled>
        <onboard_control_sensors_health>0</onboard_control_sensors_health>
        <load>0</load>
        <voltage_battery>12386</voltage_battery>
        <current_battery>14</current_battery>
        <drop_rate_comm>0</drop_rate_comm>
        <errors_comm>0</errors_comm>
        <errors_count1>0</errors_count1>
        <errors_count2>0</errors_count2>
        <errors_count3>0</errors_count3>
        <errors_count4>0</errors_count4>
        <battery_remaining>0</battery_remaining>
      </mission_sysstatus>
    </sysstatus>
    <sysstatus>
      <time>2019-04-11T17:46:13.0600917+08:00</time>
      <mission_sysstatus>
        <onboard_control_sensors_present>3</onboard_control_sensors_present>
        <onboard_control_sensors_enabled>0</onboard_control_sensors_enabled>
        <onboard_control_sensors_health>0</onboard_control_sensors_health>
        <load>0</load>
        <voltage_battery>12381</voltage_battery>
        <current_battery>17</current_battery>
        <drop_rate_comm>0</drop_rate_comm>
        <errors_comm>0</errors_comm>
        <errors_count1>0</errors_count1>
        <errors_count2>0</errors_count2>
        <errors_count3>0</errors_count3>
        <errors_count4>0</errors_count4>
        <battery_remaining>0</battery_remaining>
      </mission_sysstatus>
    </sysstatus>
    <sysstatus>
      <time>2019-04-11T17:46:15.2602175+08:00</time>
      <mission_sysstatus>
        <onboard_control_sensors_present>3</onboard_control_sensors_present>
        <onboard_control_sensors_enabled>0</onboard_control_sensors_enabled>
        <onboard_control_sensors_health>0</onboard_control_sensors_health>
        <load>0</load>
        <voltage_battery>12378</voltage_battery>
        <current_battery>17</current_battery>
        <drop_rate_comm>0</drop_rate_comm>
        <errors_comm>0</errors_comm>
        <errors_count1>0</errors_count1>
        <errors_count2>0</errors_count2>
        <errors_count3>0</errors_count3>
        <errors_count4>0</errors_count4>
        <battery_remaining>0</battery_remaining>
      </mission_sysstatus>
    </sysstatus>
    <sysstatus>
      <time>2019-04-11T17:46:17.5603491+08:00</time>
      <mission_sysstatus>
        <onboard_control_sensors_present>3</onboard_control_sensors_present>
        <onboard_control_sensors_enabled>0</onboard_control_sensors_enabled>
        <onboard_control_sensors_health>0</onboard_control_sensors_health>
        <load>0</load>
        <voltage_battery>12380</voltage_battery>
        <current_battery>19</current_battery>
        <drop_rate_comm>0</drop_rate_comm>
        <errors_comm>0</errors_comm>
        <errors_count1>0</errors_count1>
        <errors_count2>0</errors_count2>
        <errors_count3>0</errors_count3>
        <errors_count4>0</errors_count4>
        <battery_remaining>0</battery_remaining>
      </mission_sysstatus>
    </sysstatus>
    <sysstatus>
      <time>2019-04-11T17:46:19.8104778+08:00</time>
      <mission_sysstatus>
        <onboard_control_sensors_present>3</onboard_control_sensors_present>
        <onboard_control_sensors_enabled>0</onboard_control_sensors_enabled>
        <onboard_control_sensors_health>0</onboard_control_sensors_health>
        <load>0</load>
        <voltage_battery>12381</voltage_battery>
        <current_battery>18</current_battery>
        <drop_rate_comm>0</drop_rate_comm>
        <errors_comm>0</errors_comm>
        <errors_count1>0</errors_count1>
        <errors_count2>0</errors_count2>
        <errors_count3>0</errors_count3>
        <errors_count4>0</errors_count4>
        <battery_remaining>0</battery_remaining>
      </mission_sysstatus>
    </sysstatus>
    <sysstatus>
      <time>2019-04-11T17:46:22.0106036+08:00</time>
      <mission_sysstatus>
        <onboard_control_sensors_present>3</onboard_control_sensors_present>
        <onboard_control_sensors_enabled>0</onboard_control_sensors_enabled>
        <onboard_control_sensors_health>0</onboard_control_sensors_health>
        <load>0</load>
        <voltage_battery>12383</voltage_battery>
        <current_battery>22</current_battery>
        <drop_rate_comm>0</drop_rate_comm>
        <errors_comm>0</errors_comm>
        <errors_count1>0</errors_count1>
        <errors_count2>0</errors_count2>
        <errors_count3>0</errors_count3>
        <errors_count4>0</errors_count4>
        <battery_remaining>0</battery_remaining>
      </mission_sysstatus>
    </sysstatus>
  </listsysstatus>
  <listposition>
    <position>
      <time>2019-04-11T17:45:13.9607114+08:00</time>
      <mission_position>
        <time_boot_ms>61960000</time_boot_ms>
        <lat>0</lat>
        <lon>0</lon>
        <alt>0</alt>
        <relative_alt>-140</relative_alt>
        <vx>0</vx>
        <vy>0</vy>
        <vz>0</vz>
        <hdg>5600</hdg>
      </mission_position>
    </position>
    <position>
      <time>2019-04-11T17:45:14.8607629+08:00</time>
      <mission_position>
        <time_boot_ms>62860000</time_boot_ms>
