<?xml version="1.0" encoding="utf-8"?>
<SerializeDataClass xmlns:xsi="http://www.w3.org/2001/XMLSchema-instance" xmlns:xsd="http://www.w3.org/2001/XMLSchema">
  <listposture>
    <posture>
      <time>2017-02-21T10:58:20.4073589+08:00</time>
      <mission_attitude>
        <time_boot_ms>11840000</time_boot_ms>
        <roll>-0.02094395</roll>
        <pitch>-0.0750491545</pitch>
        <yaw>2.25147462</yaw>
        <rollspeed>0</rollspeed>
        <pitchspeed>0</pitchspeed>
        <yawspeed>0</yawspeed>
      </mission_attitude>
    </posture>
    <posture>
      <time>2017-02-21T10:58:23.3075248+08:00</time>
      <mission_attitude>
        <time_boot_ms>640000</time_boot_ms>
        <roll>-0.01919862</roll>
        <pitch>-0.0750491545</pitch>
        <yaw>0</yaw>
        <rollspeed>0</rollspeed>
        <pitchspeed>0</pitchspeed>
        <yawspeed>0</yawspeed>
      </mission_attitude>
    </posture>
    <posture>
      <time>2017-02-21T10:58:24.3575849+08:00</time>
      <mission_attitude>
        <time_boot_ms>1680000</time_boot_ms>
        <roll>-0.01919862</roll>
        <pitch>-0.0750491545</pitch>
        <yaw>0</yaw>
        <rollspeed>0</rollspeed>
        <pitchspeed>0</pitchspeed>
        <yawspeed>0</yawspeed>
      </mission_attitude>
    </posture>
    <posture>
      <time>2017-02-21T10:58:25.4076449+08:00</time>
      <mission_attitude>
        <time_boot_ms>2700000</time_boot_ms>
        <roll>-0.0174532924</roll>
        <pitch>-0.0750491545</pitch>
        <yaw>2.37364769</yaw>
        <rollspeed>0</rollspeed>
        <pitchspeed>0</pitchspeed>
        <yawspeed>0</yawspeed>
      </mission_attitude>
    </posture>
    <posture>
      <time>2017-02-21T10:58:30.9569623+08:00</time>
      <mission_attitude>
        <time_boot_ms>640000</time_boot_ms>
        <roll>-0.0174532924</roll>
        <pitch>-0.0733038262</pitch>
        <yaw>0</yaw>
        <rollspeed>0</rollspeed>
        <pitchspeed>0</pitchspeed>
        <yawspeed>0</yawspeed>
      </mission_attitude>
    </posture>
    <posture>
      <time>2017-02-21T10:58:32.0070224+08:00</time>
      <mission_attitude>
        <time_boot_ms>1660000</time_boot_ms>
        <roll>-0.0174532924</roll>
        <pitch>-0.0733038262</pitch>
        <yaw>0</yaw>
        <rollspeed>0</rollspeed>
        <pitchspeed>0</pitchspeed>
        <yawspeed>0</yawspeed>
      </mission_attitude>
    </posture>
    <posture>
      <time>2017-02-21T10:58:33.0070796+08:00</time>
      <mission_attitude>
        <time_boot_ms>2700000</time_boot_ms>
        <roll>-0.0174532924</roll>
        <pitch>-0.0733038262</pitch>
        <yaw>2.3561945</yaw>
        <rollspeed>0</rollspeed>
        <pitchspeed>0</pitchspeed>
        <yawspeed>0</yawspeed>
      </mission_attitude>
    </posture>
    <posture>
      <time>2017-02-21T10:58:34.0071368+08:00</time>
      <mission_attitude>
        <time_boot_ms>3700000</time_boot_ms>
        <roll>-0.0174532924</roll>
        <pitch>-0.0733038262</pitch>
        <yaw>2.40855432</yaw>
        <rollspeed>0</rollspeed>
        <pitchspeed>0</pitchspeed>
        <yawspeed>0</yawspeed>
      </mission_attitude>
    </posture>
    <posture>
      <time>2017-02-21T10:58:35.007194+08:00</time>
      <mission_attitude>
        <time_boot_ms>4680000</time_boot_ms>
        <roll>-0.0157079622</roll>
        <pitch>-0.0733038262</pitch>
        <yaw>2.28638124</yaw>
        <rollspeed>0</rollspeed>
        <pitchspeed>0</pitchspeed>
        <yawspeed>0</yawspeed>
      </mission_attitude>
    </posture>
    <posture>
      <time>2017-02-21T10:58:36.0072512+08:00</time>
      <mission_attitude>
        <time_boot_ms>5660000</time_boot_ms>
        <roll>-0.0157079622</roll>
        <pitch>-0.0733038262</pitch>
        <yaw>2.42600751</yaw>
        <rollspeed>0</rollspeed>
        <pitchspeed>0</pitchspeed>
        <yawspeed>0</yawspeed>
      </mission_attitude>
    </posture>
    <posture>
      <time>2017-02-21T10:58:37.0083084+08:00</time>
      <mission_attitude>
        <time_boot_ms>6660000</time_boot_ms>
        <roll>-0.0157079622</roll>
        <pitch>-0.0733038262</pitch>
        <yaw>2.32128787</yaw>
        <rollspeed>0</rollspeed>
        <pitchspeed>0</pitchspeed>
        <yawspeed>0</yawspeed>
      </mission_attitude>
    </posture>
    <posture>
      <time>2017-02-21T10:58:38.0073656+08:00</time>
      <mission_attitude>
        <time_boot_ms>7660000</time_boot_ms>
        <roll>-0.0157079622</roll>
        <pitch>-0.0733038262</pitch>
        <yaw>2.37364769</yaw>
        <rollspeed>0</rollspeed>
        <pitchspeed>0</pitchspeed>
        <yawspeed>0</yawspeed>
      </mission_attitude>
    </posture>
    <posture>
      <time>2017-02-21T10:58:39.0074228+08:00</time>
      <mission_attitude>
        <time_boot_ms>8660000</time_boot_ms>
        <roll>-0.0157079622</roll>
        <pitch>-0.0733038262</pitch>
        <yaw>2.30383468</yaw>
        <rollspeed>0</rollspeed>
        <pitchspeed>0</pitchspeed>
        <yawspeed>0</yawspeed>
      </mission_attitude>
    </posture>
    <posture>
      <time>2017-02-21T10:58:40.0574828+08:00</time>
      <mission_attitude>
        <time_boot_ms>9680000</time_boot_ms>
        <roll>-0.0157079622</roll>
        <pitch>-0.0733038262</pitch>
        <yaw>2.338741</yaw>
        <rollspeed>0</rollspeed>
        <pitchspeed>0</pitchspeed>
        <yawspeed>0</yawspeed>
      </mission_attitude>
    </posture>
    <posture>
      <time>2017-02-21T10:58:41.05754+08:00</time>
      <mission_attitude>
        <time_boot_ms>10680000</time_boot_ms>
        <roll>-0.0157079622</roll>
        <pitch>-0.0733038262</pitch>
        <yaw>2.39110112</yaw>
        <rollspeed>0</rollspeed>
        <pitchspeed>0</pitchspeed>
        <yawspeed>0</yawspeed>
      </mission_attitude>
    </posture>
    <posture>
      <time>2017-02-21T10:58:42.0075944+08:00</time>
      <mission_attitude>
        <time_boot_ms>11660000</time_boot_ms>
        <roll>-0.0174532924</roll>
        <pitch>-0.0733038262</pitch>
        <yaw>2.28638124</yaw>
        <rollspeed>0</rollspeed>
        <pitchspeed>0</pitchspeed>
        <yawspeed>0</yawspeed>
      </mission_attitude>
    </posture>
    <posture>
      <time>2017-02-21T10:58:43.0076516+08:00</time>
      <mission_attitude>
        <time_boot_ms>12660000</time_boot_ms>
        <roll>-0.0157079622</roll>
        <pitch>-0.0733038262</pitch>
        <yaw>2.40855432</yaw>
        <rollspeed>0</rollspeed>
        <pitchspeed>0</pitchspeed>
        <yawspeed>0</yawspeed>
      </mission_attitude>
    </posture>
    <posture>
      <time>2017-02-21T10:58:44.0077088+08:00</time>
      <mission_attitude>
        <time_boot_ms>13640000</time_boot_ms>
        <roll>-0.0157079622</roll>
        <pitch>-0.0733038262</pitch>
        <yaw>2.40855432</yaw>
        <rollspeed>0</rollspeed>
        <pitchspeed>0</pitchspeed>
        <yawspeed>0</yawspeed>
      </mission_attitude>
    </posture>
    <posture>
      <time>2017-02-21T10:58:45.0067659+08:00</time>
      <mission_attitude>
        <time_boot_ms>14640000</time_boot_ms>
        <roll>-0.0157079622</roll>
        <pitch>-0.0733038262</pitch>
        <yaw>2.42600751</yaw>
        <rollspeed>0</rollspeed>
        <pitchspeed>0</pitchspeed>
        <yawspeed>0</yawspeed>
      </mission_attitude>
    </posture>
    <posture>
      <time>2017-02-21T10:58:46.0068231+08:00</time>
      <mission_attitude>
        <time_boot_ms>15620000</time_boot_ms>
        <roll>-0.0157079622</roll>
        <pitch>-0.0733038262</pitch>
        <yaw>2.42600751</yaw>
        <rollspeed>0</rollspeed>
        <pitchspeed>0</pitchspeed>
        <yawspeed>0</yawspeed>
      </mission_attitude>
    </posture>
    <posture>
      <time>2017-02-21T10:58:47.0068803+08:00</time>
      <mission_attitude>
        <time_boot_ms>16620000</time_boot_ms>
        <roll>-0.0157079622</roll>
        <pitch>-0.0733038262</pitch>
        <yaw>2.338741</yaw>
        <rollspeed>0</rollspeed>
        <pitchspeed>0</pitchspeed>
        <yawspeed>0</yawspeed>
      </mission_attitude>
    </posture>
    <posture>
      <time>2017-02-21T10:58:52.5071949+08:00</time>
      <mission_attitude>
        <time_boot_ms>640000</time_boot_ms>
        <roll>-0.0157079622</roll>
        <pitch>-0.0733038262</pitch>
        <yaw>0</yaw>
        <rollspeed>0</rollspeed>
        <pitchspeed>0</pitchspeed>
        <yawspeed>0</yawspeed>
      </mission_attitude>
    </posture>
    <posture>
      <time>2017-02-21T10:58:53.5072521+08:00</time>
      <mission_attitude>
        <time_boot_ms>1680000</time_boot_ms>
        <roll>-0.0157079622</roll>
        <pitch>-0.0733038262</pitch>
        <yaw>0</yaw>
        <rollspeed>0</rollspeed>
        <pitchspeed>0</pitchspeed>
        <yawspeed>0</yawspeed>
      </mission_attitude>
    </posture>
    <posture>
      <time>2017-02-21T10:58:54.5573122+08:00</time>
      <mission_attitude>
        <time_boot_ms>2700000</time_boot_ms>
        <roll>-0.0157079622</roll>
        <pitch>-0.0733038262</pitch>
        <yaw>2.39110112</yaw>
        <rollspeed>0</rollspeed>
        <pitchspeed>0</pitchspeed>
        <yawspeed>0</yawspeed>
      </mission_attitude>
    </posture>
    <posture>
      <time>2017-02-21T10:58:55.5573694+08:00</time>
      <mission_attitude>
        <time_boot_ms>3720000</time_boot_ms>
        <roll>-0.0157079622</roll>
        <pitch>-0.0733038262</pitch>
        <yaw>2.40855432</yaw>
        <rollspeed>0</rollspeed>
        <pitchspeed>0</pitchspeed>
        <yawspeed>0</yawspeed>
      </mission_attitude>
    </posture>
    <posture>
      <time>2017-02-21T10:58:56.6074294+08:00</time>
      <mission_attitude>
        <time_boot_ms>4720000</time_boot_ms>
        <roll>-0.0157079622</roll>
        <pitch>-0.0733038262</pitch>
        <yaw>2.338741</yaw>
        <rollspeed>0</rollspeed>
        <pitchspeed>0</pitchspeed>
        <yawspeed>0</yawspeed>
      </mission_attitude>
    </posture>
    <posture>
      <time>2017-02-21T10:58:57.5574838+08:00</time>
      <mission_attitude>
        <time_boot_ms>5700000</time_boot_ms>
        <roll>-0.0157079622</roll>
        <pitch>-0.0733038262</pitch>
        <yaw>2.338741</yaw>
        <rollspeed>0</rollspeed>
        <pitchspeed>0</pitchspeed>
        <yawspeed>0</yawspeed>
      </mission_attitude>
    </posture>
    <posture>
      <time>2017-02-21T10:58:58.557541+08:00</time>
      <mission_attitude>
        <time_boot_ms>6700000</time_boot_ms>
        <roll>-0.0157079622</roll>
        <pitch>-0.0733038262</pitch>
        <yaw>2.39110112</yaw>
        <rollspeed>-0.122173049</rollspeed>
        <pitchspeed>0.0174532924</pitchspeed>
        <yawspeed>-0.0349065848</yawspeed>
      </mission_attitude>
    </posture>
    <posture>
      <time>2017-02-21T10:58:59.5575982+08:00</time>
      <mission_attitude>
        <time_boot_ms>7680000</time_boot_ms>
        <roll>0.5794493</roll>
        <pitch>-0.0733038262</pitch>
        <yaw>2.40855432</yaw>
        <rollspeed>-0.0349065848</rollspeed>
        <pitchspeed>0</pitchspeed>
        <yawspeed>0</yawspeed>
      </mission_attitude>
    </posture>
    <posture>
      <time>2017-02-21T10:59:00.5076525+08:00</time>
      <mission_attitude>
        <time_boot_ms>8660000</time_boot_ms>
        <roll>0.6038839</roll>
        <pitch>-0.0733038262</pitch>
        <yaw>2.42600751</yaw>
        <rollspeed>0.279252678</rollspeed>
        <pitchspeed>0</pitchspeed>
        <yawspeed>0.0174532924</yawspeed>
      </mission_attitude>
    </posture>
    <posture>
      <time>2017-02-21T10:59:01.5077097+08:00</time>
      <mission_attitude>
        <time_boot_ms>9640000</time_boot_ms>
        <roll>0.006981317</roll>
        <pitch>-0.06981317</pitch>
        <yaw>2.37364769</yaw>
        <rollspeed>0</rollspeed>
        <pitchspeed>0</pitchspeed>
        <yawspeed>0</yawspeed>
      </mission_attitude>
    </posture>
    <posture>
      <time>2017-02-21T10:59:02.5067669+08:00</time>
      <mission_attitude>
        <time_boot_ms>10640000</time_boot_ms>
        <roll>0.00523598772</roll>
        <pitch>-0.06981317</pitch>
        <yaw>2.39110112</yaw>
        <rollspeed>0</rollspeed>
        <pitchspeed>0</pitchspeed>
        <yawspeed>0</yawspeed>
      </mission_attitude>
    </posture>
    <posture>
      <time>2017-02-21T10:59:03.5068241+08:00</time>
      <mission_attitude>
        <time_boot_ms>11620000</time_boot_ms>
        <roll>0.00349065848</roll>
        <pitch>-0.06981317</pitch>
        <yaw>2.37364769</yaw>
        <rollspeed>0</rollspeed>
        <pitchspeed>0</pitchspeed>
        <yawspeed>0</yawspeed>
      </mission_attitude>
    </posture>
    <posture>
      <time>2017-02-21T10:59:04.5068813+08:00</time>
      <mission_attitude>
        <time_boot_ms>12620000</time_boot_ms>
        <roll>0.00174532924</roll>
        <pitch>-0.06981317</pitch>
        <yaw>2.40855432</yaw>
        <rollspeed>0</rollspeed>
        <pitchspeed>0</pitchspeed>
        <yawspeed>0</yawspeed>
      </mission_attitude>
    </posture>
    <posture>
      <time>2017-02-21T10:59:05.5069385+08:00</time>
      <mission_attitude>
        <time_boot_ms>13600000</time_boot_ms>
        <roll>0</roll>
        <pitch>-0.06981317</pitch>
        <yaw>2.32128787</yaw>
        <rollspeed>0</rollspeed>
        <pitchspeed>0</pitchspeed>
        <yawspeed>0</yawspeed>
      </mission_attitude>
    </posture>
    <posture>
      <time>2017-02-21T10:59:06.5069957+08:00</time>
      <mission_attitude>
        <time_boot_ms>14600000</time_boot_ms>
        <roll>0</roll>
        <pitch>-0.0715585</pitch>
        <yaw>2.268928</yaw>
        <rollspeed>0</rollspeed>
        <pitchspeed>0</pitchspeed>
        <yawspeed>0</yawspeed>
      </mission_attitude>
    </posture>
    <posture>
      <time>2017-02-21T10:59:07.5070529+08:00</time>
      <mission_attitude>
        <time_boot_ms>15620000</time_boot_ms>
        <roll>0</roll>
        <pitch>-0.0715585</pitch>
        <yaw>2.28638124</yaw>
        <rollspeed>0.0174532924</rollspeed>
        <pitchspeed>0</pitchspeed>
        <yawspeed>0</yawspeed>
      </mission_attitude>
    </posture>
    <posture>
      <time>2017-02-21T10:59:10.1072016+08:00</time>
      <mission_attitude>
        <time_boot_ms>18160000</time_boot_ms>
        <roll>-0.00174532924</roll>
        <pitch>-0.0715585</pitch>
        <yaw>2.30383468</yaw>
        <rollspeed>0</rollspeed>
        <pitchspeed>0</pitchspeed>
        <yawspeed>0</yawspeed>
      </mission_attitude>
    </posture>
    <posture>
      <time>2017-02-21T10:59:11.1572616+08:00</time>
      <mission_attitude>
        <time_boot_ms>19200000</time_boot_ms>
        <roll>-0.00349065848</roll>
        <pitch>-0.0715585</pitch>
        <yaw>2.23402143</yaw>
        <rollspeed>0</rollspeed>
        <pitchspeed>0</pitchspeed>
        <yawspeed>0</yawspeed>
      </mission_attitude>
    </posture>
    <posture>
      <time>2017-02-21T10:59:13.5073961+08:00</time>
      <mission_attitude>
        <time_boot_ms>21580000</time_boot_ms>
        <roll>-0.00349065848</roll>
        <pitch>-0.0715585</pitch>
        <yaw>2.39110112</yaw>
        <rollspeed>0</rollspeed>
        <pitchspeed>0</pitchspeed>
        <yawspeed>0</yawspeed>
      </mission_attitude>
    </posture>
    <posture>
      <time>2017-02-21T10:59:14.5074533+08:00</time>
      <mission_attitude>
        <time_boot_ms>22580000</time_boot_ms>
        <roll>-0.00349065848</roll>
        <pitch>-0.0715585</pitch>
        <yaw>2.32128787</yaw>
        <rollspeed>0</rollspeed>
        <pitchspeed>0</pitchspeed>
        <yawspeed>0</yawspeed>
      </mission_attitude>
    </posture>
    <posture>
      <time>2017-02-21T10:59:15.5575133+08:00</time>
      <mission_attitude>
        <time_boot_ms>23600000</time_boot_ms>
        <roll>-0.00523598772</roll>
        <pitch>-0.0715585</pitch>
        <yaw>2.30383468</yaw>
        <rollspeed>0</rollspeed>
        <pitchspeed>0</pitchspeed>
        <yawspeed>0</yawspeed>
      </mission_attitude>
    </posture>
    <posture>
      <time>2017-02-21T10:59:16.5075677+08:00</time>
      <mission_attitude>
        <time_boot_ms>24580000</time_boot_ms>
        <roll>-0.00523598772</roll>
        <pitch>-0.0715585</pitch>
        <yaw>2.338741</yaw>
        <rollspeed>0</rollspeed>
        <pitchspeed>0</pitchspeed>
        <yawspeed>0</yawspeed>
      </mission_attitude>
    </posture>
    <posture>
      <time>2017-02-21T10:59:17.5576277+08:00</time>
      <mission_attitude>
        <time_boot_ms>25600000</time_boot_ms>
        <roll>-0.00523598772</roll>
        <pitch>-0.0715585</pitch>
        <yaw>2.3561945</yaw>
        <rollspeed>-0.0174532924</rollspeed>
        <pitchspeed>0</pitchspeed>
        <yawspeed>0</yawspeed>
      </mission_attitude>
    </posture>
    <posture>
      <time>2017-02-21T10:59:18.5576849+08:00</time>
      <mission_attitude>
        <time_boot_ms>26600000</time_boot_ms>
        <roll>-0.00523598772</roll>
        <pitch>-0.0715585</pitch>
        <yaw>2.30383468</yaw>
        <rollspeed>0</rollspeed>
        <pitchspeed>0</pitchspeed>
        <yawspeed>0</yawspeed>
      </mission_attitude>
    </posture>
    <posture>
      <time>2017-02-21T10:59:19.5567421+08:00</time>
      <mission_attitude>
        <time_boot_ms>27600000</time_boot_ms>
        <roll>-0.00523598772</roll>
        <pitch>-0.0715585</pitch>
        <yaw>2.338741</yaw>
        <rollspeed>0.0174532924</rollspeed>
        <pitchspeed>0</pitchspeed>
        <yawspeed>0</yawspeed>
      </mission_attitude>
    </posture>
    <posture>
      <time>2017-02-21T10:59:20.5567993+08:00</time>
      <mission_attitude>
        <time_boot_ms>28600000</time_boot_ms>
        <roll>-0.006981317</roll>
        <pitch>-0.0715585</pitch>
        <yaw>2.37364769</yaw>
        <rollspeed>0</rollspeed>
        <pitchspeed>0</pitchspeed>
        <yawspeed>0</yawspeed>
      </mission_attitude>
    </posture>
    <posture>
      <time>2017-02-21T10:59:24.7070366+08:00</time>
      <mission_attitude>
        <time_boot_ms>32720000</time_boot_ms>
        <roll>-0.00523598772</roll>
        <pitch>-0.0715585</pitch>
        <yaw>2.32128787</yaw>
        <rollspeed>0</rollspeed>
        <pitchspeed>0</pitchspeed>
        <yawspeed>0</yawspeed>
      </mission_attitude>
    </posture>
    <posture>
      <time>2017-02-21T10:59:25.7070938+08:00</time>
      <mission_attitude>
        <time_boot_ms>33740000</time_boot_ms>
        <roll>-0.006981317</roll>
        <pitch>-0.0715585</pitch>
        <yaw>2.30383468</yaw>
        <rollspeed>0</rollspeed>
        <pitchspeed>0</pitchspeed>
        <yawspeed>0</yawspeed>
      </mission_attitude>
    </posture>
    <posture>
      <time>2017-02-21T10:59:30.0573427+08:00</time>
      <mission_attitude>
        <time_boot_ms>38000000</time_boot_ms>
        <roll>-0.006981317</roll>
        <pitch>-0.0715585</pitch>
        <yaw>2.3561945</yaw>
        <rollspeed>0</rollspeed>
        <pitchspeed>0</pitchspeed>
        <yawspeed>0</yawspeed>
      </mission_attitude>
    </posture>
    <posture>
      <time>2017-02-21T10:59:31.007397+08:00</time>
      <mission_attitude>
        <time_boot_ms>38980000</time_boot_ms>
        <roll>-0.006981317</roll>
        <pitch>-0.0715585</pitch>
        <yaw>2.37364769</yaw>
        <rollspeed>0</rollspeed>
        <pitchspeed>0</pitchspeed>
        <yawspeed>0</yawspeed>
      </mission_attitude>
    </posture>
    <posture>
      <time>2017-02-21T10:59:32.0074542+08:00</time>
      <mission_attitude>
        <time_boot_ms>39960000</time_boot_ms>
        <roll>-0.00523598772</roll>
        <pitch>-0.0715585</pitch>
        <yaw>2.37364769</yaw>
        <rollspeed>-0.0349065848</rollspeed>
        <pitchspeed>0.0174532924</pitchspeed>
        <yawspeed>0</yawspeed>
      </mission_attitude>
    </posture>
    <posture>
      <time>2017-02-21T10:59:33.0075114+08:00</time>
      <mission_attitude>
        <time_boot_ms>40980000</time_boot_ms>
        <roll>-0.00523598772</roll>
        <pitch>-0.0715585</pitch>
        <yaw>2.39110112</yaw>
        <rollspeed>-0.0349065848</rollspeed>
        <pitchspeed>0.0174532924</pitchspeed>
        <yawspeed>0</yawspeed>
      </mission_attitude>
    </posture>
    <posture>
      <time>2017-02-21T10:59:34.0575715+08:00</time>
      <mission_attitude>
        <time_boot_ms>41980000</time_boot_ms>
        <roll>-0.006981317</roll>
        <pitch>-0.0715585</pitch>
        <yaw>2.37364769</yaw>
        <rollspeed>-0.0523598753</rollspeed>
        <pitchspeed>0.0174532924</pitchspeed>
        <yawspeed>0</yawspeed>
      </mission_attitude>
    </posture>
    <posture>
      <time>2017-02-21T10:59:35.0576287+08:00</time>
      <mission_attitude>
        <time_boot_ms>42980000</time_boot_ms>
        <roll>-0.00523598772</roll>
        <pitch>-0.0715585</pitch>
        <yaw>2.30383468</yaw>
        <rollspeed>0</rollspeed>
        <pitchspeed>0</pitchspeed>
        <yawspeed>0</yawspeed>
      </mission_attitude>
    </posture>
    <posture>
      <time>2017-02-21T10:59:36.0576859+08:00</time>
      <mission_attitude>
        <time_boot_ms>43980000</time_boot_ms>
        <roll>-0.006981317</roll>
        <pitch>-0.0715585</pitch>
        <yaw>2.28638124</yaw>
        <rollspeed>0</rollspeed>
        <pitchspeed>0</pitchspeed>
        <yawspeed>0</yawspeed>
      </mission_attitude>
    </posture>
    <posture>
      <time>2017-02-21T10:59:38.856846+08:00</time>
      <mission_attitude>
        <time_boot_ms>660000</time_boot_ms>
        <roll>-0.006981317</roll>
        <pitch>-0.0715585</pitch>
        <yaw>0</yaw>
        <rollspeed>0</rollspeed>
        <pitchspeed>0</pitchspeed>
        <yawspeed>0</yawspeed>
      </mission_attitude>
    </posture>
    <posture>
      <time>2017-02-21T10:59:39.8569032+08:00</time>
      <mission_attitude>
        <time_boot_ms>1680000</time_boot_ms>
        <roll>-0.006981317</roll>
        <pitch>-0.0715585</pitch>
        <yaw>0</yaw>
        <rollspeed>0</rollspeed>
        <pitchspeed>0</pitchspeed>
        <yawspeed>0</yawspeed>
      </mission_attitude>
    </posture>
    <posture>
      <time>2017-02-21T10:59:40.9069632+08:00</time>
      <mission_attitude>
        <time_boot_ms>2700000</time_boot_ms>
        <roll>-0.006981317</roll>
        <pitch>-0.0715585</pitch>
        <yaw>2.28638124</yaw>
        <rollspeed>0</rollspeed>
        <pitchspeed>0</pitchspeed>
        <yawspeed>0</yawspeed>
      </mission_attitude>
    </posture>
    <posture>
      <time>2017-02-21T10:59:41.9070204+08:00</time>
      <mission_attitude>
        <time_boot_ms>3700000</time_boot_ms>
        <roll>-0.006981317</roll>
        <pitch>-0.0715585</pitch>
        <yaw>2.40855432</yaw>
        <rollspeed>0</rollspeed>
        <pitchspeed>0</pitchspeed>
        <yawspeed>0</yawspeed>
      </mission_attitude>
    </posture>
    <posture>
      <time>2017-02-21T10:59:42.8570748+08:00</time>
      <mission_attitude>
        <time_boot_ms>4680000</time_boot_ms>
        <roll>-0.006981317</roll>
        <pitch>-0.0715585</pitch>
        <yaw>2.39110112</yaw>
        <rollspeed>0</rollspeed>
        <pitchspeed>0</pitchspeed>
        <yawspeed>0</yawspeed>
      </mission_attitude>
    </posture>
    <posture>
      <time>2017-02-21T10:59:43.9071348+08:00</time>
      <mission_attitude>
        <time_boot_ms>5700000</time_boot_ms>
        <roll>-0.006981317</roll>
        <pitch>-0.0715585</pitch>
        <yaw>2.338741</yaw>
        <rollspeed>0</rollspeed>
        <pitchspeed>0</pitchspeed>
        <yawspeed>0</yawspeed>
      </mission_attitude>
    </posture>
    <posture>
      <time>2017-02-21T10:59:49.7074666+08:00</time>
      <mission_attitude>
        <time_boot_ms>11460000</time_boot_ms>
        <roll>-0.006981317</roll>
        <pitch>-0.0715585</pitch>
        <yaw>2.338741</yaw>
        <rollspeed>0</rollspeed>
        <pitchspeed>0</pitchspeed>
        <yawspeed>0</yawspeed>
      </mission_attitude>
    </posture>
    <posture>
      <time>2017-02-21T10:59:50.7075238+08:00</time>
      <mission_attitude>
        <time_boot_ms>12460000</time_boot_ms>
        <roll>-0.006981317</roll>
        <pitch>-0.0715585</pitch>
        <yaw>2.16420817</yaw>
        <rollspeed>0</rollspeed>
        <pitchspeed>0</pitchspeed>
        <yawspeed>0</yawspeed>
      </mission_attitude>
    </posture>
    <posture>
      <time>2017-02-21T10:59:56.2068383+08:00</time>
      <mission_attitude>
        <time_boot_ms>17960000</time_boot_ms>
        <roll>-0.006981317</roll>
        <pitch>-0.0715585</pitch>
        <yaw>2.32128787</yaw>
        <rollspeed>0</rollspeed>
        <pitchspeed>0</pitchspeed>
        <yawspeed>0</yawspeed>
      </mission_attitude>
    </posture>
    <posture>
      <time>2017-02-21T10:59:57.2568984+08:00</time>
      <mission_attitude>
        <time_boot_ms>18960000</time_boot_ms>
        <roll>-0.006981317</roll>
        <pitch>-0.0715585</pitch>
        <yaw>2.32128787</yaw>
        <rollspeed>0</rollspeed>
        <pitchspeed>0</pitchspeed>
        <yawspeed>0</yawspeed>
      </mission_attitude>
    </posture>
    <posture>
      <time>2017-02-21T10:59:58.3069585+08:00</time>
      <mission_attitude>
        <time_boot_ms>20020000</time_boot_ms>
        <roll>-0.006981317</roll>
        <pitch>-0.0715585</pitch>
        <yaw>2.3561945</yaw>
        <rollspeed>0</rollspeed>
        <pitchspeed>0</pitchspeed>
        <yawspeed>0</yawspeed>
      </mission_attitude>
    </posture>
    <posture>
      <time>2017-02-21T11:00:07.3074733+08:00</time>
      <mission_attitude>
        <time_boot_ms>660000</time_boot_ms>
        <roll>-0.006981317</roll>
        <pitch>-0.0715585</pitch>
        <yaw>0</yaw>
        <rollspeed>0</rollspeed>
        <pitchspeed>0</pitchspeed>
        <yawspeed>0</yawspeed>
      </mission_attitude>
    </posture>
    <posture>
      <time>2017-02-21T11:00:08.6075476+08:00</time>
      <mission_attitude>
        <time_boot_ms>1960000</time_boot_ms>
        <roll>-0.006981317</roll>
        <pitch>-0.0715585</pitch>
        <yaw>0</yaw>
        <rollspeed>0.0174532924</rollspeed>
        <pitchspeed>0</pitchspeed>
        <yawspeed>0</yawspeed>
      </mission_attitude>
    </posture>
    <posture>
      <time>2017-02-21T11:00:15.9069651+08:00</time>
      <mission_attitude>
        <time_boot_ms>660000</time_boot_ms>
        <roll>-0.006981317</roll>
        <pitch>-0.0715585</pitch>
        <yaw>0</yaw>
        <rollspeed>0</rollspeed>
        <pitchspeed>0</pitchspeed>
        <yawspeed>0</yawspeed>
      </mission_attitude>
    </posture>
    <posture>
      <time>2017-02-21T11:00:16.9070223+08:00</time>
      <mission_attitude>
        <time_boot_ms>1680000</time_boot_ms>
        <roll>-0.006981317</roll>
        <pitch>-0.0715585</pitch>
        <yaw>0</yaw>
        <rollspeed>0</rollspeed>
        <pitchspeed>0</pitchspeed>
        <yawspeed>0</yawspeed>
      </mission_attitude>
    </posture>
    <posture>
      <time>2017-02-21T11:00:17.9070795+08:00</time>
      <mission_attitude>
        <time_boot_ms>2700000</time_boot_ms>
        <roll>-0.006981317</roll>
        <pitch>-0.0715585</pitch>
        <yaw>2.3561945</yaw>
        <rollspeed>0</rollspeed>
        <pitchspeed>0</pitchspeed>
        <yawspeed>0</yawspeed>
      </mission_attitude>
    </posture>
    <posture>
      <time>2017-02-21T11:00:18.9071367+08:00</time>
      <mission_attitude>
        <time_boot_ms>3700000</time_boot_ms>
        <roll>-0.006981317</roll>
        <pitch>-0.0715585</pitch>
        <yaw>2.3561945</yaw>
        <rollspeed>0</rollspeed>
        <pitchspeed>0</pitchspeed>
        <yawspeed>0</yawspeed>
      </mission_attitude>
    </posture>
    <posture>
      <time>2017-02-21T11:00:19.9071939+08:00</time>
      <mission_attitude>
        <time_boot_ms>4700000</time_boot_ms>
        <roll>-0.006981317</roll>
        <pitch>-0.0715585</pitch>
        <yaw>2.30383468</yaw>
        <rollspeed>0</rollspeed>
        <pitchspeed>0</pitchspeed>
        <yawspeed>0</yawspeed>
      </mission_attitude>
    </posture>
    <posture>
      <time>2017-02-21T11:00:20.9072511+08:00</time>
      <mission_attitude>
        <time_boot_ms>5680000</time_boot_ms>
        <roll>-0.006981317</roll>
        <pitch>-0.0715585</pitch>
        <yaw>2.40855432</yaw>
        <rollspeed>0</rollspeed>
        <pitchspeed>0</pitchspeed>
        <yawspeed>0</yawspeed>
      </mission_attitude>
    </posture>
    <posture>
      <time>2017-02-21T11:00:21.9073083+08:00</time>
      <mission_attitude>
        <time_boot_ms>6680000</time_boot_ms>
        <roll>-0.006981317</roll>
        <pitch>-0.0715585</pitch>
        <yaw>2.40855432</yaw>
        <rollspeed>0</rollspeed>
        <pitchspeed>0</pitchspeed>
        <yawspeed>0</yawspeed>
      </mission_attitude>
    </posture>
    <posture>
      <time>2017-02-21T11:00:22.9073655+08:00</time>
      <mission_attitude>
        <time_boot_ms>7660000</time_boot_ms>
        <roll>-0.006981317</roll>
        <pitch>-0.0715585</pitch>
        <yaw>2.3561945</yaw>
        <rollspeed>0</rollspeed>
        <pitchspeed>0</pitchspeed>
        <yawspeed>0</yawspeed>
      </mission_attitude>
    </posture>
    <posture>
      <time>2017-02-21T11:00:23.9074227+08:00</time>
      <mission_attitude>
        <time_boot_ms>8640000</time_boot_ms>
        <roll>-0.006981317</roll>
        <pitch>-0.0715585</pitch>
        <yaw>2.32128787</yaw>
        <rollspeed>0</rollspeed>
        <pitchspeed>0</pitchspeed>
        <yawspeed>0</yawspeed>
      </mission_attitude>
    </posture>
    <posture>
      <time>2017-02-21T11:00:24.9074799+08:00</time>
      <mission_attitude>
        <time_boot_ms>9620000</time_boot_ms>
        <roll>-0.006981317</roll>
        <pitch>-0.0715585</pitch>
        <yaw>2.338741</yaw>
        <rollspeed>0</rollspeed>
        <pitchspeed>0</pitchspeed>
        <yawspeed>0</yawspeed>
      </mission_attitude>
    </posture>
    <posture>
      <time>2017-02-21T11:00:25.9075371+08:00</time>
      <mission_attitude>
        <time_boot_ms>10640000</time_boot_ms>
        <roll>-0.006981317</roll>
        <pitch>-0.0715585</pitch>
        <yaw>2.3561945</yaw>
        <rollspeed>0</rollspeed>
        <pitchspeed>0</pitchspeed>
        <yawspeed>0</yawspeed>
      </mission_attitude>
    </posture>
    <posture>
      <time>2017-02-21T11:00:26.9075943+08:00</time>
      <mission_attitude>
        <time_boot_ms>11640000</time_boot_ms>
        <roll>-0.006981317</roll>
        <pitch>-0.0715585</pitch>
        <yaw>2.338741</yaw>
        <rollspeed>0</rollspeed>
        <pitchspeed>0</pitchspeed>
        <yawspeed>0</yawspeed>
      </mission_attitude>
    </posture>
    <posture>
      <time>2017-02-21T11:00:27.9076515+08:00</time>
      <mission_attitude>
        <time_boot_ms>12620000</time_boot_ms>
        <roll>-0.006981317</roll>
        <pitch>-0.0715585</pitch>
        <yaw>2.338741</yaw>
        <rollspeed>0</rollspeed>
        <pitchspeed>0</pitchspeed>
        <yawspeed>0</yawspeed>
      </mission_attitude>
    </posture>
    <posture>
      <time>2017-02-21T11:00:30.3067887+08:00</time>
      <mission_attitude>
        <time_boot_ms>640000</time_boot_ms>
        <roll>-0.172787592</roll>
        <pitch>-0.0174532924</pitch>
        <yaw>0</yaw>
        <rollspeed>0.8552113</rollspeed>
        <pitchspeed>-0.2268928</pitchspeed>
        <yawspeed>0.436332315</yawspeed>
      </mission_attitude>
    </posture>
    <posture>
      <time>2017-02-21T11:00:31.3068459+08:00</time>
      <mission_attitude>
        <time_boot_ms>1660000</time_boot_ms>
        <roll>-0.5742133</roll>
        <pitch>-0.0715585</pitch>
        <yaw>0</yaw>
        <rollspeed>0.139626339</rollspeed>
        <pitchspeed>0.104719751</pitchspeed>
        <yawspeed>0.157079637</yawspeed>
      </mission_attitude>
    </posture>
    <posture>
      <time>2017-02-21T11:00:32.356906+08:00</time>
      <mission_attitude>
        <time_boot_ms>2680000</time_boot_ms>
        <roll>-0.624827862</roll>
        <pitch>-0.06981317</pitch>
        <yaw>2.268928</yaw>
        <rollspeed>0.0174532924</rollspeed>
        <pitchspeed>0</pitchspeed>
        <yawspeed>0</yawspeed>
      </mission_attitude>
    </posture>
    <posture>
      <time>2017-02-21T11:00:33.4069661+08:00</time>
      <mission_attitude>
        <time_boot_ms>3680000</time_boot_ms>
        <roll>-0.630063832</roll>
        <pitch>-0.06981317</pitch>
        <yaw>2.146755</yaw>
        <rollspeed>0</rollspeed>
        <pitchspeed>0</pitchspeed>
        <yawspeed>0</yawspeed>
      </mission_attitude>
    </posture>
    <posture>
      <time>2017-02-21T11:00:34.3570204+08:00</time>
      <mission_attitude>
        <time_boot_ms>4680000</time_boot_ms>
        <roll>-0.6387905</roll>
        <pitch>-0.06981317</pitch>
        <yaw>2.216568</yaw>
        <rollspeed>0.0174532924</rollspeed>
        <pitchspeed>0</pitchspeed>
        <yawspeed>0</yawspeed>
      </mission_attitude>
    </posture>
    <posture>
      <time>2017-02-21T11:00:35.3570776+08:00</time>
      <mission_attitude>
        <time_boot_ms>5680000</time_boot_ms>
        <roll>-0.664970458</roll>
        <pitch>-0.06981317</pitch>
        <yaw>2.16420817</yaw>
        <rollspeed>0</rollspeed>
        <pitchspeed>0.0174532924</pitchspeed>
        <yawspeed>0.0174532924</yawspeed>
      </mission_attitude>
    </posture>
    <posture>
      <time>2017-02-21T11:00:36.3571348+08:00</time>
      <mission_attitude>
        <time_boot_ms>6680000</time_boot_ms>
        <roll>-0.673697054</roll>
        <pitch>-0.06981317</pitch>
        <yaw>2.09439516</yaw>
        <rollspeed>0.0174532924</rollspeed>
        <pitchspeed>0</pitchspeed>
        <yawspeed>0</yawspeed>
      </mission_attitude>
    </posture>
    <posture>
      <time>2017-02-21T11:00:40.207355+08:00</time>
      <mission_attitude>
        <time_boot_ms>640000</time_boot_ms>
        <roll>-0.691150367</roll>
        <pitch>-0.06806784</pitch>
        <yaw>0</yaw>
        <rollspeed>0</rollspeed>
        <pitchspeed>0</pitchspeed>
        <yawspeed>0</yawspeed>
      </mission_attitude>
    </posture>
    <posture>
      <time>2017-02-21T11:00:41.3074179+08:00</time>
      <mission_attitude>
        <time_boot_ms>1680000</time_boot_ms>
        <roll>-0.694641054</roll>
        <pitch>-0.06806784</pitch>
        <yaw>0</yaw>
        <rollspeed>0</rollspeed>
        <pitchspeed>0</pitchspeed>
        <yawspeed>0</yawspeed>
      </mission_attitude>
    </posture>
    <posture>
      <time>2017-02-21T11:00:42.2574723+08:00</time>
      <mission_attitude>
        <time_boot_ms>2680000</time_boot_ms>
        <roll>-0.694641054</roll>
        <pitch>-0.06806784</pitch>
        <yaw>2.23402143</yaw>
        <rollspeed>0</rollspeed>
        <pitchspeed>0</pitchspeed>
        <yawspeed>0</yawspeed>
      </mission_attitude>
    </posture>
    <posture>
      <time>2017-02-21T11:00:43.3075323+08:00</time>
      <mission_attitude>
        <time_boot_ms>3680000</time_boot_ms>
        <roll>-0.680678368</roll>
        <pitch>-0.06806784</pitch>
        <yaw>2.1991148</yaw>
        <rollspeed>-0.279252678</rollspeed>
        <pitchspeed>0</pitchspeed>
        <yawspeed>0</yawspeed>
      </mission_attitude>
    </posture>
    <posture>
      <time>2017-02-21T11:00:44.3075895+08:00</time>
      <mission_attitude>
        <time_boot_ms>4680000</time_boot_ms>
        <roll>-0.0593411922</roll>
        <pitch>-0.06806784</pitch>
        <yaw>2.338741</yaw>
        <rollspeed>-0.0349065848</rollspeed>
        <pitchspeed>0</pitchspeed>
        <yawspeed>0</yawspeed>
      </mission_attitude>
    </posture>
    <posture>
      <time>2017-02-21T11:00:45.3076467+08:00</time>
      <mission_attitude>
        <time_boot_ms>5680000</time_boot_ms>
        <roll>-0.0541052073</roll>
        <pitch>-0.06981317</pitch>
        <yaw>2.32128787</yaw>
        <rollspeed>0</rollspeed>
        <pitchspeed>0</pitchspeed>
        <yawspeed>0</yawspeed>
      </mission_attitude>
    </posture>
    <posture>
      <time>2017-02-21T11:00:46.3077039+08:00</time>
      <mission_attitude>
        <time_boot_ms>6660000</time_boot_ms>
        <roll>-0.04886922</roll>
        <pitch>-0.06981317</pitch>
        <yaw>2.32128787</yaw>
        <rollspeed>0</rollspeed>
        <pitchspeed>0</pitchspeed>
        <yawspeed>0</yawspeed>
      </mission_attitude>
    </posture>
    <posture>
      <time>2017-02-21T11:00:47.3067611+08:00</time>
      <mission_attitude>
        <time_boot_ms>7660000</time_boot_ms>
        <roll>-0.04363323</roll>
        <pitch>-0.06981317</pitch>
        <yaw>2.37364769</yaw>
        <rollspeed>0</rollspeed>
        <pitchspeed>0</pitchspeed>
        <yawspeed>0</yawspeed>
      </mission_attitude>
    </posture>
    <posture>
      <time>2017-02-21T11:00:48.3068183+08:00</time>
      <mission_attitude>
        <time_boot_ms>8680000</time_boot_ms>
        <roll>-0.0401425734</roll>
        <pitch>-0.0715585</pitch>
        <yaw>2.338741</yaw>
        <rollspeed>0</rollspeed>
        <pitchspeed>0</pitchspeed>
        <yawspeed>0</yawspeed>
      </mission_attitude>
    </posture>
    <posture>
      <time>2017-02-21T11:00:49.3068755+08:00</time>
      <mission_attitude>
        <time_boot_ms>9680000</time_boot_ms>
        <roll>-0.0366519131</roll>
        <pitch>-0.0715585</pitch>
        <yaw>2.3561945</yaw>
        <rollspeed>0</rollspeed>
        <pitchspeed>0</pitchspeed>
        <yawspeed>0</yawspeed>
      </mission_attitude>
    </posture>
    <posture>
      <time>2017-02-21T11:00:50.3069327+08:00</time>
      <mission_attitude>
        <time_boot_ms>10680000</time_boot_ms>
        <roll>-0.0331612565</roll>
        <pitch>-0.0715585</pitch>
        <yaw>2.37364769</yaw>
        <rollspeed>0</rollspeed>
        <pitchspeed>0</pitchspeed>
        <yawspeed>0</yawspeed>
      </mission_attitude>
    </posture>
    <posture>
      <time>2017-02-21T11:00:52.3570499+08:00</time>
      <mission_attitude>
        <time_boot_ms>640000</time_boot_ms>
        <roll>-0.0279252678</roll>
        <pitch>-0.0733038262</pitch>
        <yaw>0</yaw>
        <rollspeed>0</rollspeed>
        <pitchspeed>0</pitchspeed>
        <yawspeed>0</yawspeed>
      </mission_attitude>
    </posture>
    <posture>
      <time>2017-02-21T11:00:53.40711+08:00</time>
      <mission_attitude>
        <time_boot_ms>1680000</time_boot_ms>
        <roll>-0.0261799376</roll>
        <pitch>-0.0733038262</pitch>
        <yaw>0</yaw>
        <rollspeed>0</rollspeed>
        <pitchspeed>0</pitchspeed>
        <yawspeed>0</yawspeed>
      </mission_attitude>
    </posture>
    <posture>
      <time>2017-02-21T11:00:55.5072301+08:00</time>
      <mission_attitude>
        <time_boot_ms>640000</time_boot_ms>
        <roll>-0.02443461</roll>
        <pitch>-0.0733038262</pitch>
        <yaw>0</yaw>
        <rollspeed>0</rollspeed>
        <pitchspeed>0</pitchspeed>
        <yawspeed>0</yawspeed>
      </mission_attitude>
    </posture>
    <posture>
      <time>2017-02-21T11:00:56.5572902+08:00</time>
      <mission_attitude>
        <time_boot_ms>1680000</time_boot_ms>
        <roll>-0.02268928</roll>
        <pitch>-0.0733038262</pitch>
        <yaw>0</yaw>
        <rollspeed>0</rollspeed>
        <pitchspeed>0</pitchspeed>
        <yawspeed>0</yawspeed>
      </mission_attitude>
    </posture>
    <posture>
      <time>2017-02-21T11:00:57.5573474+08:00</time>
      <mission_attitude>
        <time_boot_ms>2700000</time_boot_ms>
        <roll>-0.02094395</roll>
        <pitch>-0.0733038262</pitch>
        <yaw>2.39110112</yaw>
        <rollspeed>0</rollspeed>
        <pitchspeed>0</pitchspeed>
        <yawspeed>0</yawspeed>
      </mission_attitude>
    </posture>
    <posture>
      <time>2017-02-21T11:01:00.3075047+08:00</time>
      <mission_attitude>
        <time_boot_ms>640000</time_boot_ms>
        <roll>-0.01919862</roll>
        <pitch>-0.0733038262</pitch>
        <yaw>0</yaw>
        <rollspeed>0</rollspeed>
        <pitchspeed>0</pitchspeed>
        <yawspeed>0</yawspeed>
      </mission_attitude>
    </posture>
    <posture>
      <time>2017-02-21T11:01:02.3576219+08:00</time>
      <mission_attitude>
        <time_boot_ms>640000</time_boot_ms>
        <roll>-0.0174532924</roll>
        <pitch>-0.0750491545</pitch>
        <yaw>0</yaw>
        <rollspeed>0</rollspeed>
        <pitchspeed>0</pitchspeed>
        <yawspeed>0</yawspeed>
      </mission_attitude>
    </posture>
    <posture>
      <time>2017-02-21T11:01:03.3576791+08:00</time>
      <mission_attitude>
        <time_boot_ms>1680000</time_boot_ms>
        <roll>-0.0174532924</roll>
        <pitch>-0.0750491545</pitch>
        <yaw>0</yaw>
        <rollspeed>0</rollspeed>
        <pitchspeed>0</pitchspeed>
        <yawspeed>0</yawspeed>
      </mission_attitude>
    </posture>
    <posture>
      <time>2017-02-21T11:01:04.4067391+08:00</time>
      <mission_attitude>
        <time_boot_ms>2700000</time_boot_ms>
        <roll>-0.0174532924</roll>
        <pitch>-0.0750491545</pitch>
        <yaw>2.37364769</yaw>
        <rollspeed>0</rollspeed>
        <pitchspeed>0</pitchspeed>
        <yawspeed>0</yawspeed>
      </mission_attitude>
    </posture>
    <posture>
      <time>2017-02-21T11:01:05.4067963+08:00</time>
      <mission_attitude>
        <time_boot_ms>3700000</time_boot_ms>
        <roll>-0.0174532924</roll>
        <pitch>-0.0750491545</pitch>
        <yaw>2.338741</yaw>
        <rollspeed>0</rollspeed>
        <pitchspeed>0</pitchspeed>
        <yawspeed>0</yawspeed>
      </mission_attitude>
    </posture>
    <posture>
      <time>2017-02-21T11:01:06.4568564+08:00</time>
      <mission_attitude>
        <time_boot_ms>4700000</time_boot_ms>
        <roll>-0.0174532924</roll>
        <pitch>-0.0750491545</pitch>
        <yaw>2.42600751</yaw>
        <rollspeed>0</rollspeed>
        <pitchspeed>0</pitchspeed>
        <yawspeed>0</yawspeed>
      </mission_attitude>
    </posture>
    <posture>
      <time>2017-02-21T11:01:07.4069107+08:00</time>
      <mission_attitude>
        <time_boot_ms>5680000</time_boot_ms>
        <roll>-0.0174532924</roll>
        <pitch>-0.0750491545</pitch>
        <yaw>2.37364769</yaw>
        <rollspeed>0</rollspeed>
        <pitchspeed>0</pitchspeed>
        <yawspeed>0</yawspeed>
      </mission_attitude>
    </posture>
    <posture>
      <time>2017-02-21T11:01:08.4069679+08:00</time>
      <mission_attitude>
        <time_boot_ms>6660000</time_boot_ms>
        <roll>-0.0157079622</roll>
        <pitch>-0.0750491545</pitch>
        <yaw>2.216568</yaw>
        <rollspeed>0</rollspeed>
        <pitchspeed>0</pitchspeed>
        <yawspeed>0</yawspeed>
      </mission_attitude>
    </posture>
    <posture>
      <time>2017-02-21T11:01:09.4070251+08:00</time>
      <mission_attitude>
        <time_boot_ms>7660000</time_boot_ms>
        <roll>-0.0157079622</roll>
        <pitch>-0.0750491545</pitch>
        <yaw>2.32128787</yaw>
        <rollspeed>0</rollspeed>
        <pitchspeed>0</pitchspeed>
        <yawspeed>0</yawspeed>
      </mission_attitude>
    </posture>
    <posture>
      <time>2017-02-21T11:01:10.4070823+08:00</time>
      <mission_attitude>
        <time_boot_ms>8640000</time_boot_ms>
        <roll>-0.0157079622</roll>
        <pitch>-0.0750491545</pitch>
        <yaw>2.268928</yaw>
        <rollspeed>0</rollspeed>
        <pitchspeed>0</pitchspeed>
        <yawspeed>0</yawspeed>
      </mission_attitude>
    </posture>
    <posture>
      <time>2017-02-21T11:01:11.4071395+08:00</time>
      <mission_attitude>
        <time_boot_ms>9640000</time_boot_ms>
        <roll>-0.0157079622</roll>
        <pitch>-0.0750491545</pitch>
        <yaw>2.3561945</yaw>
        <rollspeed>0</rollspeed>
        <pitchspeed>0</pitchspeed>
        <yawspeed>0</yawspeed>
      </mission_attitude>
    </posture>
    <posture>
      <time>2017-02-21T11:01:12.4071967+08:00</time>
      <mission_attitude>
        <time_boot_ms>10660000</time_boot_ms>
        <roll>-0.0157079622</roll>
        <pitch>-0.0750491545</pitch>
        <yaw>2.39110112</yaw>
        <rollspeed>0</rollspeed>
        <pitchspeed>0</pitchspeed>
        <yawspeed>0</yawspeed>
      </mission_attitude>
    </posture>
    <posture>
      <time>2017-02-21T11:01:13.4072539+08:00</time>
      <mission_attitude>
        <time_boot_ms>11660000</time_boot_ms>
        <roll>-0.0157079622</roll>
        <pitch>-0.0750491545</pitch>
        <yaw>2.37364769</yaw>
        <rollspeed>0</rollspeed>
        <pitchspeed>0</pitchspeed>
        <yawspeed>0</yawspeed>
      </mission_attitude>
    </posture>
    <posture>
      <time>2017-02-21T11:01:14.457314+08:00</time>
      <mission_attitude>
        <time_boot_ms>12660000</time_boot_ms>
        <roll>-0.0157079622</roll>
        <pitch>-0.0750491545</pitch>
        <yaw>2.338741</yaw>
        <rollspeed>0</rollspeed>
        <pitchspeed>0</pitchspeed>
        <yawspeed>0</yawspeed>
      </mission_attitude>
    </posture>
    <posture>
      <time>2017-02-21T11:01:17.1574684+08:00</time>
      <mission_attitude>
        <time_boot_ms>640000</time_boot_ms>
        <roll>-0.0157079622</roll>
        <pitch>-0.0750491545</pitch>
        <yaw>0</yaw>
        <rollspeed>0</rollspeed>
        <pitchspeed>0</pitchspeed>
        <yawspeed>0</yawspeed>
      </mission_attitude>
    </posture>
    <posture>
      <time>2017-02-21T11:01:18.2075285+08:00</time>
      <mission_attitude>
        <time_boot_ms>1680000</time_boot_ms>
        <roll>-0.0157079622</roll>
        <pitch>-0.0750491545</pitch>
        <yaw>0</yaw>
        <rollspeed>0</rollspeed>
        <pitchspeed>0</pitchspeed>
        <yawspeed>0</yawspeed>
      </mission_attitude>
    </posture>
    <posture>
      <time>2017-02-21T11:01:19.2575886+08:00</time>
      <mission_attitude>
        <time_boot_ms>2700000</time_boot_ms>
        <roll>-0.0157079622</roll>
        <pitch>-0.0750491545</pitch>
        <yaw>2.3561945</yaw>
        <rollspeed>0</rollspeed>
        <pitchspeed>0</pitchspeed>
        <yawspeed>0</yawspeed>
      </mission_attitude>
    </posture>
    <posture>
      <time>2017-02-21T11:01:20.2576458+08:00</time>
      <mission_attitude>
        <time_boot_ms>3700000</time_boot_ms>
        <roll>-0.0157079622</roll>
        <pitch>-0.0750491545</pitch>
        <yaw>2.338741</yaw>
        <rollspeed>0</rollspeed>
        <pitchspeed>0</pitchspeed>
        <yawspeed>0</yawspeed>
      </mission_attitude>
    </posture>
    <posture>
      <time>2017-02-21T11:01:21.257703+08:00</time>
      <mission_attitude>
        <time_boot_ms>4700000</time_boot_ms>
        <roll>-0.0157079622</roll>
        <pitch>-0.0750491545</pitch>
        <yaw>2.338741</yaw>
        <rollspeed>0</rollspeed>
        <pitchspeed>0</pitchspeed>
        <yawspeed>0</yawspeed>
      </mission_attitude>
    </posture>
    <posture>
      <time>2017-02-21T11:01:22.2567601+08:00</time>
      <mission_attitude>
        <time_boot_ms>5720000</time_boot_ms>
        <roll>-0.0157079622</roll>
        <pitch>-0.0750491545</pitch>
        <yaw>2.40855432</yaw>
        <rollspeed>0</rollspeed>
        <pitchspeed>0</pitchspeed>
        <yawspeed>0</yawspeed>
      </mission_attitude>
    </posture>
    <posture>
      <time>2017-02-21T11:01:23.3068202+08:00</time>
      <mission_attitude>
        <time_boot_ms>6700000</time_boot_ms>
        <roll>-0.0157079622</roll>
        <pitch>-0.0750491545</pitch>
        <yaw>2.39110112</yaw>
        <rollspeed>0</rollspeed>
        <pitchspeed>0</pitchspeed>
        <yawspeed>0</yawspeed>
      </mission_attitude>
    </posture>
    <posture>
      <time>2017-02-21T11:01:24.2568745+08:00</time>
      <mission_attitude>
        <time_boot_ms>7700000</time_boot_ms>
        <roll>-0.0139626339</roll>
        <pitch>-0.0750491545</pitch>
        <yaw>2.3561945</yaw>
        <rollspeed>0</rollspeed>
        <pitchspeed>0</pitchspeed>
        <yawspeed>0</yawspeed>
      </mission_attitude>
    </posture>
    <posture>
      <time>2017-02-21T11:01:25.3069346+08:00</time>
      <mission_attitude>
        <time_boot_ms>8700000</time_boot_ms>
        <roll>-0.0139626339</roll>
        <pitch>-0.0750491545</pitch>
        <yaw>2.3561945</yaw>
        <rollspeed>0</rollspeed>
        <pitchspeed>0</pitchspeed>
        <yawspeed>0</yawspeed>
      </mission_attitude>
    </posture>
    <posture>
      <time>2017-02-21T11:01:26.3069918+08:00</time>
      <mission_attitude>
        <time_boot_ms>9700000</time_boot_ms>
        <roll>-0.0157079622</roll>
        <pitch>-0.0750491545</pitch>
        <yaw>2.28638124</yaw>
        <rollspeed>0</rollspeed>
        <pitchspeed>0</pitchspeed>
        <yawspeed>0</yawspeed>
      </mission_attitude>
    </posture>
    <posture>
      <time>2017-02-21T11:01:27.2570461+08:00</time>
      <mission_attitude>
        <time_boot_ms>10680000</time_boot_ms>
        <roll>-0.0157079622</roll>
        <pitch>-0.0750491545</pitch>
        <yaw>2.3561945</yaw>
        <rollspeed>0</rollspeed>
        <pitchspeed>0</pitchspeed>
        <yawspeed>0</yawspeed>
      </mission_attitude>
    </posture>
    <posture>
      <time>2017-02-21T11:01:28.2571033+08:00</time>
      <mission_attitude>
        <time_boot_ms>11680000</time_boot_ms>
        <roll>-0.0157079622</roll>
        <pitch>-0.0750491545</pitch>
        <yaw>2.30383468</yaw>
        <rollspeed>0</rollspeed>
        <pitchspeed>0</pitchspeed>
        <yawspeed>0</yawspeed>
      </mission_attitude>
    </posture>
    <posture>
      <time>2017-02-21T11:01:29.2571605+08:00</time>
      <mission_attitude>
        <time_boot_ms>12680000</time_boot_ms>
        <roll>-0.0157079622</roll>
        <pitch>-0.0750491545</pitch>
        <yaw>2.3561945</yaw>
        <rollspeed>0</rollspeed>
        <pitchspeed>0</pitchspeed>
        <yawspeed>0</yawspeed>
      </mission_attitude>
    </posture>
    <posture>
      <time>2017-02-21T11:01:30.2572177+08:00</time>
      <mission_attitude>
        <time_boot_ms>13680000</time_boot_ms>
        <roll>-0.0157079622</roll>
        <pitch>-0.0750491545</pitch>
        <yaw>2.30383468</yaw>
        <rollspeed>0</rollspeed>
        <pitchspeed>0</pitchspeed>
        <yawspeed>0</yawspeed>
      </mission_attitude>
    </posture>
    <posture>
      <time>2017-02-21T11:01:31.3072778+08:00</time>
      <mission_attitude>
        <time_boot_ms>14680000</time_boot_ms>
        <roll>-0.0157079622</roll>
        <pitch>-0.0750491545</pitch>
        <yaw>2.3561945</yaw>
        <rollspeed>0</rollspeed>
        <pitchspeed>0</pitchspeed>
        <yawspeed>0</yawspeed>
      </mission_attitude>
    </posture>
    <posture>
      <time>2017-02-21T11:01:32.307335+08:00</time>
      <mission_attitude>
        <time_boot_ms>15680000</time_boot_ms>
        <roll>-0.0157079622</roll>
        <pitch>-0.0750491545</pitch>
        <yaw>2.3561945</yaw>
        <rollspeed>0</rollspeed>
        <pitchspeed>0</pitchspeed>
        <yawspeed>0</yawspeed>
      </mission_attitude>
    </posture>
    <posture>
      <time>2017-02-21T11:01:33.3073922+08:00</time>
      <mission_attitude>
        <time_boot_ms>16680000</time_boot_ms>
        <roll>-0.0157079622</roll>
        <pitch>-0.0750491545</pitch>
        <yaw>2.37364769</yaw>
        <rollspeed>0</rollspeed>
        <pitchspeed>0</pitchspeed>
        <yawspeed>0</yawspeed>
      </mission_attitude>
    </posture>
    <posture>
      <time>2017-02-21T11:01:34.3074494+08:00</time>
      <mission_attitude>
        <time_boot_ms>17680000</time_boot_ms>
        <roll>-0.0157079622</roll>
        <pitch>-0.0750491545</pitch>
        <yaw>2.268928</yaw>
        <rollspeed>0</rollspeed>
        <pitchspeed>0</pitchspeed>
        <yawspeed>0</yawspeed>
      </mission_attitude>
    </posture>
    <posture>
      <time>2017-02-21T11:01:35.3075066+08:00</time>
      <mission_attitude>
        <time_boot_ms>18680000</time_boot_ms>
        <roll>-0.0157079622</roll>
        <pitch>-0.0750491545</pitch>
        <yaw>2.30383468</yaw>
        <rollspeed>0</rollspeed>
        <pitchspeed>0</pitchspeed>
        <yawspeed>0</yawspeed>
      </mission_attitude>
    </posture>
    <posture>
      <time>2017-02-21T11:01:36.3075638+08:00</time>
      <mission_attitude>
        <time_boot_ms>19680000</time_boot_ms>
        <roll>-0.0157079622</roll>
        <pitch>-0.0750491545</pitch>
        <yaw>2.32128787</yaw>
        <rollspeed>0</rollspeed>
        <pitchspeed>0</pitchspeed>
        <yawspeed>0</yawspeed>
      </mission_attitude>
    </posture>
    <posture>
      <time>2017-02-21T11:01:37.307621+08:00</time>
      <mission_attitude>
        <time_boot_ms>20660000</time_boot_ms>
        <roll>-0.0157079622</roll>
        <pitch>-0.0750491545</pitch>
        <yaw>2.32128787</yaw>
        <rollspeed>0</rollspeed>
        <pitchspeed>0</pitchspeed>
        <yawspeed>0</yawspeed>
      </mission_attitude>
    </posture>
    <posture>
      <time>2017-02-21T11:01:38.3076782+08:00</time>
      <mission_attitude>
        <time_boot_ms>21660000</time_boot_ms>
        <roll>-0.0157079622</roll>
        <pitch>-0.0750491545</pitch>
        <yaw>2.28638124</yaw>
        <rollspeed>0</rollspeed>
        <pitchspeed>0</pitchspeed>
        <yawspeed>0</yawspeed>
      </mission_attitude>
    </posture>
    <posture>
      <time>2017-02-21T11:01:39.3067353+08:00</time>
      <mission_attitude>
        <time_boot_ms>22660000</time_boot_ms>
        <roll>-0.0157079622</roll>
        <pitch>-0.0750491545</pitch>
        <yaw>2.338741</yaw>
        <rollspeed>0</rollspeed>
        <pitchspeed>0</pitchspeed>
        <yawspeed>0</yawspeed>
      </mission_attitude>
    </posture>
    <posture>
      <time>2017-02-21T11:01:40.3067925+08:00</time>
      <mission_attitude>
        <time_boot_ms>23660000</time_boot_ms>
        <roll>-0.0157079622</roll>
        <pitch>-0.0750491545</pitch>
        <yaw>2.30383468</yaw>
        <rollspeed>0</rollspeed>
        <pitchspeed>0</pitchspeed>
        <yawspeed>0</yawspeed>
      </mission_attitude>
    </posture>
    <posture>
      <time>2017-02-21T11:01:41.3068497+08:00</time>
      <mission_attitude>
        <time_boot_ms>24660000</time_boot_ms>
        <roll>-0.0157079622</roll>
        <pitch>-0.0750491545</pitch>
        <yaw>2.37364769</yaw>
        <rollspeed>0</rollspeed>
        <pitchspeed>0</pitchspeed>
        <yawspeed>0</yawspeed>
      </mission_attitude>
    </posture>
    <posture>
      <time>2017-02-21T11:01:42.3069069+08:00</time>
      <mission_attitude>
        <time_boot_ms>25660000</time_boot_ms>
        <roll>-0.0157079622</roll>
        <pitch>-0.0750491545</pitch>
        <yaw>2.37364769</yaw>
        <rollspeed>0</rollspeed>
        <pitchspeed>0</pitchspeed>
        <yawspeed>0</yawspeed>
      </mission_attitude>
    </posture>
    <posture>
      <time>2017-02-21T11:01:43.356967+08:00</time>
      <mission_attitude>
        <time_boot_ms>26660000</time_boot_ms>
        <roll>-0.0157079622</roll>
        <pitch>-0.0750491545</pitch>
        <yaw>2.39110112</yaw>
        <rollspeed>0</rollspeed>
        <pitchspeed>0</pitchspeed>
        <yawspeed>0</yawspeed>
      </mission_attitude>
    </posture>
    <posture>
      <time>2017-02-21T11:01:44.3570242+08:00</time>
      <mission_attitude>
        <time_boot_ms>27660000</time_boot_ms>
        <roll>-0.0157079622</roll>
        <pitch>-0.0750491545</pitch>
        <yaw>2.28638124</yaw>
        <rollspeed>0</rollspeed>
        <pitchspeed>0</pitchspeed>
        <yawspeed>0</yawspeed>
      </mission_attitude>
    </posture>
    <posture>
      <time>2017-02-21T11:01:45.3570814+08:00</time>
      <mission_attitude>
        <time_boot_ms>28660000</time_boot_ms>
        <roll>-0.0157079622</roll>
        <pitch>-0.0750491545</pitch>
        <yaw>2.32128787</yaw>
        <rollspeed>0</rollspeed>
        <pitchspeed>0</pitchspeed>
        <yawspeed>0</yawspeed>
      </mission_attitude>
    </posture>
    <posture>
      <time>2017-02-21T11:01:46.3571386+08:00</time>
      <mission_attitude>
        <time_boot_ms>29680000</time_boot_ms>
        <roll>-0.0157079622</roll>
        <pitch>-0.0750491545</pitch>
        <yaw>2.268928</yaw>
        <rollspeed>0</rollspeed>
        <pitchspeed>0</pitchspeed>
        <yawspeed>0</yawspeed>
      </mission_attitude>
    </posture>
    <posture>
      <time>2017-02-21T11:01:47.3571958+08:00</time>
      <mission_attitude>
        <time_boot_ms>30660000</time_boot_ms>
        <roll>-0.0157079622</roll>
        <pitch>-0.0750491545</pitch>
        <yaw>2.338741</yaw>
        <rollspeed>0</rollspeed>
        <pitchspeed>0</pitchspeed>
        <yawspeed>0</yawspeed>
      </mission_attitude>
    </posture>
    <posture>
      <time>2017-02-21T11:01:48.3072501+08:00</time>
      <mission_attitude>
        <time_boot_ms>31640000</time_boot_ms>
        <roll>-0.0157079622</roll>
        <pitch>-0.0750491545</pitch>
        <yaw>2.37364769</yaw>
        <rollspeed>0</rollspeed>
        <pitchspeed>0</pitchspeed>
        <yawspeed>0</yawspeed>
      </mission_attitude>
    </posture>
    <posture>
      <time>2017-02-21T11:01:49.3573102+08:00</time>
      <mission_attitude>
        <time_boot_ms>32640000</time_boot_ms>
        <roll>-0.0157079622</roll>
        <pitch>-0.0750491545</pitch>
        <yaw>2.28638124</yaw>
        <rollspeed>0</rollspeed>
        <pitchspeed>0</pitchspeed>
        <yawspeed>0</yawspeed>
      </mission_attitude>
    </posture>
    <posture>
      <time>2017-02-21T11:01:50.3573674+08:00</time>
      <mission_attitude>
        <time_boot_ms>33660000</time_boot_ms>
        <roll>-0.0157079622</roll>
        <pitch>-0.0750491545</pitch>
        <yaw>2.338741</yaw>
        <rollspeed>0</rollspeed>
        <pitchspeed>0</pitchspeed>
        <yawspeed>0</yawspeed>
      </mission_attitude>
    </posture>
    <posture>
      <time>2017-02-21T11:01:51.3574246+08:00</time>
      <mission_attitude>
        <time_boot_ms>34660000</time_boot_ms>
        <roll>-0.0157079622</roll>
        <pitch>-0.0750491545</pitch>
        <yaw>2.268928</yaw>
        <rollspeed>0</rollspeed>
        <pitchspeed>0</pitchspeed>
        <yawspeed>0</yawspeed>
      </mission_attitude>
    </posture>
    <posture>
      <time>2017-02-21T11:01:52.3574818+08:00</time>
      <mission_attitude>
        <time_boot_ms>35640000</time_boot_ms>
        <roll>-0.0157079622</roll>
        <pitch>-0.0750491545</pitch>
        <yaw>2.37364769</yaw>
        <rollspeed>0</rollspeed>
        <pitchspeed>0</pitchspeed>
        <yawspeed>0</yawspeed>
      </mission_attitude>
    </posture>
    <posture>
      <time>2017-02-21T11:01:53.357539+08:00</time>
      <mission_attitude>
        <time_boot_ms>36640000</time_boot_ms>
        <roll>-0.0157079622</roll>
        <pitch>-0.0750491545</pitch>
        <yaw>2.3561945</yaw>
        <rollspeed>0</rollspeed>
        <pitchspeed>0</pitchspeed>
        <yawspeed>0</yawspeed>
      </mission_attitude>
    </posture>
    <posture>
      <time>2017-02-21T11:01:54.3575962+08:00</time>
      <mission_attitude>
        <time_boot_ms>37620000</time_boot_ms>
        <roll>-0.0157079622</roll>
        <pitch>-0.0750491545</pitch>
        <yaw>2.338741</yaw>
        <rollspeed>0</rollspeed>
        <pitchspeed>0</pitchspeed>
        <yawspeed>0</yawspeed>
      </mission_attitude>
    </posture>
    <posture>
      <time>2017-02-21T11:01:55.3576534+08:00</time>
      <mission_attitude>
        <time_boot_ms>38600000</time_boot_ms>
        <roll>-0.0157079622</roll>
        <pitch>-0.0750491545</pitch>
        <yaw>2.338741</yaw>
        <rollspeed>0</rollspeed>
        <pitchspeed>0</pitchspeed>
        <yawspeed>0</yawspeed>
      </mission_attitude>
    </posture>
    <posture>
      <time>2017-02-21T11:01:56.3577106+08:00</time>
      <mission_attitude>
        <time_boot_ms>39620000</time_boot_ms>
        <roll>-0.0157079622</roll>
