<?xml version="1.0" encoding="utf-8"?>
<SerializeDataClass xmlns:xsi="http://www.w3.org/2001/XMLSchema-instance" xmlns:xsd="http://www.w3.org/2001/XMLSchema">
  <listposture>
    <posture>
      <time>2017-02-21T11:05:25.5576761+08:00</time>
      <mission_attitude>
        <time_boot_ms>32600000</time_boot_ms>
        <roll>-0.5323254</roll>
        <pitch>-0.04363323</pitch>
        <yaw>2.16420817</yaw>
        <rollspeed>0</rollspeed>
        <pitchspeed>0</pitchspeed>
        <yawspeed>0</yawspeed>
      </mission_attitude>
    </posture>
    <posture>
      <time>2017-02-21T11:05:26.5567333+08:00</time>
      <mission_attitude>
        <time_boot_ms>33600000</time_boot_ms>
        <roll>-0.53407073</roll>
        <pitch>-0.04363323</pitch>
        <yaw>2.25147462</yaw>
        <rollspeed>0</rollspeed>
        <pitchspeed>0</pitchspeed>
        <yawspeed>0</yawspeed>
      </mission_attitude>
    </posture>
    <posture>
      <time>2017-02-21T11:05:27.5567905+08:00</time>
      <mission_attitude>
        <time_boot_ms>34600000</time_boot_ms>
        <roll>-0.5358161</roll>
        <pitch>-0.04363323</pitch>
        <yaw>2.268928</yaw>
        <rollspeed>0</rollspeed>
        <pitchspeed>0</pitchspeed>
        <yawspeed>0</yawspeed>
      </mission_attitude>
    </posture>
    <posture>
      <time>2017-02-21T11:05:28.5568477+08:00</time>
      <mission_attitude>
        <time_boot_ms>35600000</time_boot_ms>
        <roll>-0.5375614</roll>
        <pitch>-0.04363323</pitch>
        <yaw>2.18166161</yaw>
        <rollspeed>0</rollspeed>
        <pitchspeed>0</pitchspeed>
        <yawspeed>0</yawspeed>
      </mission_attitude>
    </posture>
    <posture>
      <time>2017-02-21T11:05:29.5569049+08:00</time>
      <mission_attitude>
        <time_boot_ms>36580000</time_boot_ms>
        <roll>-0.5375614</roll>
        <pitch>-0.04363323</pitch>
        <yaw>2.216568</yaw>
        <rollspeed>0</rollspeed>
        <pitchspeed>0</pitchspeed>
        <yawspeed>0</yawspeed>
      </mission_attitude>
    </posture>
    <posture>
      <time>2017-02-21T11:05:43.3576942+08:00</time>
      <mission_attitude>
        <time_boot_ms>50300000</time_boot_ms>
        <roll>-0.5462881</roll>
        <pitch>-0.0401425734</pitch>
        <yaw>2.146755</yaw>
        <rollspeed>0</rollspeed>
        <pitchspeed>0</pitchspeed>
        <yawspeed>0</yawspeed>
      </mission_attitude>
    </posture>
    <posture>
      <time>2017-02-21T11:05:44.3567514+08:00</time>
      <mission_attitude>
        <time_boot_ms>51340000</time_boot_ms>
        <roll>-0.5462881</roll>
        <pitch>-0.0401425734</pitch>
        <yaw>2.05948853</yaw>
        <rollspeed>0</rollspeed>
        <pitchspeed>0</pitchspeed>
        <yawspeed>0</yawspeed>
      </mission_attitude>
    </posture>
    <posture>
      <time>2017-02-21T11:05:45.4068114+08:00</time>
      <mission_attitude>
        <time_boot_ms>52360000</time_boot_ms>
        <roll>-0.54454273</roll>
        <pitch>-0.0401425734</pitch>
        <yaw>2.25147462</yaw>
        <rollspeed>0</rollspeed>
        <pitchspeed>0</pitchspeed>
        <yawspeed>0</yawspeed>
      </mission_attitude>
    </posture>
    <posture>
      <time>2017-02-21T11:05:46.4068686+08:00</time>
      <mission_attitude>
        <time_boot_ms>53360000</time_boot_ms>
        <roll>-0.54454273</roll>
        <pitch>-0.0401425734</pitch>
        <yaw>2.28638124</yaw>
        <rollspeed>0</rollspeed>
        <pitchspeed>0</pitchspeed>
        <yawspeed>0</yawspeed>
      </mission_attitude>
    </posture>
    <posture>
      <time>2017-02-21T11:05:47.4069258+08:00</time>
      <mission_attitude>
        <time_boot_ms>54360000</time_boot_ms>
        <roll>-0.54454273</roll>
        <pitch>-0.0401425734</pitch>
        <yaw>2.23402143</yaw>
        <rollspeed>0</rollspeed>
        <pitchspeed>0</pitchspeed>
        <yawspeed>0</yawspeed>
      </mission_attitude>
    </posture>
    <posture>
      <time>2017-02-21T11:05:55.4573863+08:00</time>
      <mission_attitude>
        <time_boot_ms>62380000</time_boot_ms>
        <roll>-0.5462881</roll>
        <pitch>-0.0401425734</pitch>
        <yaw>2.23402143</yaw>
        <rollspeed>0</rollspeed>
        <pitchspeed>0</pitchspeed>
        <yawspeed>0</yawspeed>
      </mission_attitude>
    </posture>
    <posture>
      <time>2017-02-21T11:05:56.5074463+08:00</time>
      <mission_attitude>
        <time_boot_ms>63400000</time_boot_ms>
        <roll>-0.5462881</roll>
        <pitch>-0.0401425734</pitch>
        <yaw>2.23402143</yaw>
        <rollspeed>0</rollspeed>
        <pitchspeed>0</pitchspeed>
        <yawspeed>0</yawspeed>
      </mission_attitude>
    </posture>
    <posture>
      <time>2017-02-21T11:05:59.5076179+08:00</time>
      <mission_attitude>
        <time_boot_ms>66420000</time_boot_ms>
        <roll>-0.5462881</roll>
        <pitch>-0.0401425734</pitch>
        <yaw>2.12930155</yaw>
        <rollspeed>0</rollspeed>
        <pitchspeed>0</pitchspeed>
        <yawspeed>0</yawspeed>
      </mission_attitude>
    </posture>
    <posture>
      <time>2017-02-21T11:06:00.8076923+08:00</time>
      <mission_attitude>
        <time_boot_ms>67640000</time_boot_ms>
        <roll>-0.5462881</roll>
        <pitch>-0.0401425734</pitch>
        <yaw>2.05948853</yaw>
        <rollspeed>0</rollspeed>
        <pitchspeed>0</pitchspeed>
        <yawspeed>0</yawspeed>
      </mission_attitude>
    </posture>
    <posture>
      <time>2017-02-21T11:06:05.8569811+08:00</time>
      <mission_attitude>
        <time_boot_ms>72660000</time_boot_ms>
        <roll>-0.5462881</roll>
        <pitch>-0.0401425734</pitch>
        <yaw>2.1991148</yaw>
        <rollspeed>0</rollspeed>
        <pitchspeed>0</pitchspeed>
        <yawspeed>0</yawspeed>
      </mission_attitude>
    </posture>
    <posture>
      <time>2017-02-21T11:06:06.8570383+08:00</time>
      <mission_attitude>
        <time_boot_ms>73660000</time_boot_ms>
        <roll>-0.5462881</roll>
        <pitch>-0.0401425734</pitch>
        <yaw>2.16420817</yaw>
        <rollspeed>0</rollspeed>
        <pitchspeed>0</pitchspeed>
        <yawspeed>0</yawspeed>
      </mission_attitude>
    </posture>
    <posture>
      <time>2017-02-21T11:06:07.8070926+08:00</time>
      <mission_attitude>
        <time_boot_ms>74660000</time_boot_ms>
        <roll>-0.5462881</roll>
        <pitch>-0.0401425734</pitch>
        <yaw>2.216568</yaw>
        <rollspeed>0</rollspeed>
        <pitchspeed>0</pitchspeed>
        <yawspeed>0</yawspeed>
      </mission_attitude>
    </posture>
    <posture>
      <time>2017-02-21T11:06:08.8571527+08:00</time>
      <mission_attitude>
        <time_boot_ms>75640000</time_boot_ms>
        <roll>-0.5462881</roll>
        <pitch>-0.0401425734</pitch>
        <yaw>2.23402143</yaw>
        <rollspeed>0</rollspeed>
        <pitchspeed>0</pitchspeed>
        <yawspeed>0</yawspeed>
      </mission_attitude>
    </posture>
    <posture>
      <time>2017-02-21T11:06:12.1073386+08:00</time>
      <mission_attitude>
        <time_boot_ms>78900000</time_boot_ms>
        <roll>-0.5462881</roll>
        <pitch>-0.0401425734</pitch>
        <yaw>2.1991148</yaw>
        <rollspeed>0</rollspeed>
        <pitchspeed>0</pitchspeed>
        <yawspeed>0</yawspeed>
      </mission_attitude>
    </posture>
    <posture>
      <time>2017-02-21T11:06:13.1573987+08:00</time>
      <mission_attitude>
        <time_boot_ms>79940000</time_boot_ms>
        <roll>-0.5462881</roll>
        <pitch>-0.0401425734</pitch>
        <yaw>2.1991148</yaw>
        <rollspeed>0</rollspeed>
        <pitchspeed>0</pitchspeed>
        <yawspeed>0</yawspeed>
      </mission_attitude>
    </posture>
    <posture>
      <time>2017-02-21T11:06:14.2074587+08:00</time>
      <mission_attitude>
        <time_boot_ms>80940000</time_boot_ms>
        <roll>-0.5462881</roll>
        <pitch>-0.0401425734</pitch>
        <yaw>2.11184835</yaw>
        <rollspeed>0</rollspeed>
        <pitchspeed>0</pitchspeed>
        <yawspeed>0</yawspeed>
      </mission_attitude>
    </posture>
    <posture>
      <time>2017-02-21T11:06:15.4575302+08:00</time>
      <mission_attitude>
        <time_boot_ms>82260000</time_boot_ms>
        <roll>-0.5462881</roll>
        <pitch>-0.0401425734</pitch>
        <yaw>2.16420817</yaw>
        <rollspeed>0</rollspeed>
        <pitchspeed>0</pitchspeed>
        <yawspeed>0</yawspeed>
      </mission_attitude>
    </posture>
    <posture>
      <time>2017-02-21T11:06:16.5075903+08:00</time>
      <mission_attitude>
        <time_boot_ms>83300000</time_boot_ms>
        <roll>-0.5462881</roll>
        <pitch>-0.0401425734</pitch>
        <yaw>2.18166161</yaw>
        <rollspeed>0</rollspeed>
        <pitchspeed>0</pitchspeed>
        <yawspeed>0</yawspeed>
      </mission_attitude>
    </posture>
    <posture>
      <time>2017-02-21T11:06:17.5076475+08:00</time>
      <mission_attitude>
        <time_boot_ms>84320000</time_boot_ms>
        <roll>-0.5462881</roll>
        <pitch>-0.0401425734</pitch>
        <yaw>2.024582</yaw>
        <rollspeed>0</rollspeed>
        <pitchspeed>0</pitchspeed>
        <yawspeed>0</yawspeed>
      </mission_attitude>
    </posture>
    <posture>
      <time>2017-02-21T11:06:18.8567247+08:00</time>
      <mission_attitude>
        <time_boot_ms>85600000</time_boot_ms>
        <roll>-0.5462881</roll>
        <pitch>-0.0401425734</pitch>
        <yaw>2.18166161</yaw>
        <rollspeed>0</rollspeed>
        <pitchspeed>0</pitchspeed>
        <yawspeed>0</yawspeed>
      </mission_attitude>
    </posture>
    <posture>
      <time>2017-02-21T11:06:19.8567819+08:00</time>
      <mission_attitude>
        <time_boot_ms>86640000</time_boot_ms>
        <roll>-0.5462881</roll>
        <pitch>-0.0401425734</pitch>
        <yaw>2.146755</yaw>
        <rollspeed>0</rollspeed>
        <pitchspeed>0</pitchspeed>
        <yawspeed>0</yawspeed>
      </mission_attitude>
    </posture>
    <posture>
      <time>2017-02-21T11:06:20.9068419+08:00</time>
      <mission_attitude>
        <time_boot_ms>87660000</time_boot_ms>
        <roll>-0.5462881</roll>
        <pitch>-0.0401425734</pitch>
        <yaw>2.05948853</yaw>
        <rollspeed>0</rollspeed>
        <pitchspeed>0</pitchspeed>
        <yawspeed>0</yawspeed>
      </mission_attitude>
    </posture>
    <posture>
      <time>2017-02-21T11:06:21.9068991+08:00</time>
      <mission_attitude>
        <time_boot_ms>88660000</time_boot_ms>
        <roll>-0.5462881</roll>
        <pitch>-0.0401425734</pitch>
        <yaw>2.268928</yaw>
        <rollspeed>0</rollspeed>
        <pitchspeed>0</pitchspeed>
        <yawspeed>0</yawspeed>
      </mission_attitude>
    </posture>
    <posture>
      <time>2017-02-21T11:06:27.9572452+08:00</time>
      <mission_attitude>
        <time_boot_ms>94700000</time_boot_ms>
        <roll>-0.5462881</roll>
        <pitch>-0.0401425734</pitch>
        <yaw>2.00712872</yaw>
        <rollspeed>0</rollspeed>
        <pitchspeed>0</pitchspeed>
        <yawspeed>0</yawspeed>
      </mission_attitude>
    </posture>
    <posture>
      <time>2017-02-21T11:06:29.0073052+08:00</time>
      <mission_attitude>
        <time_boot_ms>95680000</time_boot_ms>
        <roll>-0.5462881</roll>
        <pitch>-0.0401425734</pitch>
        <yaw>2.216568</yaw>
        <rollspeed>0</rollspeed>
        <pitchspeed>0</pitchspeed>
        <yawspeed>0</yawspeed>
      </mission_attitude>
    </posture>
    <posture>
      <time>2017-02-21T11:06:30.0073624+08:00</time>
      <mission_attitude>
        <time_boot_ms>96660000</time_boot_ms>
        <roll>-0.5462881</roll>
        <pitch>-0.0401425734</pitch>
        <yaw>2.024582</yaw>
        <rollspeed>0</rollspeed>
        <pitchspeed>0</pitchspeed>
        <yawspeed>0</yawspeed>
      </mission_attitude>
    </posture>
    <posture>
      <time>2017-02-21T11:06:31.0074196+08:00</time>
      <mission_attitude>
        <time_boot_ms>97660000</time_boot_ms>
        <roll>-0.5462881</roll>
        <pitch>-0.0401425734</pitch>
        <yaw>2.146755</yaw>
        <rollspeed>0</rollspeed>
        <pitchspeed>0</pitchspeed>
        <yawspeed>0</yawspeed>
      </mission_attitude>
    </posture>
    <posture>
      <time>2017-02-21T11:06:31.9074711+08:00</time>
      <mission_attitude>
        <time_boot_ms>98640000</time_boot_ms>
        <roll>-0.5462881</roll>
        <pitch>-0.0401425734</pitch>
        <yaw>2.25147462</yaw>
        <rollspeed>0</rollspeed>
        <pitchspeed>0</pitchspeed>
        <yawspeed>0</yawspeed>
      </mission_attitude>
    </posture>
    <posture>
      <time>2017-02-21T11:06:33.007534+08:00</time>
      <mission_attitude>
        <time_boot_ms>99680000</time_boot_ms>
        <roll>-0.5462881</roll>
        <pitch>-0.0401425734</pitch>
        <yaw>2.28638124</yaw>
        <rollspeed>0</rollspeed>
        <pitchspeed>0</pitchspeed>
        <yawspeed>0</yawspeed>
      </mission_attitude>
    </posture>
    <posture>
      <time>2017-02-21T11:06:34.0075912+08:00</time>
      <mission_attitude>
        <time_boot_ms>100660000</time_boot_ms>
        <roll>-0.5462881</roll>
        <pitch>-0.0401425734</pitch>
        <yaw>1.98967528</yaw>
        <rollspeed>0</rollspeed>
        <pitchspeed>0</pitchspeed>
        <yawspeed>0</yawspeed>
      </mission_attitude>
    </posture>
    <posture>
      <time>2017-02-21T11:06:35.0076484+08:00</time>
      <mission_attitude>
        <time_boot_ms>101680000</time_boot_ms>
        <roll>-0.5462881</roll>
        <pitch>-0.0401425734</pitch>
        <yaw>2.216568</yaw>
        <rollspeed>0</rollspeed>
        <pitchspeed>0</pitchspeed>
        <yawspeed>0</yawspeed>
      </mission_attitude>
    </posture>
    <posture>
      <time>2017-02-21T11:06:36.0077056+08:00</time>
      <mission_attitude>
        <time_boot_ms>102660000</time_boot_ms>
        <roll>-0.5462881</roll>
        <pitch>-0.0401425734</pitch>
        <yaw>2.12930155</yaw>
        <rollspeed>0</rollspeed>
        <pitchspeed>0</pitchspeed>
        <yawspeed>0</yawspeed>
      </mission_attitude>
    </posture>
    <posture>
      <time>2017-02-21T11:06:37.0067628+08:00</time>
      <mission_attitude>
        <time_boot_ms>103640000</time_boot_ms>
        <roll>-0.5462881</roll>
        <pitch>-0.0401425734</pitch>
        <yaw>2.25147462</yaw>
        <rollspeed>0</rollspeed>
        <pitchspeed>0</pitchspeed>
        <yawspeed>0</yawspeed>
      </mission_attitude>
    </posture>
    <posture>
      <time>2017-02-21T11:06:37.9068143+08:00</time>
      <mission_attitude>
        <time_boot_ms>104620000</time_boot_ms>
        <roll>-0.5462881</roll>
        <pitch>-0.0401425734</pitch>
        <yaw>2.18166161</yaw>
        <rollspeed>0</rollspeed>
        <pitchspeed>0</pitchspeed>
        <yawspeed>0</yawspeed>
      </mission_attitude>
    </posture>
    <posture>
      <time>2017-02-21T11:06:39.0068772+08:00</time>
      <mission_attitude>
        <time_boot_ms>105620000</time_boot_ms>
        <roll>-0.5462881</roll>
        <pitch>-0.0401425734</pitch>
        <yaw>2.25147462</yaw>
        <rollspeed>0</rollspeed>
        <pitchspeed>0</pitchspeed>
        <yawspeed>0</yawspeed>
      </mission_attitude>
    </posture>
    <posture>
      <time>2017-02-21T11:06:40.0569372+08:00</time>
      <mission_attitude>
        <time_boot_ms>106720000</time_boot_ms>
        <roll>-0.5462881</roll>
        <pitch>-0.0401425734</pitch>
        <yaw>2.18166161</yaw>
        <rollspeed>0</rollspeed>
        <pitchspeed>0</pitchspeed>
        <yawspeed>0</yawspeed>
      </mission_attitude>
    </posture>
    <posture>
      <time>2017-02-21T11:06:41.0569944+08:00</time>
      <mission_attitude>
        <time_boot_ms>107740000</time_boot_ms>
        <roll>-0.5462881</roll>
        <pitch>-0.0401425734</pitch>
        <yaw>2.216568</yaw>
        <rollspeed>0</rollspeed>
        <pitchspeed>0</pitchspeed>
        <yawspeed>0</yawspeed>
      </mission_attitude>
    </posture>
    <posture>
      <time>2017-02-21T11:06:42.1070545+08:00</time>
      <mission_attitude>
        <time_boot_ms>108760000</time_boot_ms>
        <roll>-0.5462881</roll>
        <pitch>-0.0401425734</pitch>
        <yaw>2.12930155</yaw>
        <rollspeed>0</rollspeed>
        <pitchspeed>0</pitchspeed>
        <yawspeed>0</yawspeed>
      </mission_attitude>
    </posture>
    <posture>
      <time>2017-02-21T11:06:45.4572461+08:00</time>
      <mission_attitude>
        <time_boot_ms>112080000</time_boot_ms>
        <roll>-0.5462881</roll>
        <pitch>-0.0401425734</pitch>
        <yaw>2.216568</yaw>
        <rollspeed>0</rollspeed>
        <pitchspeed>0</pitchspeed>
        <yawspeed>0</yawspeed>
      </mission_attitude>
    </posture>
    <posture>
      <time>2017-02-21T11:06:48.8574406+08:00</time>
      <mission_attitude>
        <time_boot_ms>115440000</time_boot_ms>
        <roll>-0.5462881</roll>
        <pitch>-0.0401425734</pitch>
        <yaw>2.1991148</yaw>
        <rollspeed>0</rollspeed>
        <pitchspeed>0</pitchspeed>
        <yawspeed>0</yawspeed>
      </mission_attitude>
    </posture>
    <posture>
      <time>2017-02-21T11:06:50.9075579+08:00</time>
      <mission_attitude>
        <time_boot_ms>117540000</time_boot_ms>
        <roll>-0.5462881</roll>
        <pitch>-0.0401425734</pitch>
        <yaw>2.268928</yaw>
        <rollspeed>0</rollspeed>
        <pitchspeed>0</pitchspeed>
        <yawspeed>0</yawspeed>
      </mission_attitude>
    </posture>
    <posture>
      <time>2017-02-21T11:06:52.0076208+08:00</time>
      <mission_attitude>
        <time_boot_ms>118580000</time_boot_ms>
        <roll>-0.5462881</roll>
        <pitch>-0.0401425734</pitch>
        <yaw>2.25147462</yaw>
        <rollspeed>0</rollspeed>
        <pitchspeed>0</pitchspeed>
        <yawspeed>0</yawspeed>
      </mission_attitude>
    </posture>
    <posture>
      <time>2017-02-21T11:06:53.007678+08:00</time>
      <mission_attitude>
        <time_boot_ms>119600000</time_boot_ms>
        <roll>-0.5462881</roll>
        <pitch>-0.0401425734</pitch>
        <yaw>2.11184835</yaw>
        <rollspeed>0</rollspeed>
        <pitchspeed>0</pitchspeed>
        <yawspeed>0</yawspeed>
      </mission_attitude>
    </posture>
    <posture>
      <time>2017-02-21T11:06:54.2567494+08:00</time>
      <mission_attitude>
        <time_boot_ms>120860000</time_boot_ms>
        <roll>-0.5462881</roll>
        <pitch>-0.0401425734</pitch>
        <yaw>2.05948853</yaw>
        <rollspeed>0</rollspeed>
        <pitchspeed>0</pitchspeed>
        <yawspeed>0</yawspeed>
      </mission_attitude>
    </posture>
    <posture>
      <time>2017-02-21T11:06:55.3068095+08:00</time>
      <mission_attitude>
        <time_boot_ms>121860000</time_boot_ms>
        <roll>-0.5462881</roll>
        <pitch>-0.0401425734</pitch>
        <yaw>2.216568</yaw>
        <rollspeed>0</rollspeed>
        <pitchspeed>0</pitchspeed>
        <yawspeed>0</yawspeed>
      </mission_attitude>
    </posture>
    <posture>
      <time>2017-02-21T11:06:56.3068667+08:00</time>
      <mission_attitude>
        <time_boot_ms>122880000</time_boot_ms>
        <roll>-0.5462881</roll>
        <pitch>-0.0401425734</pitch>
        <yaw>2.042035</yaw>
        <rollspeed>0</rollspeed>
        <pitchspeed>0</pitchspeed>
        <yawspeed>0</yawspeed>
      </mission_attitude>
    </posture>
    <posture>
      <time>2017-02-21T11:07:00.6571155+08:00</time>
      <mission_attitude>
        <time_boot_ms>127220000</time_boot_ms>
        <roll>-0.5462881</roll>
        <pitch>-0.0401425734</pitch>
        <yaw>2.32128787</yaw>
        <rollspeed>0</rollspeed>
        <pitchspeed>0</pitchspeed>
        <yawspeed>0</yawspeed>
      </mission_attitude>
    </posture>
    <posture>
      <time>2017-02-21T11:07:01.6571727+08:00</time>
      <mission_attitude>
        <time_boot_ms>128200000</time_boot_ms>
        <roll>-0.5462881</roll>
        <pitch>-0.0401425734</pitch>
        <yaw>1.93731546</yaw>
        <rollspeed>0</rollspeed>
        <pitchspeed>0</pitchspeed>
        <yawspeed>0</yawspeed>
      </mission_attitude>
    </posture>
    <posture>
      <time>2017-02-21T11:07:02.6572299+08:00</time>
      <mission_attitude>
        <time_boot_ms>129200000</time_boot_ms>
        <roll>-0.5462881</roll>
        <pitch>-0.0401425734</pitch>
        <yaw>2.146755</yaw>
        <rollspeed>0</rollspeed>
        <pitchspeed>0</pitchspeed>
        <yawspeed>0</yawspeed>
      </mission_attitude>
    </posture>
    <posture>
      <time>2017-02-21T11:07:03.6572871+08:00</time>
      <mission_attitude>
        <time_boot_ms>130180000</time_boot_ms>
        <roll>-0.5462881</roll>
        <pitch>-0.0401425734</pitch>
        <yaw>1.88495553</yaw>
        <rollspeed>0</rollspeed>
        <pitchspeed>0</pitchspeed>
        <yawspeed>0</yawspeed>
      </mission_attitude>
    </posture>
    <posture>
      <time>2017-02-21T11:07:04.6573443+08:00</time>
      <mission_attitude>
        <time_boot_ms>131180000</time_boot_ms>
        <roll>-0.5462881</roll>
        <pitch>-0.0401425734</pitch>
        <yaw>1.93731546</yaw>
        <rollspeed>0</rollspeed>
        <pitchspeed>0</pitchspeed>
        <yawspeed>0</yawspeed>
      </mission_attitude>
    </posture>
    <posture>
      <time>2017-02-21T11:07:06.1074272+08:00</time>
      <mission_attitude>
        <time_boot_ms>132620000</time_boot_ms>
        <roll>-0.5462881</roll>
        <pitch>-0.0401425734</pitch>
        <yaw>1.91986215</yaw>
        <rollspeed>0</rollspeed>
        <pitchspeed>0</pitchspeed>
        <yawspeed>0</yawspeed>
      </mission_attitude>
    </posture>
    <posture>
      <time>2017-02-21T11:07:07.0574816+08:00</time>
      <mission_attitude>
        <time_boot_ms>133600000</time_boot_ms>
        <roll>-0.5462881</roll>
        <pitch>-0.0401425734</pitch>
        <yaw>1.90240884</yaw>
        <rollspeed>0</rollspeed>
        <pitchspeed>0</pitchspeed>
        <yawspeed>0</yawspeed>
      </mission_attitude>
    </posture>
    <posture>
      <time>2017-02-21T11:07:08.0575388+08:00</time>
      <mission_attitude>
        <time_boot_ms>134600000</time_boot_ms>
        <roll>-0.5462881</roll>
        <pitch>-0.0401425734</pitch>
        <yaw>1.83259571</yaw>
        <rollspeed>0</rollspeed>
        <pitchspeed>0</pitchspeed>
        <yawspeed>0</yawspeed>
      </mission_attitude>
    </posture>
    <posture>
      <time>2017-02-21T11:07:09.1075988+08:00</time>
      <mission_attitude>
        <time_boot_ms>135600000</time_boot_ms>
        <roll>-0.5462881</roll>
        <pitch>-0.0401425734</pitch>
        <yaw>1.81514239</yaw>
        <rollspeed>0</rollspeed>
        <pitchspeed>0</pitchspeed>
        <yawspeed>0</yawspeed>
      </mission_attitude>
    </posture>
    <posture>
      <time>2017-02-21T11:07:10.0576532+08:00</time>
      <mission_attitude>
        <time_boot_ms>136580000</time_boot_ms>
        <roll>-0.5462881</roll>
        <pitch>-0.0401425734</pitch>
        <yaw>1.86750221</yaw>
        <rollspeed>0</rollspeed>
        <pitchspeed>0</pitchspeed>
        <yawspeed>0</yawspeed>
      </mission_attitude>
    </posture>
    <posture>
      <time>2017-02-21T11:07:11.4567332+08:00</time>
      <mission_attitude>
        <time_boot_ms>137940000</time_boot_ms>
        <roll>-0.5462881</roll>
        <pitch>-0.0401425734</pitch>
        <yaw>1.972222</yaw>
        <rollspeed>0</rollspeed>
        <pitchspeed>0</pitchspeed>
        <yawspeed>0</yawspeed>
      </mission_attitude>
    </posture>
    <posture>
      <time>2017-02-21T11:07:12.4567904+08:00</time>
      <mission_attitude>
        <time_boot_ms>138960000</time_boot_ms>
        <roll>-0.5462881</roll>
        <pitch>-0.0401425734</pitch>
        <yaw>1.78023577</yaw>
        <rollspeed>0</rollspeed>
        <pitchspeed>0</pitchspeed>
        <yawspeed>0</yawspeed>
      </mission_attitude>
    </posture>
    <posture>
      <time>2017-02-21T11:07:13.4568476+08:00</time>
      <mission_attitude>
        <time_boot_ms>139960000</time_boot_ms>
        <roll>-0.5462881</roll>
        <pitch>-0.0401425734</pitch>
        <yaw>1.93731546</yaw>
        <rollspeed>0</rollspeed>
        <pitchspeed>0</pitchspeed>
        <yawspeed>0</yawspeed>
      </mission_attitude>
    </posture>
    <posture>
      <time>2017-02-21T11:07:20.807268+08:00</time>
      <mission_attitude>
        <time_boot_ms>147240000</time_boot_ms>
        <roll>-0.4171337</roll>
        <pitch>0.08726646</pitch>
        <yaw>2.05948853</yaw>
        <rollspeed>-0.2443461</rollspeed>
        <pitchspeed>-0.191986218</pitchspeed>
        <yawspeed>-0.2268928</yawspeed>
      </mission_attitude>
    </posture>
    <posture>
      <time>2017-02-21T11:07:21.7573224+08:00</time>
      <mission_attitude>
        <time_boot_ms>148220000</time_boot_ms>
        <roll>-0.0575958639</roll>
        <pitch>-0.0610865243</pitch>
        <yaw>2.146755</yaw>
        <rollspeed>0</rollspeed>
        <pitchspeed>0</pitchspeed>
        <yawspeed>0</yawspeed>
      </mission_attitude>
    </posture>
    <posture>
      <time>2017-02-21T11:07:22.7073767+08:00</time>
      <mission_attitude>
        <time_boot_ms>149200000</time_boot_ms>
        <roll>-0.050614547</roll>
        <pitch>-0.06283185</pitch>
        <yaw>2.11184835</yaw>
        <rollspeed>0</rollspeed>
        <pitchspeed>0</pitchspeed>
        <yawspeed>0</yawspeed>
      </mission_attitude>
    </posture>
    <posture>
      <time>2017-02-21T11:07:23.7074339+08:00</time>
      <mission_attitude>
        <time_boot_ms>150180000</time_boot_ms>
        <roll>-0.04537856</roll>
        <pitch>-0.0645771846</pitch>
        <yaw>2.11184835</yaw>
        <rollspeed>0</rollspeed>
        <pitchspeed>0</pitchspeed>
        <yawspeed>0</yawspeed>
      </mission_attitude>
    </posture>
    <posture>
      <time>2017-02-21T11:07:24.7074911+08:00</time>
      <mission_attitude>
        <time_boot_ms>151160000</time_boot_ms>
        <roll>-0.0523598753</roll>
        <pitch>-0.06632251</pitch>
        <yaw>2.146755</yaw>
        <rollspeed>0.942477763</rollspeed>
        <pitchspeed>0.0174532924</pitchspeed>
        <yawspeed>0.4537856</yawspeed>
      </mission_attitude>
    </posture>
    <posture>
      <time>2017-02-21T11:07:25.7075483+08:00</time>
      <mission_attitude>
        <time_boot_ms>152140000</time_boot_ms>
        <roll>-0.406661719</roll>
        <pitch>-0.06632251</pitch>
        <yaw>2.07694173</yaw>
        <rollspeed>-0.08726646</rollspeed>
        <pitchspeed>0</pitchspeed>
        <yawspeed>0</yawspeed>
      </mission_attitude>
    </posture>
    <posture>
      <time>2017-02-21T11:07:26.7076055+08:00</time>
      <mission_attitude>
        <time_boot_ms>153120000</time_boot_ms>
        <roll>-0.363028467</roll>
        <pitch>-0.0645771846</pitch>
        <yaw>2.05948853</yaw>
        <rollspeed>-0.471238881</rollspeed>
        <pitchspeed>0.06981317</pitchspeed>
        <yawspeed>-0.157079637</yawspeed>
      </mission_attitude>
    </posture>
    <posture>
      <time>2017-02-21T11:07:27.6576598+08:00</time>
      <mission_attitude>
        <time_boot_ms>154120000</time_boot_ms>
        <roll>-0.03839724</roll>
        <pitch>-0.06632251</pitch>
        <yaw>2.16420817</yaw>
        <rollspeed>0</rollspeed>
        <pitchspeed>0</pitchspeed>
        <yawspeed>0</yawspeed>
      </mission_attitude>
    </posture>
    <posture>
      <time>2017-02-21T11:07:28.657717+08:00</time>
      <mission_attitude>
        <time_boot_ms>155100000</time_boot_ms>
        <roll>-0.0349065848</roll>
        <pitch>-0.06806784</pitch>
        <yaw>2.16420817</yaw>
        <rollspeed>0</rollspeed>
        <pitchspeed>0</pitchspeed>
        <yawspeed>0</yawspeed>
      </mission_attitude>
    </posture>
    <posture>
      <time>2017-02-21T11:07:29.6067713+08:00</time>
      <mission_attitude>
        <time_boot_ms>156080000</time_boot_ms>
        <roll>-0.0331612565</roll>
        <pitch>-0.06981317</pitch>
        <yaw>2.216568</yaw>
        <rollspeed>0</rollspeed>
        <pitchspeed>0</pitchspeed>
        <yawspeed>0</yawspeed>
      </mission_attitude>
    </posture>
    <posture>
      <time>2017-02-21T11:07:30.6568314+08:00</time>
      <mission_attitude>
        <time_boot_ms>157080000</time_boot_ms>
        <roll>-0.0296705961</roll>
        <pitch>-0.06981317</pitch>
        <yaw>2.18166161</yaw>
        <rollspeed>0</rollspeed>
        <pitchspeed>0</pitchspeed>
        <yawspeed>0</yawspeed>
      </mission_attitude>
    </posture>
    <posture>
      <time>2017-02-21T11:07:31.6068857+08:00</time>
      <mission_attitude>
        <time_boot_ms>158060000</time_boot_ms>
        <roll>-0.0279252678</roll>
        <pitch>-0.0715585</pitch>
        <yaw>2.11184835</yaw>
        <rollspeed>0</rollspeed>
        <pitchspeed>0</pitchspeed>
        <yawspeed>0</yawspeed>
      </mission_attitude>
    </posture>
    <posture>
      <time>2017-02-21T11:07:32.6069429+08:00</time>
      <mission_attitude>
        <time_boot_ms>159040000</time_boot_ms>
        <roll>-0.0261799376</roll>
        <pitch>-0.0715585</pitch>
        <yaw>2.11184835</yaw>
        <rollspeed>0</rollspeed>
        <pitchspeed>0</pitchspeed>
        <yawspeed>0</yawspeed>
      </mission_attitude>
    </posture>
    <posture>
      <time>2017-02-21T11:07:33.6070001+08:00</time>
      <mission_attitude>
        <time_boot_ms>160020000</time_boot_ms>
        <roll>-0.02443461</roll>
        <pitch>-0.0715585</pitch>
        <yaw>2.12930155</yaw>
        <rollspeed>0</rollspeed>
        <pitchspeed>0</pitchspeed>
        <yawspeed>0</yawspeed>
      </mission_attitude>
    </posture>
    <posture>
      <time>2017-02-21T11:07:34.5570545+08:00</time>
      <mission_attitude>
        <time_boot_ms>161000000</time_boot_ms>
        <roll>-0.02268928</roll>
        <pitch>-0.0733038262</pitch>
        <yaw>2.16420817</yaw>
        <rollspeed>0</rollspeed>
        <pitchspeed>0</pitchspeed>
        <yawspeed>0</yawspeed>
      </mission_attitude>
    </posture>
    <posture>
      <time>2017-02-21T11:07:35.5571117+08:00</time>
      <mission_attitude>
        <time_boot_ms>161980000</time_boot_ms>
        <roll>-0.02268928</roll>
        <pitch>-0.0733038262</pitch>
        <yaw>2.12930155</yaw>
        <rollspeed>0</rollspeed>
        <pitchspeed>0</pitchspeed>
        <yawspeed>0</yawspeed>
      </mission_attitude>
    </posture>
    <posture>
      <time>2017-02-21T11:07:36.5571689+08:00</time>
      <mission_attitude>
        <time_boot_ms>162960000</time_boot_ms>
        <roll>-0.02094395</roll>
        <pitch>-0.0733038262</pitch>
        <yaw>1.95476878</yaw>
        <rollspeed>0</rollspeed>
        <pitchspeed>0</pitchspeed>
        <yawspeed>0</yawspeed>
      </mission_attitude>
    </posture>
    <posture>
      <time>2017-02-21T11:07:37.5572261+08:00</time>
      <mission_attitude>
        <time_boot_ms>163940000</time_boot_ms>
        <roll>-0.02094395</roll>
        <pitch>-0.0750491545</pitch>
        <yaw>2.146755</yaw>
        <rollspeed>0</rollspeed>
        <pitchspeed>0</pitchspeed>
        <yawspeed>0</yawspeed>
      </mission_attitude>
    </posture>
    <posture>
      <time>2017-02-21T11:07:38.5072804+08:00</time>
      <mission_attitude>
        <time_boot_ms>164920000</time_boot_ms>
        <roll>-0.01919862</roll>
        <pitch>-0.0750491545</pitch>
        <yaw>2.09439516</yaw>
        <rollspeed>0</rollspeed>
        <pitchspeed>0</pitchspeed>
        <yawspeed>0</yawspeed>
      </mission_attitude>
    </posture>
    <posture>
      <time>2017-02-21T11:07:39.5073376+08:00</time>
      <mission_attitude>
        <time_boot_ms>165900000</time_boot_ms>
        <roll>-0.01919862</roll>
        <pitch>-0.0750491545</pitch>
        <yaw>2.16420817</yaw>
        <rollspeed>0</rollspeed>
        <pitchspeed>0</pitchspeed>
        <yawspeed>0</yawspeed>
      </mission_attitude>
    </posture>
    <posture>
      <time>2017-02-21T11:07:40.5073948+08:00</time>
      <mission_attitude>
        <time_boot_ms>166880000</time_boot_ms>
        <roll>-0.0174532924</roll>
        <pitch>-0.0750491545</pitch>
        <yaw>2.23402143</yaw>
        <rollspeed>0</rollspeed>
        <pitchspeed>0</pitchspeed>
        <yawspeed>0</yawspeed>
      </mission_attitude>
    </posture>
    <posture>
      <time>2017-02-21T11:07:41.507452+08:00</time>
      <mission_attitude>
        <time_boot_ms>167860000</time_boot_ms>
        <roll>-0.0174532924</roll>
        <pitch>-0.0750491545</pitch>
        <yaw>2.146755</yaw>
        <rollspeed>0</rollspeed>
        <pitchspeed>0</pitchspeed>
        <yawspeed>0</yawspeed>
      </mission_attitude>
    </posture>
    <posture>
      <time>2017-02-21T11:07:42.5075092+08:00</time>
      <mission_attitude>
        <time_boot_ms>168860000</time_boot_ms>
        <roll>-0.0174532924</roll>
        <pitch>-0.0750491545</pitch>
        <yaw>2.11184835</yaw>
        <rollspeed>0</rollspeed>
        <pitchspeed>0</pitchspeed>
        <yawspeed>0</yawspeed>
      </mission_attitude>
    </posture>
    <posture>
      <time>2017-02-21T11:07:43.5075664+08:00</time>
      <mission_attitude>
        <time_boot_ms>169840000</time_boot_ms>
        <roll>-0.0157079622</roll>
        <pitch>-0.0750491545</pitch>
        <yaw>2.16420817</yaw>
        <rollspeed>0</rollspeed>
        <pitchspeed>0</pitchspeed>
        <yawspeed>0</yawspeed>
      </mission_attitude>
    </posture>
    <posture>
      <time>2017-02-21T11:07:44.4576207+08:00</time>
      <mission_attitude>
        <time_boot_ms>170820000</time_boot_ms>
        <roll>-0.0157079622</roll>
        <pitch>-0.0750491545</pitch>
        <yaw>2.16420817</yaw>
        <rollspeed>0</rollspeed>
        <pitchspeed>0</pitchspeed>
        <yawspeed>0</yawspeed>
      </mission_attitude>
    </posture>
    <posture>
      <time>2017-02-21T11:07:45.5076808+08:00</time>
      <mission_attitude>
        <time_boot_ms>171840000</time_boot_ms>
        <roll>-0.0157079622</roll>
        <pitch>-0.0750491545</pitch>
        <yaw>2.09439516</yaw>
        <rollspeed>0</rollspeed>
        <pitchspeed>0</pitchspeed>
        <yawspeed>0</yawspeed>
      </mission_attitude>
    </posture>
    <posture>
      <time>2017-02-21T11:07:46.4567351+08:00</time>
      <mission_attitude>
        <time_boot_ms>172820000</time_boot_ms>
        <roll>-0.0157079622</roll>
        <pitch>-0.0750491545</pitch>
        <yaw>2.16420817</yaw>
        <rollspeed>0</rollspeed>
        <pitchspeed>0</pitchspeed>
        <yawspeed>0</yawspeed>
      </mission_attitude>
    </posture>
    <posture>
      <time>2017-02-21T11:07:47.4567923+08:00</time>
      <mission_attitude>
        <time_boot_ms>173800000</time_boot_ms>
        <roll>-0.0157079622</roll>
        <pitch>-0.0750491545</pitch>
        <yaw>2.18166161</yaw>
        <rollspeed>0</rollspeed>
        <pitchspeed>0</pitchspeed>
        <yawspeed>0</yawspeed>
      </mission_attitude>
    </posture>
    <posture>
      <time>2017-02-21T11:07:48.4068466+08:00</time>
      <mission_attitude>
        <time_boot_ms>174780000</time_boot_ms>
        <roll>-0.0157079622</roll>
        <pitch>-0.0750491545</pitch>
        <yaw>2.18166161</yaw>
        <rollspeed>0</rollspeed>
        <pitchspeed>0</pitchspeed>
        <yawspeed>0</yawspeed>
      </mission_attitude>
    </posture>
    <posture>
      <time>2017-02-21T11:07:49.4569067+08:00</time>
      <mission_attitude>
        <time_boot_ms>175760000</time_boot_ms>
        <roll>-0.0139626339</roll>
        <pitch>-0.0750491545</pitch>
        <yaw>2.1991148</yaw>
        <rollspeed>0</rollspeed>
        <pitchspeed>0</pitchspeed>
        <yawspeed>0</yawspeed>
      </mission_attitude>
    </posture>
    <posture>
      <time>2017-02-21T11:07:50.4569639+08:00</time>
      <mission_attitude>
        <time_boot_ms>176780000</time_boot_ms>
        <roll>-0.0139626339</roll>
        <pitch>-0.07679448</pitch>
        <yaw>2.11184835</yaw>
        <rollspeed>0</rollspeed>
        <pitchspeed>0</pitchspeed>
        <yawspeed>0</yawspeed>
      </mission_attitude>
    </posture>
    <posture>
      <time>2017-02-21T11:07:51.4070182+08:00</time>
      <mission_attitude>
        <time_boot_ms>177760000</time_boot_ms>
        <roll>-0.0139626339</roll>
        <pitch>-0.07679448</pitch>
        <yaw>2.12930155</yaw>
        <rollspeed>0</rollspeed>
        <pitchspeed>0</pitchspeed>
        <yawspeed>0</yawspeed>
      </mission_attitude>
    </posture>
    <posture>
      <time>2017-02-21T11:07:52.4070754+08:00</time>
      <mission_attitude>
        <time_boot_ms>178760000</time_boot_ms>
        <roll>-0.0139626339</roll>
        <pitch>-0.07679448</pitch>
        <yaw>2.12930155</yaw>
        <rollspeed>0</rollspeed>
        <pitchspeed>0</pitchspeed>
        <yawspeed>0</yawspeed>
      </mission_attitude>
    </posture>
    <posture>
      <time>2017-02-21T11:07:53.4071326+08:00</time>
      <mission_attitude>
        <time_boot_ms>179740000</time_boot_ms>
        <roll>-0.0139626339</roll>
        <pitch>-0.07679448</pitch>
        <yaw>2.12930155</yaw>
        <rollspeed>0</rollspeed>
        <pitchspeed>0</pitchspeed>
        <yawspeed>0</yawspeed>
      </mission_attitude>
    </posture>
    <posture>
      <time>2017-02-21T11:07:54.4071898+08:00</time>
      <mission_attitude>
        <time_boot_ms>180740000</time_boot_ms>
        <roll>-0.0139626339</roll>
        <pitch>-0.07679448</pitch>
        <yaw>2.146755</yaw>
        <rollspeed>0</rollspeed>
        <pitchspeed>0</pitchspeed>
        <yawspeed>0</yawspeed>
      </mission_attitude>
    </posture>
    <posture>
      <time>2017-02-21T11:07:55.407247+08:00</time>
      <mission_attitude>
        <time_boot_ms>181740000</time_boot_ms>
        <roll>-0.0139626339</roll>
        <pitch>-0.07679448</pitch>
        <yaw>2.16420817</yaw>
        <rollspeed>0</rollspeed>
        <pitchspeed>0</pitchspeed>
        <yawspeed>0</yawspeed>
      </mission_attitude>
    </posture>
    <posture>
      <time>2017-02-21T11:07:56.4073042+08:00</time>
      <mission_attitude>
        <time_boot_ms>182720000</time_boot_ms>
        <roll>-0.0139626339</roll>
        <pitch>-0.07679448</pitch>
        <yaw>2.12930155</yaw>
        <rollspeed>0</rollspeed>
        <pitchspeed>0</pitchspeed>
        <yawspeed>0</yawspeed>
      </mission_attitude>
    </posture>
    <posture>
      <time>2017-02-21T11:07:57.4073614+08:00</time>
      <mission_attitude>
        <time_boot_ms>183700000</time_boot_ms>
        <roll>-0.0139626339</roll>
        <pitch>-0.07679448</pitch>
        <yaw>2.18166161</yaw>
        <rollspeed>0</rollspeed>
        <pitchspeed>0</pitchspeed>
        <yawspeed>0</yawspeed>
      </mission_attitude>
    </posture>
    <posture>
      <time>2017-02-21T11:07:58.3574158+08:00</time>
      <mission_attitude>
        <time_boot_ms>184680000</time_boot_ms>
        <roll>-0.0122173047</roll>
        <pitch>-0.07679448</pitch>
        <yaw>2.1991148</yaw>
        <rollspeed>0</rollspeed>
        <pitchspeed>0</pitchspeed>
        <yawspeed>0</yawspeed>
      </mission_attitude>
    </posture>
    <posture>
      <time>2017-02-21T11:07:59.4074758+08:00</time>
      <mission_attitude>
        <time_boot_ms>185680000</time_boot_ms>
        <roll>-0.0122173047</roll>
        <pitch>-0.07679448</pitch>
        <yaw>2.146755</yaw>
        <rollspeed>0</rollspeed>
        <pitchspeed>0</pitchspeed>
        <yawspeed>0</yawspeed>
      </mission_attitude>
    </posture>
    <posture>
      <time>2017-02-21T11:08:00.3575302+08:00</time>
      <mission_attitude>
        <time_boot_ms>186680000</time_boot_ms>
        <roll>-0.0122173047</roll>
        <pitch>-0.07679448</pitch>
        <yaw>2.16420817</yaw>
        <rollspeed>0</rollspeed>
        <pitchspeed>0</pitchspeed>
        <yawspeed>0</yawspeed>
      </mission_attitude>
    </posture>
    <posture>
      <time>2017-02-21T11:08:01.4075902+08:00</time>
      <mission_attitude>
        <time_boot_ms>187680000</time_boot_ms>
        <roll>-0.0139626339</roll>
        <pitch>-0.07679448</pitch>
        <yaw>2.16420817</yaw>
        <rollspeed>0</rollspeed>
        <pitchspeed>0</pitchspeed>
        <yawspeed>0</yawspeed>
      </mission_attitude>
    </posture>
    <posture>
      <time>2017-02-21T11:08:02.3576446+08:00</time>
      <mission_attitude>
        <time_boot_ms>188660000</time_boot_ms>
        <roll>-0.0139626339</roll>
        <pitch>-0.07679448</pitch>
        <yaw>2.146755</yaw>
        <rollspeed>0</rollspeed>
        <pitchspeed>0</pitchspeed>
        <yawspeed>0</yawspeed>
      </mission_attitude>
    </posture>
    <posture>
      <time>2017-02-21T11:08:03.4077046+08:00</time>
      <mission_attitude>
        <time_boot_ms>189640000</time_boot_ms>
        <roll>-0.0139626339</roll>
        <pitch>-0.07679448</pitch>
        <yaw>2.146755</yaw>
        <rollspeed>0</rollspeed>
        <pitchspeed>0</pitchspeed>
        <yawspeed>0</yawspeed>
      </mission_attitude>
    </posture>
    <posture>
      <time>2017-02-21T11:08:04.3567589+08:00</time>
      <mission_attitude>
        <time_boot_ms>190620000</time_boot_ms>
        <roll>-0.0139626339</roll>
        <pitch>-0.07679448</pitch>
        <yaw>2.12930155</yaw>
        <rollspeed>0</rollspeed>
        <pitchspeed>0</pitchspeed>
        <yawspeed>0</yawspeed>
      </mission_attitude>
    </posture>
    <posture>
      <time>2017-02-21T11:08:05.3568161+08:00</time>
      <mission_attitude>
        <time_boot_ms>191600000</time_boot_ms>
        <roll>-0.0139626339</roll>
        <pitch>-0.07679448</pitch>
        <yaw>2.11184835</yaw>
        <rollspeed>0</rollspeed>
        <pitchspeed>0</pitchspeed>
        <yawspeed>0</yawspeed>
      </mission_attitude>
    </posture>
    <posture>
      <time>2017-02-21T11:08:06.3068704+08:00</time>
      <mission_attitude>
        <time_boot_ms>192580000</time_boot_ms>
        <roll>-0.0139626339</roll>
        <pitch>-0.07679448</pitch>
        <yaw>2.09439516</yaw>
        <rollspeed>0</rollspeed>
        <pitchspeed>0</pitchspeed>
        <yawspeed>0</yawspeed>
      </mission_attitude>
    </posture>
    <posture>
      <time>2017-02-21T11:08:07.3069276+08:00</time>
      <mission_attitude>
        <time_boot_ms>193560000</time_boot_ms>
        <roll>-0.0139626339</roll>
        <pitch>-0.07679448</pitch>
        <yaw>2.16420817</yaw>
        <rollspeed>0</rollspeed>
        <pitchspeed>0</pitchspeed>
        <yawspeed>0</yawspeed>
      </mission_attitude>
    </posture>
    <posture>
      <time>2017-02-21T11:08:08.256982+08:00</time>
      <mission_attitude>
        <time_boot_ms>194540000</time_boot_ms>
        <roll>-0.0139626339</roll>
        <pitch>-0.07679448</pitch>
        <yaw>2.1991148</yaw>
        <rollspeed>0</rollspeed>
        <pitchspeed>0</pitchspeed>
        <yawspeed>0</yawspeed>
      </mission_attitude>
    </posture>
    <posture>
      <time>2017-02-21T11:08:09.307042+08:00</time>
      <mission_attitude>
        <time_boot_ms>195540000</time_boot_ms>
        <roll>-0.0139626339</roll>
        <pitch>-0.07679448</pitch>
        <yaw>2.16420817</yaw>
        <rollspeed>0</rollspeed>
        <pitchspeed>0</pitchspeed>
        <yawspeed>0</yawspeed>
      </mission_attitude>
    </posture>
    <posture>
      <time>2017-02-21T11:08:10.3070992+08:00</time>
      <mission_attitude>
        <time_boot_ms>196540000</time_boot_ms>
        <roll>-0.0139626339</roll>
        <pitch>-0.07679448</pitch>
        <yaw>2.146755</yaw>
        <rollspeed>0</rollspeed>
        <pitchspeed>0</pitchspeed>
        <yawspeed>0</yawspeed>
      </mission_attitude>
    </posture>
    <posture>
      <time>2017-02-21T11:08:11.3071564+08:00</time>
      <mission_attitude>
        <time_boot_ms>197540000</time_boot_ms>
        <roll>-0.0139626339</roll>
        <pitch>-0.07679448</pitch>
        <yaw>2.12930155</yaw>
        <rollspeed>0</rollspeed>
        <pitchspeed>0</pitchspeed>
        <yawspeed>0</yawspeed>
      </mission_attitude>
    </posture>
    <posture>
      <time>2017-02-21T11:08:12.3072136+08:00</time>
      <mission_attitude>
        <time_boot_ms>198540000</time_boot_ms>
        <roll>-0.0139626339</roll>
        <pitch>-0.07679448</pitch>
        <yaw>2.146755</yaw>
        <rollspeed>0</rollspeed>
        <pitchspeed>0</pitchspeed>
        <yawspeed>0</yawspeed>
      </mission_attitude>
    </posture>
    <posture>
      <time>2017-02-21T11:08:13.3072708+08:00</time>
      <mission_attitude>
        <time_boot_ms>199540000</time_boot_ms>
        <roll>-0.0139626339</roll>
        <pitch>-0.07679448</pitch>
        <yaw>2.09439516</yaw>
        <rollspeed>0</rollspeed>
        <pitchspeed>0</pitchspeed>
        <yawspeed>0</yawspeed>
      </mission_attitude>
    </posture>
    <posture>
      <time>2017-02-21T11:08:14.307328+08:00</time>
      <mission_attitude>
        <time_boot_ms>200540000</time_boot_ms>
        <roll>-0.0139626339</roll>
        <pitch>-0.07679448</pitch>
        <yaw>2.16420817</yaw>
        <rollspeed>0</rollspeed>
        <pitchspeed>0</pitchspeed>
        <yawspeed>0</yawspeed>
      </mission_attitude>
    </posture>
    <posture>
      <time>2017-02-21T11:08:15.3073852+08:00</time>
      <mission_attitude>
        <time_boot_ms>201540000</time_boot_ms>
        <roll>-0.0139626339</roll>
        <pitch>-0.07679448</pitch>
        <yaw>2.16420817</yaw>
        <rollspeed>0</rollspeed>
        <pitchspeed>0</pitchspeed>
        <yawspeed>0</yawspeed>
      </mission_attitude>
    </posture>
    <posture>
      <time>2017-02-21T11:08:16.3574453+08:00</time>
      <mission_attitude>
        <time_boot_ms>202560000</time_boot_ms>
        <roll>-0.0139626339</roll>
        <pitch>-0.07679448</pitch>
        <yaw>2.146755</yaw>
        <rollspeed>0</rollspeed>
        <pitchspeed>0</pitchspeed>
        <yawspeed>0</yawspeed>
      </mission_attitude>
    </posture>
    <posture>
      <time>2017-02-21T11:08:17.3575025+08:00</time>
      <mission_attitude>
        <time_boot_ms>203560000</time_boot_ms>
        <roll>-0.0139626339</roll>
        <pitch>-0.07679448</pitch>
        <yaw>2.1991148</yaw>
        <rollspeed>0</rollspeed>
        <pitchspeed>0</pitchspeed>
        <yawspeed>0</yawspeed>
      </mission_attitude>
    </posture>
    <posture>
      <time>2017-02-21T11:08:18.3575597+08:00</time>
      <mission_attitude>
        <time_boot_ms>204560000</time_boot_ms>
        <roll>-0.0122173047</roll>
        <pitch>-0.07679448</pitch>
        <yaw>2.1991148</yaw>
        <rollspeed>0</rollspeed>
        <pitchspeed>0</pitchspeed>
        <yawspeed>0</yawspeed>
      </mission_attitude>
    </posture>
    <posture>
      <time>2017-02-21T11:08:19.3576169+08:00</time>
      <mission_attitude>
        <time_boot_ms>205560000</time_boot_ms>
        <roll>-0.0122173047</roll>
        <pitch>-0.07679448</pitch>
        <yaw>2.18166161</yaw>
        <rollspeed>0</rollspeed>
        <pitchspeed>0</pitchspeed>
        <yawspeed>0</yawspeed>
      </mission_attitude>
    </posture>
    <posture>
      <time>2017-02-21T11:08:20.3576741+08:00</time>
      <mission_attitude>
        <time_boot_ms>206540000</time_boot_ms>
        <roll>-0.0122173047</roll>
        <pitch>-0.07679448</pitch>
        <yaw>2.146755</yaw>
        <rollspeed>0</rollspeed>
        <pitchspeed>0</pitchspeed>
        <yawspeed>0</yawspeed>
      </mission_attitude>
    </posture>
    <posture>
      <time>2017-02-21T11:08:21.3567313+08:00</time>
      <mission_attitude>
        <time_boot_ms>207520000</time_boot_ms>
        <roll>-0.0122173047</roll>
        <pitch>-0.07679448</pitch>
        <yaw>2.12930155</yaw>
        <rollspeed>0</rollspeed>
        <pitchspeed>0</pitchspeed>
        <yawspeed>0</yawspeed>
      </mission_attitude>
    </posture>
    <posture>
      <time>2017-02-21T11:08:22.3067856+08:00</time>
      <mission_attitude>
        <time_boot_ms>208500000</time_boot_ms>
        <roll>-0.0122173047</roll>
        <pitch>-0.07679448</pitch>
        <yaw>2.11184835</yaw>
        <rollspeed>0</rollspeed>
        <pitchspeed>0</pitchspeed>
        <yawspeed>0</yawspeed>
      </mission_attitude>
    </posture>
    <posture>
      <time>2017-02-21T11:08:23.3068428+08:00</time>
      <mission_attitude>
        <time_boot_ms>209480000</time_boot_ms>
        <roll>-0.0122173047</roll>
        <pitch>-0.0750491545</pitch>
        <yaw>2.18166161</yaw>
        <rollspeed>0</rollspeed>
        <pitchspeed>0</pitchspeed>
        <yawspeed>0</yawspeed>
      </mission_attitude>
    </posture>
    <posture>
      <time>2017-02-21T11:08:24.3069+08:00</time>
      <mission_attitude>
        <time_boot_ms>210460000</time_boot_ms>
        <roll>-0.0122173047</roll>
        <pitch>-0.0750491545</pitch>
        <yaw>2.146755</yaw>
        <rollspeed>0</rollspeed>
        <pitchspeed>0</pitchspeed>
        <yawspeed>0</yawspeed>
      </mission_attitude>
    </posture>
    <posture>
      <time>2017-02-21T11:08:25.2569543+08:00</time>
      <mission_attitude>
        <time_boot_ms>211440000</time_boot_ms>
        <roll>-0.0122173047</roll>
        <pitch>-0.0750491545</pitch>
        <yaw>2.146755</yaw>
        <rollspeed>0</rollspeed>
        <pitchspeed>0</pitchspeed>
        <yawspeed>0</yawspeed>
      </mission_attitude>
    </posture>
    <posture>
      <time>2017-02-21T11:08:26.2570115+08:00</time>
      <mission_attitude>
        <time_boot_ms>212420000</time_boot_ms>
        <roll>-0.0122173047</roll>
        <pitch>-0.0750491545</pitch>
        <yaw>2.146755</yaw>
        <rollspeed>0</rollspeed>
        <pitchspeed>0</pitchspeed>
        <yawspeed>0</yawspeed>
      </mission_attitude>
    </posture>
    <posture>
      <time>2017-02-21T11:08:27.2570687+08:00</time>
      <mission_attitude>
        <time_boot_ms>213400000</time_boot_ms>
        <roll>-0.0122173047</roll>
        <pitch>-0.0750491545</pitch>
        <yaw>2.16420817</yaw>
        <rollspeed>0</rollspeed>
        <pitchspeed>0</pitchspeed>
        <yawspeed>0</yawspeed>
      </mission_attitude>
    </posture>
    <posture>
      <time>2017-02-21T11:08:28.2571259+08:00</time>
      <mission_attitude>
        <time_boot_ms>214380000</time_boot_ms>
        <roll>-0.0122173047</roll>
        <pitch>-0.0750491545</pitch>
        <yaw>2.18166161</yaw>
        <rollspeed>0</rollspeed>
        <pitchspeed>0</pitchspeed>
        <yawspeed>0</yawspeed>
      </mission_attitude>
    </posture>
    <posture>
      <time>2017-02-21T11:08:29.2571831+08:00</time>
      <mission_attitude>
        <time_boot_ms>215380000</time_boot_ms>
        <roll>-0.0122173047</roll>
        <pitch>-0.0750491545</pitch>
        <yaw>2.146755</yaw>
        <rollspeed>0</rollspeed>
        <pitchspeed>0</pitchspeed>
        <yawspeed>0</yawspeed>
      </mission_attitude>
    </posture>
    <posture>
      <time>2017-02-21T11:08:30.2072375+08:00</time>
      <mission_attitude>
        <time_boot_ms>216360000</time_boot_ms>
        <roll>-0.0122173047</roll>
        <pitch>-0.07679448</pitch>
        <yaw>2.12930155</yaw>
        <rollspeed>0</rollspeed>
        <pitchspeed>0</pitchspeed>
        <yawspeed>0</yawspeed>
      </mission_attitude>
    </posture>
    <posture>
      <time>2017-02-21T11:08:39.3567608+08:00</time>
      <mission_attitude>
        <time_boot_ms>53020000</time_boot_ms>
        <roll>-0.0610865243</roll>
        <pitch>-0.0331612565</pitch>
        <yaw>2.65290046</yaw>
        <rollspeed>0</rollspeed>
        <pitchspeed>0</pitchspeed>
        <yawspeed>0</yawspeed>
      </mission_attitude>
    </posture>
    <posture>
      <time>2017-02-21T11:08:40.356818+08:00</time>
      <mission_attitude>
        <time_boot_ms>54000000</time_boot_ms>
        <roll>-0.0610865243</roll>
        <pitch>-0.0349065848</pitch>
        <yaw>2.65290046</yaw>
        <rollspeed>0</rollspeed>
        <pitchspeed>0</pitchspeed>
        <yawspeed>0</yawspeed>
      </mission_attitude>
    </posture>
    <posture>
      <time>2017-02-21T11:08:41.3068723+08:00</time>
      <mission_attitude>
        <time_boot_ms>54980000</time_boot_ms>
        <roll>-0.0610865243</roll>
        <pitch>-0.0331612565</pitch>
        <yaw>2.65290046</yaw>
        <rollspeed>0</rollspeed>
        <pitchspeed>0</pitchspeed>
        <yawspeed>0</yawspeed>
      </mission_attitude>
    </posture>
    <posture>
      <time>2017-02-21T11:08:42.3069295+08:00</time>
      <mission_attitude>
        <time_boot_ms>55960000</time_boot_ms>
        <roll>-0.0610865243</roll>
        <pitch>-0.0331612565</pitch>
        <yaw>2.65290046</yaw>
        <rollspeed>0</rollspeed>
        <pitchspeed>0</pitchspeed>
        <yawspeed>0</yawspeed>
      </mission_attitude>
    </posture>
    <posture>
      <time>2017-02-21T11:08:43.3069867+08:00</time>
      <mission_attitude>
        <time_boot_ms>56960000</time_boot_ms>
        <roll>-0.0610865243</roll>
        <pitch>-0.0331612565</pitch>
        <yaw>2.65290046</yaw>
        <rollspeed>0</rollspeed>
        <pitchspeed>0</pitchspeed>
        <yawspeed>0</yawspeed>
      </mission_attitude>
    </posture>
    <posture>
      <time>2017-02-21T11:08:44.3070439+08:00</time>
      <mission_attitude>
        <time_boot_ms>57960000</time_boot_ms>
        <roll>-0.0610865243</roll>
        <pitch>-0.0331612565</pitch>
        <yaw>2.65290046</yaw>
        <rollspeed>0</rollspeed>
        <pitchspeed>0</pitchspeed>
        <yawspeed>0</yawspeed>
      </mission_attitude>
    </posture>
    <posture>
      <time>2017-02-21T11:08:45.3071011+08:00</time>
      <mission_attitude>
        <time_boot_ms>58960000</time_boot_ms>
        <roll>-0.0610865243</roll>
        <pitch>-0.0331612565</pitch>
        <yaw>2.65290046</yaw>
        <rollspeed>0</rollspeed>
        <pitchspeed>0</pitchspeed>
        <yawspeed>0</yawspeed>
      </mission_attitude>
    </posture>
    <posture>
      <time>2017-02-21T11:08:46.3071583+08:00</time>
      <mission_attitude>
        <time_boot_ms>59960000</time_boot_ms>
        <roll>-0.0610865243</roll>
        <pitch>-0.0331612565</pitch>
        <yaw>2.65290046</yaw>
        <rollspeed>0</rollspeed>
        <pitchspeed>0</pitchspeed>
        <yawspeed>0</yawspeed>
      </mission_attitude>
    </posture>
    <posture>
      <time>2017-02-21T11:08:47.3072155+08:00</time>
      <mission_attitude>
        <time_boot_ms>60940000</time_boot_ms>
        <roll>-0.0610865243</roll>
        <pitch>-0.0331612565</pitch>
        <yaw>2.65290046</yaw>
        <rollspeed>0</rollspeed>
        <pitchspeed>0</pitchspeed>
        <yawspeed>0</yawspeed>
      </mission_attitude>
    </posture>
    <posture>
      <time>2017-02-21T11:08:48.3072727+08:00</time>
      <mission_attitude>
        <time_boot_ms>61920000</time_boot_ms>
        <roll>-0.0610865243</roll>
        <pitch>-0.0331612565</pitch>
        <yaw>2.65290046</yaw>
        <rollspeed>0</rollspeed>
        <pitchspeed>0</pitchspeed>
        <yawspeed>0</yawspeed>
      </mission_attitude>
    </posture>
    <posture>
      <time>2017-02-21T11:08:49.2573271+08:00</time>
      <mission_attitude>
        <time_boot_ms>62920000</time_boot_ms>
        <roll>-0.0610865243</roll>
        <pitch>-0.0331612565</pitch>
        <yaw>2.65290046</yaw>
        <rollspeed>0</rollspeed>
        <pitchspeed>0</pitchspeed>
        <yawspeed>0</yawspeed>
      </mission_attitude>
    </posture>
    <posture>
      <time>2017-02-21T11:08:50.3073871+08:00</time>
      <mission_attitude>
        <time_boot_ms>63900000</time_boot_ms>
        <roll>-0.0610865243</roll>
        <pitch>-0.0331612565</pitch>
        <yaw>2.65290046</yaw>
        <rollspeed>0</rollspeed>
        <pitchspeed>0</pitchspeed>
        <yawspeed>0</yawspeed>
      </mission_attitude>
    </posture>
    <posture>
      <time>2017-02-21T11:08:51.3074443+08:00</time>
      <mission_attitude>
        <time_boot_ms>64900000</time_boot_ms>
        <roll>-0.0610865243</roll>
        <pitch>-0.0331612565</pitch>
        <yaw>2.65290046</yaw>
        <rollspeed>0</rollspeed>
        <pitchspeed>0</pitchspeed>
        <yawspeed>0</yawspeed>
      </mission_attitude>
    </posture>
    <posture>
      <time>2017-02-21T11:08:52.3075015+08:00</time>
      <mission_attitude>
        <time_boot_ms>65880000</time_boot_ms>
        <roll>-0.0610865243</roll>
        <pitch>-0.0331612565</pitch>
        <yaw>2.67035365</yaw>
        <rollspeed>0</rollspeed>
        <pitchspeed>0</pitchspeed>
        <yawspeed>0</yawspeed>
      </mission_attitude>
    </posture>
    <posture>
      <time>2017-02-21T11:08:53.2575559+08:00</time>
      <mission_attitude>
        <time_boot_ms>66860000</time_boot_ms>
        <roll>-0.0610865243</roll>
        <pitch>-0.0331612565</pitch>
        <yaw>2.65290046</yaw>
        <rollspeed>0</rollspeed>
        <pitchspeed>0</pitchspeed>
        <yawspeed>0</yawspeed>
      </mission_attitude>
    </posture>
    <posture>
      <time>2017-02-21T11:08:54.2576131+08:00</time>
      <mission_attitude>
        <time_boot_ms>67860000</time_boot_ms>
        <roll>-0.0610865243</roll>
        <pitch>-0.0331612565</pitch>
        <yaw>2.65290046</yaw>
        <rollspeed>0</rollspeed>
        <pitchspeed>0</pitchspeed>
        <yawspeed>0</yawspeed>
      </mission_attitude>
    </posture>
    <posture>
      <time>2017-02-21T11:08:55.2576703+08:00</time>
      <mission_attitude>
        <time_boot_ms>68840000</time_boot_ms>
        <roll>-0.0610865243</roll>
        <pitch>-0.0331612565</pitch>
        <yaw>2.65290046</yaw>
        <rollspeed>0</rollspeed>
        <pitchspeed>0</pitchspeed>
        <yawspeed>0</yawspeed>
      </mission_attitude>
    </posture>
    <posture>
      <time>2017-02-21T11:08:56.2567274+08:00</time>
      <mission_attitude>
        <time_boot_ms>69840000</time_boot_ms>
        <roll>-0.06283185</roll>
        <pitch>-0.0331612565</pitch>
        <yaw>2.65290046</yaw>
        <rollspeed>0</rollspeed>
        <pitchspeed>0</pitchspeed>
        <yawspeed>0</yawspeed>
      </mission_attitude>
    </posture>
    <posture>
      <time>2017-02-21T11:08:57.2567846+08:00</time>
      <mission_attitude>
        <time_boot_ms>70840000</time_boot_ms>
        <roll>-0.06283185</roll>
        <pitch>-0.0331612565</pitch>
        <yaw>2.65290046</yaw>
        <rollspeed>0</rollspeed>
        <pitchspeed>0</pitchspeed>
        <yawspeed>0</yawspeed>
      </mission_attitude>
    </posture>
    <posture>
      <time>2017-02-21T11:08:58.2568418+08:00</time>
      <mission_attitude>
        <time_boot_ms>71840000</time_boot_ms>
        <roll>-0.06283185</roll>
        <pitch>-0.0331612565</pitch>
        <yaw>2.65290046</yaw>
        <rollspeed>0</rollspeed>
        <pitchspeed>0</pitchspeed>
        <yawspeed>0</yawspeed>
      </mission_attitude>
    </posture>
    <posture>
      <time>2017-02-21T11:08:59.256899+08:00</time>
      <mission_attitude>
        <time_boot_ms>72820000</time_boot_ms>
        <roll>-0.0610865243</roll>
        <pitch>-0.0331612565</pitch>
        <yaw>2.65290046</yaw>
        <rollspeed>0</rollspeed>
        <pitchspeed>0</pitchspeed>
        <yawspeed>0</yawspeed>
      </mission_attitude>
    </posture>
    <posture>
      <time>2017-02-21T11:09:00.2569562+08:00</time>
      <mission_attitude>
        <time_boot_ms>73820000</time_boot_ms>
        <roll>-0.0610865243</roll>
        <pitch>-0.0331612565</pitch>
        <yaw>2.635447</yaw>
        <rollspeed>0</rollspeed>
        <pitchspeed>0</pitchspeed>
        <yawspeed>0</yawspeed>
      </mission_attitude>
    </posture>
    <posture>
      <time>2017-02-21T11:09:01.2570134+08:00</time>
      <mission_attitude>
        <time_boot_ms>74820000</time_boot_ms>
        <roll>-0.0610865243</roll>
        <pitch>-0.0331612565</pitch>
        <yaw>2.65290046</yaw>
        <rollspeed>0</rollspeed>
        <pitchspeed>0</pitchspeed>
        <yawspeed>0</yawspeed>
      </mission_attitude>
    </posture>
