<?xml version="1.0" encoding="utf-8"?>
<SerializeDataClass xmlns:xsi="http://www.w3.org/2001/XMLSchema-instance" xmlns:xsd="http://www.w3.org/2001/XMLSchema">
  <listposture>
    <posture>
      <time>2017-02-20T15:15:06.9983088+08:00</time>
      <mission_attitude>
        <time_boot_ms>34960000</time_boot_ms>
        <roll>-0.00349065848</roll>
        <pitch>-0.07679448</pitch>
        <yaw>2.932153</yaw>
        <rollspeed>0</rollspeed>
        <pitchspeed>0</pitchspeed>
        <yawspeed>0</yawspeed>
      </mission_attitude>
    </posture>
    <posture>
      <time>2017-02-20T15:15:08.9984232+08:00</time>
      <mission_attitude>
        <time_boot_ms>36900000</time_boot_ms>
        <roll>-0.00523598772</roll>
        <pitch>-0.07679448</pitch>
        <yaw>2.91469979</yaw>
        <rollspeed>0</rollspeed>
        <pitchspeed>0</pitchspeed>
        <yawspeed>0</yawspeed>
      </mission_attitude>
    </posture>
    <posture>
      <time>2017-02-20T15:15:09.9984804+08:00</time>
      <mission_attitude>
        <time_boot_ms>37920000</time_boot_ms>
        <roll>-0.00523598772</roll>
        <pitch>-0.07679448</pitch>
        <yaw>2.91469979</yaw>
        <rollspeed>0</rollspeed>
        <pitchspeed>0</pitchspeed>
        <yawspeed>0</yawspeed>
      </mission_attitude>
    </posture>
    <posture>
      <time>2017-02-20T15:15:10.9985376+08:00</time>
      <mission_attitude>
        <time_boot_ms>38940000</time_boot_ms>
        <roll>-0.00523598772</roll>
        <pitch>-0.07679448</pitch>
        <yaw>2.94960642</yaw>
        <rollspeed>0</rollspeed>
        <pitchspeed>0</pitchspeed>
        <yawspeed>0</yawspeed>
      </mission_attitude>
    </posture>
    <posture>
      <time>2017-02-20T15:15:11.9985948+08:00</time>
      <mission_attitude>
        <time_boot_ms>39940000</time_boot_ms>
        <roll>-0.00523598772</roll>
        <pitch>-0.07679448</pitch>
        <yaw>2.8972466</yaw>
        <rollspeed>0</rollspeed>
        <pitchspeed>0</pitchspeed>
        <yawspeed>0</yawspeed>
      </mission_attitude>
    </posture>
    <posture>
      <time>2017-02-20T15:15:12.998652+08:00</time>
      <mission_attitude>
        <time_boot_ms>40920000</time_boot_ms>
        <roll>-0.00523598772</roll>
        <pitch>-0.07679448</pitch>
        <yaw>2.932153</yaw>
        <rollspeed>0</rollspeed>
        <pitchspeed>0</pitchspeed>
        <yawspeed>0</yawspeed>
      </mission_attitude>
    </posture>
    <posture>
      <time>2017-02-20T15:15:13.9987092+08:00</time>
      <mission_attitude>
        <time_boot_ms>41900000</time_boot_ms>
        <roll>-0.00523598772</roll>
        <pitch>-0.07679448</pitch>
        <yaw>2.94960642</yaw>
        <rollspeed>0</rollspeed>
        <pitchspeed>0</pitchspeed>
        <yawspeed>0</yawspeed>
      </mission_attitude>
    </posture>
    <posture>
      <time>2017-02-20T15:15:14.9987664+08:00</time>
      <mission_attitude>
        <time_boot_ms>42900000</time_boot_ms>
        <roll>-0.00523598772</roll>
        <pitch>-0.07679448</pitch>
        <yaw>2.91469979</yaw>
        <rollspeed>0</rollspeed>
        <pitchspeed>0</pitchspeed>
        <yawspeed>0</yawspeed>
      </mission_attitude>
    </posture>
    <posture>
      <time>2017-02-20T15:15:16.0478264+08:00</time>
      <mission_attitude>
        <time_boot_ms>43960000</time_boot_ms>
        <roll>-0.00523598772</roll>
        <pitch>-0.07679448</pitch>
        <yaw>2.932153</yaw>
        <rollspeed>0</rollspeed>
        <pitchspeed>0</pitchspeed>
        <yawspeed>0</yawspeed>
      </mission_attitude>
    </posture>
    <posture>
      <time>2017-02-20T15:15:17.0478836+08:00</time>
      <mission_attitude>
        <time_boot_ms>44960000</time_boot_ms>
        <roll>-0.00523598772</roll>
        <pitch>-0.07679448</pitch>
        <yaw>2.91469979</yaw>
        <rollspeed>0</rollspeed>
        <pitchspeed>0</pitchspeed>
        <yawspeed>0</yawspeed>
      </mission_attitude>
    </posture>
    <posture>
      <time>2017-02-20T15:15:18.1479465+08:00</time>
      <mission_attitude>
        <time_boot_ms>45980000</time_boot_ms>
        <roll>-0.00523598772</roll>
        <pitch>-0.0750491545</pitch>
        <yaw>2.91469979</yaw>
        <rollspeed>0</rollspeed>
        <pitchspeed>0</pitchspeed>
        <yawspeed>0</yawspeed>
      </mission_attitude>
    </posture>
    <posture>
      <time>2017-02-20T15:15:19.398018+08:00</time>
      <mission_attitude>
        <time_boot_ms>47260000</time_boot_ms>
        <roll>-0.00523598772</roll>
        <pitch>-0.0750491545</pitch>
        <yaw>2.91469979</yaw>
        <rollspeed>0</rollspeed>
        <pitchspeed>0</pitchspeed>
        <yawspeed>0</yawspeed>
      </mission_attitude>
    </posture>
    <posture>
      <time>2017-02-20T15:15:20.4480781+08:00</time>
      <mission_attitude>
        <time_boot_ms>48300000</time_boot_ms>
        <roll>-0.00523598772</roll>
        <pitch>-0.0750491545</pitch>
        <yaw>2.932153</yaw>
        <rollspeed>0</rollspeed>
        <pitchspeed>0</pitchspeed>
        <yawspeed>0</yawspeed>
      </mission_attitude>
    </posture>
    <posture>
      <time>2017-02-20T15:15:21.4481353+08:00</time>
      <mission_attitude>
        <time_boot_ms>49340000</time_boot_ms>
        <roll>-0.00523598772</roll>
        <pitch>-0.0750491545</pitch>
        <yaw>2.94960642</yaw>
        <rollspeed>0</rollspeed>
        <pitchspeed>0</pitchspeed>
        <yawspeed>0</yawspeed>
      </mission_attitude>
    </posture>
    <posture>
      <time>2017-02-20T15:15:23.7982697+08:00</time>
      <mission_attitude>
        <time_boot_ms>51640000</time_boot_ms>
        <roll>-0.00523598772</roll>
        <pitch>-0.07679448</pitch>
        <yaw>2.91469979</yaw>
        <rollspeed>0</rollspeed>
        <pitchspeed>0</pitchspeed>
        <yawspeed>0</yawspeed>
      </mission_attitude>
    </posture>
    <posture>
      <time>2017-02-20T15:15:24.7983269+08:00</time>
      <mission_attitude>
        <time_boot_ms>52680000</time_boot_ms>
        <roll>-0.00523598772</roll>
        <pitch>-0.07679448</pitch>
        <yaw>2.87979317</yaw>
        <rollspeed>0</rollspeed>
        <pitchspeed>0</pitchspeed>
        <yawspeed>0</yawspeed>
      </mission_attitude>
    </posture>
    <posture>
      <time>2017-02-20T15:15:42.7983564+08:00</time>
      <mission_attitude>
        <time_boot_ms>70580000</time_boot_ms>
        <roll>-0.00523598772</roll>
        <pitch>-0.07679448</pitch>
        <yaw>2.8972466</yaw>
        <rollspeed>0</rollspeed>
        <pitchspeed>0</pitchspeed>
        <yawspeed>0</yawspeed>
      </mission_attitude>
    </posture>
    <posture>
      <time>2017-02-20T15:15:48.8987053+08:00</time>
      <mission_attitude>
        <time_boot_ms>76640000</time_boot_ms>
        <roll>-0.00523598772</roll>
        <pitch>-0.07679448</pitch>
        <yaw>2.932153</yaw>
        <rollspeed>0</rollspeed>
        <pitchspeed>0</pitchspeed>
        <yawspeed>0</yawspeed>
      </mission_attitude>
    </posture>
    <posture>
      <time>2017-02-20T15:15:50.9978254+08:00</time>
      <mission_attitude>
        <time_boot_ms>78660000</time_boot_ms>
        <roll>-0.00523598772</roll>
        <pitch>-0.07679448</pitch>
        <yaw>2.91469979</yaw>
        <rollspeed>0</rollspeed>
        <pitchspeed>0</pitchspeed>
        <yawspeed>0</yawspeed>
      </mission_attitude>
    </posture>
    <posture>
      <time>2017-02-20T15:15:52.9979398+08:00</time>
      <mission_attitude>
        <time_boot_ms>80680000</time_boot_ms>
        <roll>-0.006981317</roll>
        <pitch>-0.0750491545</pitch>
        <yaw>2.8972466</yaw>
        <rollspeed>0</rollspeed>
        <pitchspeed>0</pitchspeed>
        <yawspeed>0</yawspeed>
      </mission_attitude>
    </posture>
    <posture>
      <time>2017-02-20T15:15:53.997997+08:00</time>
      <mission_attitude>
        <time_boot_ms>81700000</time_boot_ms>
        <roll>-0.006981317</roll>
        <pitch>-0.0750491545</pitch>
        <yaw>2.932153</yaw>
        <rollspeed>0</rollspeed>
        <pitchspeed>0</pitchspeed>
        <yawspeed>0</yawspeed>
      </mission_attitude>
    </posture>
    <posture>
      <time>2017-02-20T15:15:54.9980542+08:00</time>
      <mission_attitude>
        <time_boot_ms>82720000</time_boot_ms>
        <roll>-0.00523598772</roll>
        <pitch>-0.0750491545</pitch>
        <yaw>2.932153</yaw>
        <rollspeed>0</rollspeed>
        <pitchspeed>0</pitchspeed>
        <yawspeed>0</yawspeed>
      </mission_attitude>
    </posture>
    <posture>
      <time>2017-02-20T15:15:56.0481143+08:00</time>
      <mission_attitude>
        <time_boot_ms>83740000</time_boot_ms>
        <roll>-0.00523598772</roll>
        <pitch>-0.07679448</pitch>
        <yaw>2.932153</yaw>
        <rollspeed>0</rollspeed>
        <pitchspeed>0</pitchspeed>
        <yawspeed>0</yawspeed>
      </mission_attitude>
    </posture>
    <posture>
      <time>2017-02-20T15:15:57.0481715+08:00</time>
      <mission_attitude>
        <time_boot_ms>84760000</time_boot_ms>
        <roll>-0.00523598772</roll>
        <pitch>-0.07679448</pitch>
        <yaw>2.932153</yaw>
        <rollspeed>0</rollspeed>
        <pitchspeed>0</pitchspeed>
        <yawspeed>0</yawspeed>
      </mission_attitude>
    </posture>
    <posture>
      <time>2017-02-20T15:15:58.0482287+08:00</time>
      <mission_attitude>
        <time_boot_ms>85760000</time_boot_ms>
        <roll>-0.00349065848</roll>
        <pitch>-0.07679448</pitch>
        <yaw>2.932153</yaw>
        <rollspeed>0</rollspeed>
        <pitchspeed>0</pitchspeed>
        <yawspeed>0</yawspeed>
      </mission_attitude>
    </posture>
    <posture>
      <time>2017-02-20T15:15:59.0482859+08:00</time>
      <mission_attitude>
        <time_boot_ms>86740000</time_boot_ms>
        <roll>-0.00523598772</roll>
        <pitch>-0.07679448</pitch>
        <yaw>2.91469979</yaw>
        <rollspeed>0</rollspeed>
        <pitchspeed>0</pitchspeed>
        <yawspeed>0</yawspeed>
      </mission_attitude>
    </posture>
    <posture>
      <time>2017-02-20T15:15:59.9983402+08:00</time>
      <mission_attitude>
        <time_boot_ms>87720000</time_boot_ms>
        <roll>-0.00523598772</roll>
        <pitch>-0.07679448</pitch>
        <yaw>2.87979317</yaw>
        <rollspeed>0</rollspeed>
        <pitchspeed>0</pitchspeed>
        <yawspeed>0</yawspeed>
      </mission_attitude>
    </posture>
    <posture>
      <time>2017-02-20T15:16:01.0484003+08:00</time>
      <mission_attitude>
        <time_boot_ms>88740000</time_boot_ms>
        <roll>-0.00523598772</roll>
        <pitch>-0.07679448</pitch>
        <yaw>2.91469979</yaw>
        <rollspeed>0</rollspeed>
        <pitchspeed>0</pitchspeed>
        <yawspeed>0</yawspeed>
      </mission_attitude>
    </posture>
    <posture>
      <time>2017-02-20T15:16:02.1484632+08:00</time>
      <mission_attitude>
        <time_boot_ms>89760000</time_boot_ms>
        <roll>-0.00523598772</roll>
        <pitch>-0.07679448</pitch>
        <yaw>2.91469979</yaw>
        <rollspeed>0</rollspeed>
        <pitchspeed>0</pitchspeed>
        <yawspeed>0</yawspeed>
      </mission_attitude>
    </posture>
    <posture>
      <time>2017-02-20T15:16:03.0985175+08:00</time>
      <mission_attitude>
        <time_boot_ms>90760000</time_boot_ms>
        <roll>-0.00523598772</roll>
        <pitch>-0.07679448</pitch>
        <yaw>2.91469979</yaw>
        <rollspeed>0</rollspeed>
        <pitchspeed>0</pitchspeed>
        <yawspeed>0</yawspeed>
      </mission_attitude>
    </posture>
    <posture>
      <time>2017-02-20T15:16:04.0485719+08:00</time>
      <mission_attitude>
        <time_boot_ms>91740000</time_boot_ms>
        <roll>-0.00523598772</roll>
        <pitch>-0.07679448</pitch>
        <yaw>2.932153</yaw>
        <rollspeed>0</rollspeed>
        <pitchspeed>0</pitchspeed>
        <yawspeed>0</yawspeed>
      </mission_attitude>
    </posture>
    <posture>
      <time>2017-02-20T15:16:05.0486291+08:00</time>
      <mission_attitude>
        <time_boot_ms>92740000</time_boot_ms>
        <roll>-0.00523598772</roll>
        <pitch>-0.07679448</pitch>
        <yaw>2.91469979</yaw>
        <rollspeed>0</rollspeed>
        <pitchspeed>0</pitchspeed>
        <yawspeed>0</yawspeed>
      </mission_attitude>
    </posture>
    <posture>
      <time>2017-02-20T15:16:06.0486863+08:00</time>
      <mission_attitude>
        <time_boot_ms>93740000</time_boot_ms>
        <roll>-0.00523598772</roll>
        <pitch>-0.07679448</pitch>
        <yaw>2.932153</yaw>
        <rollspeed>0</rollspeed>
        <pitchspeed>0</pitchspeed>
        <yawspeed>0</yawspeed>
      </mission_attitude>
    </posture>
    <posture>
      <time>2017-02-20T15:16:07.0487435+08:00</time>
      <mission_attitude>
        <time_boot_ms>94720000</time_boot_ms>
        <roll>-0.00523598772</roll>
        <pitch>-0.07679448</pitch>
        <yaw>2.91469979</yaw>
        <rollspeed>0</rollspeed>
        <pitchspeed>0</pitchspeed>
        <yawspeed>0</yawspeed>
      </mission_attitude>
    </posture>
    <posture>
      <time>2017-02-20T15:16:08.0478006+08:00</time>
      <mission_attitude>
        <time_boot_ms>95700000</time_boot_ms>
        <roll>-0.00523598772</roll>
        <pitch>-0.07679448</pitch>
        <yaw>2.8972466</yaw>
        <rollspeed>0</rollspeed>
        <pitchspeed>0</pitchspeed>
        <yawspeed>0</yawspeed>
      </mission_attitude>
    </posture>
    <posture>
      <time>2017-02-20T15:16:09.0478578+08:00</time>
      <mission_attitude>
        <time_boot_ms>96680000</time_boot_ms>
        <roll>-0.00523598772</roll>
        <pitch>-0.07679448</pitch>
        <yaw>2.8972466</yaw>
        <rollspeed>0</rollspeed>
        <pitchspeed>0</pitchspeed>
        <yawspeed>0</yawspeed>
      </mission_attitude>
    </posture>
    <posture>
      <time>2017-02-20T15:16:10.047915+08:00</time>
      <mission_attitude>
        <time_boot_ms>97660000</time_boot_ms>
        <roll>-0.00523598772</roll>
        <pitch>-0.07679448</pitch>
        <yaw>2.91469979</yaw>
        <rollspeed>0</rollspeed>
        <pitchspeed>0</pitchspeed>
        <yawspeed>0</yawspeed>
      </mission_attitude>
    </posture>
    <posture>
      <time>2017-02-20T15:16:10.9979694+08:00</time>
      <mission_attitude>
        <time_boot_ms>98640000</time_boot_ms>
        <roll>-0.00523598772</roll>
        <pitch>-0.07679448</pitch>
        <yaw>2.932153</yaw>
        <rollspeed>0</rollspeed>
        <pitchspeed>0</pitchspeed>
        <yawspeed>0</yawspeed>
      </mission_attitude>
    </posture>
    <posture>
      <time>2017-02-20T15:16:12.0480294+08:00</time>
      <mission_attitude>
        <time_boot_ms>99660000</time_boot_ms>
        <roll>-0.00523598772</roll>
        <pitch>-0.07679448</pitch>
        <yaw>2.94960642</yaw>
        <rollspeed>0</rollspeed>
        <pitchspeed>0</pitchspeed>
        <yawspeed>0</yawspeed>
      </mission_attitude>
    </posture>
    <posture>
      <time>2017-02-20T15:16:13.0480866+08:00</time>
      <mission_attitude>
        <time_boot_ms>100680000</time_boot_ms>
        <roll>-0.00349065848</roll>
        <pitch>-0.07679448</pitch>
        <yaw>2.932153</yaw>
        <rollspeed>0</rollspeed>
        <pitchspeed>0</pitchspeed>
        <yawspeed>0</yawspeed>
      </mission_attitude>
    </posture>
    <posture>
      <time>2017-02-20T15:16:14.0481438+08:00</time>
      <mission_attitude>
        <time_boot_ms>101700000</time_boot_ms>
        <roll>-0.00349065848</roll>
        <pitch>-0.07679448</pitch>
        <yaw>2.91469979</yaw>
        <rollspeed>0</rollspeed>
        <pitchspeed>0</pitchspeed>
        <yawspeed>0</yawspeed>
      </mission_attitude>
    </posture>
    <posture>
      <time>2017-02-20T15:16:15.0982039+08:00</time>
      <mission_attitude>
        <time_boot_ms>102720000</time_boot_ms>
        <roll>-0.00349065848</roll>
        <pitch>-0.07679448</pitch>
        <yaw>2.932153</yaw>
        <rollspeed>0</rollspeed>
        <pitchspeed>0</pitchspeed>
        <yawspeed>0</yawspeed>
      </mission_attitude>
    </posture>
    <posture>
      <time>2017-02-20T15:16:16.1482639+08:00</time>
      <mission_attitude>
        <time_boot_ms>103760000</time_boot_ms>
        <roll>-0.00349065848</roll>
        <pitch>-0.07679448</pitch>
        <yaw>2.91469979</yaw>
        <rollspeed>0</rollspeed>
        <pitchspeed>0</pitchspeed>
        <yawspeed>0</yawspeed>
      </mission_attitude>
    </posture>
    <posture>
      <time>2017-02-20T15:16:17.1483211+08:00</time>
      <mission_attitude>
        <time_boot_ms>104760000</time_boot_ms>
        <roll>-0.00523598772</roll>
        <pitch>-0.07679448</pitch>
        <yaw>2.8972466</yaw>
        <rollspeed>0</rollspeed>
        <pitchspeed>0</pitchspeed>
        <yawspeed>0</yawspeed>
      </mission_attitude>
    </posture>
    <posture>
      <time>2017-02-20T15:16:19.1984384+08:00</time>
      <mission_attitude>
        <time_boot_ms>106760000</time_boot_ms>
        <roll>-0.00523598772</roll>
        <pitch>-0.07679448</pitch>
        <yaw>2.932153</yaw>
        <rollspeed>0</rollspeed>
        <pitchspeed>0</pitchspeed>
        <yawspeed>0</yawspeed>
      </mission_attitude>
    </posture>
    <posture>
      <time>2017-02-20T15:16:20.1984956+08:00</time>
      <mission_attitude>
        <time_boot_ms>107780000</time_boot_ms>
        <roll>-0.00523598772</roll>
        <pitch>-0.07679448</pitch>
        <yaw>2.932153</yaw>
        <rollspeed>0</rollspeed>
        <pitchspeed>0</pitchspeed>
        <yawspeed>0</yawspeed>
      </mission_attitude>
    </posture>
    <posture>
      <time>2017-02-20T15:16:21.1985528+08:00</time>
      <mission_attitude>
        <time_boot_ms>108780000</time_boot_ms>
        <roll>-0.00523598772</roll>
        <pitch>-0.07679448</pitch>
        <yaw>2.932153</yaw>
        <rollspeed>0</rollspeed>
        <pitchspeed>0</pitchspeed>
        <yawspeed>0</yawspeed>
      </mission_attitude>
    </posture>
    <posture>
      <time>2017-02-20T15:16:22.2486129+08:00</time>
      <mission_attitude>
        <time_boot_ms>109800000</time_boot_ms>
        <roll>-0.00349065848</roll>
        <pitch>-0.07679448</pitch>
        <yaw>2.932153</yaw>
        <rollspeed>0</rollspeed>
        <pitchspeed>0</pitchspeed>
        <yawspeed>0</yawspeed>
      </mission_attitude>
    </posture>
    <posture>
      <time>2017-02-20T15:16:23.1986672+08:00</time>
      <mission_attitude>
        <time_boot_ms>110780000</time_boot_ms>
        <roll>-0.00349065848</roll>
        <pitch>-0.07679448</pitch>
        <yaw>2.91469979</yaw>
        <rollspeed>0</rollspeed>
        <pitchspeed>0</pitchspeed>
        <yawspeed>0</yawspeed>
      </mission_attitude>
    </posture>
    <posture>
      <time>2017-02-20T15:16:24.1987244+08:00</time>
      <mission_attitude>
        <time_boot_ms>111760000</time_boot_ms>
        <roll>-0.00349065848</roll>
        <pitch>-0.07679448</pitch>
        <yaw>2.8972466</yaw>
        <rollspeed>0</rollspeed>
        <pitchspeed>0</pitchspeed>
        <yawspeed>0</yawspeed>
      </mission_attitude>
    </posture>
    <posture>
      <time>2017-02-20T15:16:25.1977815+08:00</time>
      <mission_attitude>
        <time_boot_ms>112740000</time_boot_ms>
        <roll>-0.00349065848</roll>
        <pitch>-0.07679448</pitch>
        <yaw>2.91469979</yaw>
        <rollspeed>0</rollspeed>
        <pitchspeed>0</pitchspeed>
        <yawspeed>0</yawspeed>
      </mission_attitude>
    </posture>
    <posture>
      <time>2017-02-20T15:16:26.1978387+08:00</time>
      <mission_attitude>
        <time_boot_ms>113740000</time_boot_ms>
        <roll>-0.00523598772</roll>
        <pitch>-0.07679448</pitch>
        <yaw>2.8972466</yaw>
        <rollspeed>0</rollspeed>
        <pitchspeed>0</pitchspeed>
        <yawspeed>0</yawspeed>
      </mission_attitude>
    </posture>
    <posture>
      <time>2017-02-20T15:16:27.1978959+08:00</time>
      <mission_attitude>
        <time_boot_ms>114720000</time_boot_ms>
        <roll>-0.00523598772</roll>
        <pitch>-0.07679448</pitch>
        <yaw>2.932153</yaw>
        <rollspeed>0</rollspeed>
        <pitchspeed>0</pitchspeed>
        <yawspeed>0</yawspeed>
      </mission_attitude>
    </posture>
    <posture>
      <time>2017-02-20T15:16:28.1479503+08:00</time>
      <mission_attitude>
        <time_boot_ms>115700000</time_boot_ms>
        <roll>-0.00523598772</roll>
        <pitch>-0.07679448</pitch>
        <yaw>2.932153</yaw>
        <rollspeed>0</rollspeed>
        <pitchspeed>0</pitchspeed>
        <yawspeed>0</yawspeed>
      </mission_attitude>
    </posture>
    <posture>
      <time>2017-02-20T15:16:29.1980103+08:00</time>
      <mission_attitude>
        <time_boot_ms>116720000</time_boot_ms>
        <roll>-0.00349065848</roll>
        <pitch>-0.07679448</pitch>
        <yaw>2.91469979</yaw>
        <rollspeed>0</rollspeed>
        <pitchspeed>0</pitchspeed>
        <yawspeed>0</yawspeed>
      </mission_attitude>
    </posture>
    <posture>
      <time>2017-02-20T15:16:30.1480647+08:00</time>
      <mission_attitude>
        <time_boot_ms>117700000</time_boot_ms>
        <roll>-0.00349065848</roll>
        <pitch>-0.07679448</pitch>
        <yaw>2.932153</yaw>
        <rollspeed>0</rollspeed>
        <pitchspeed>0</pitchspeed>
        <yawspeed>0</yawspeed>
      </mission_attitude>
    </posture>
    <posture>
      <time>2017-02-20T15:16:31.1981247+08:00</time>
      <mission_attitude>
        <time_boot_ms>118720000</time_boot_ms>
        <roll>-0.00349065848</roll>
        <pitch>-0.07679448</pitch>
        <yaw>2.932153</yaw>
        <rollspeed>0</rollspeed>
        <pitchspeed>0</pitchspeed>
        <yawspeed>0</yawspeed>
      </mission_attitude>
    </posture>
    <posture>
      <time>2017-02-20T15:16:32.1481791+08:00</time>
      <mission_attitude>
        <time_boot_ms>119720000</time_boot_ms>
        <roll>-0.00349065848</roll>
        <pitch>-0.07679448</pitch>
        <yaw>2.8972466</yaw>
        <rollspeed>0</rollspeed>
        <pitchspeed>0</pitchspeed>
        <yawspeed>0</yawspeed>
      </mission_attitude>
    </posture>
    <posture>
      <time>2017-02-20T15:16:33.248242+08:00</time>
      <mission_attitude>
        <time_boot_ms>120740000</time_boot_ms>
        <roll>-0.00349065848</roll>
        <pitch>-0.07679448</pitch>
        <yaw>2.932153</yaw>
        <rollspeed>0</rollspeed>
        <pitchspeed>0</pitchspeed>
        <yawspeed>0</yawspeed>
      </mission_attitude>
    </posture>
    <posture>
      <time>2017-02-20T15:16:34.2482992+08:00</time>
      <mission_attitude>
        <time_boot_ms>121740000</time_boot_ms>
        <roll>-0.00349065848</roll>
        <pitch>-0.07679448</pitch>
        <yaw>2.8972466</yaw>
        <rollspeed>0</rollspeed>
        <pitchspeed>0</pitchspeed>
        <yawspeed>0</yawspeed>
      </mission_attitude>
    </posture>
    <posture>
      <time>2017-02-20T15:16:35.2483564+08:00</time>
      <mission_attitude>
        <time_boot_ms>122740000</time_boot_ms>
        <roll>-0.00349065848</roll>
        <pitch>-0.07679448</pitch>
        <yaw>2.91469979</yaw>
        <rollspeed>0</rollspeed>
        <pitchspeed>0</pitchspeed>
        <yawspeed>0</yawspeed>
      </mission_attitude>
    </posture>
    <posture>
      <time>2017-02-20T15:16:36.2484136+08:00</time>
      <mission_attitude>
        <time_boot_ms>123720000</time_boot_ms>
        <roll>-0.00349065848</roll>
        <pitch>-0.07679448</pitch>
        <yaw>2.932153</yaw>
        <rollspeed>0</rollspeed>
        <pitchspeed>0</pitchspeed>
        <yawspeed>0</yawspeed>
      </mission_attitude>
    </posture>
    <posture>
      <time>2017-02-20T15:16:37.1984679+08:00</time>
      <mission_attitude>
        <time_boot_ms>124700000</time_boot_ms>
        <roll>-0.00349065848</roll>
        <pitch>-0.07679448</pitch>
        <yaw>2.91469979</yaw>
        <rollspeed>0</rollspeed>
        <pitchspeed>0</pitchspeed>
        <yawspeed>0</yawspeed>
      </mission_attitude>
    </posture>
    <posture>
      <time>2017-02-20T15:16:38.1985251+08:00</time>
      <mission_attitude>
        <time_boot_ms>125700000</time_boot_ms>
        <roll>-0.00349065848</roll>
        <pitch>-0.07679448</pitch>
        <yaw>2.91469979</yaw>
        <rollspeed>0</rollspeed>
        <pitchspeed>0</pitchspeed>
        <yawspeed>0</yawspeed>
      </mission_attitude>
    </posture>
    <posture>
      <time>2017-02-20T15:16:39.1985823+08:00</time>
      <mission_attitude>
        <time_boot_ms>126680000</time_boot_ms>
        <roll>-0.00349065848</roll>
        <pitch>-0.07679448</pitch>
        <yaw>2.932153</yaw>
        <rollspeed>0</rollspeed>
        <pitchspeed>0</pitchspeed>
        <yawspeed>0</yawspeed>
      </mission_attitude>
    </posture>
    <posture>
      <time>2017-02-20T15:16:40.1986395+08:00</time>
      <mission_attitude>
        <time_boot_ms>127660000</time_boot_ms>
        <roll>-0.00349065848</roll>
        <pitch>-0.07679448</pitch>
        <yaw>2.91469979</yaw>
        <rollspeed>0</rollspeed>
        <pitchspeed>0</pitchspeed>
        <yawspeed>0</yawspeed>
      </mission_attitude>
    </posture>
    <posture>
      <time>2017-02-20T15:16:41.1986967+08:00</time>
      <mission_attitude>
        <time_boot_ms>128640000</time_boot_ms>
        <roll>-0.00349065848</roll>
        <pitch>-0.07679448</pitch>
        <yaw>2.91469979</yaw>
        <rollspeed>0</rollspeed>
        <pitchspeed>0</pitchspeed>
        <yawspeed>0</yawspeed>
      </mission_attitude>
    </posture>
    <posture>
      <time>2017-02-20T15:16:42.1487511+08:00</time>
      <mission_attitude>
        <time_boot_ms>129620000</time_boot_ms>
        <roll>-0.00349065848</roll>
        <pitch>-0.07679448</pitch>
        <yaw>2.91469979</yaw>
        <rollspeed>0</rollspeed>
        <pitchspeed>0</pitchspeed>
        <yawspeed>0</yawspeed>
      </mission_attitude>
    </posture>
    <posture>
      <time>2017-02-20T15:16:43.1478082+08:00</time>
      <mission_attitude>
        <time_boot_ms>130620000</time_boot_ms>
        <roll>-0.00349065848</roll>
        <pitch>-0.07679448</pitch>
        <yaw>2.87979317</yaw>
        <rollspeed>0</rollspeed>
        <pitchspeed>0</pitchspeed>
        <yawspeed>0</yawspeed>
      </mission_attitude>
    </posture>
    <posture>
      <time>2017-02-20T15:16:44.1478654+08:00</time>
      <mission_attitude>
        <time_boot_ms>131620000</time_boot_ms>
        <roll>-0.00349065848</roll>
        <pitch>-0.07679448</pitch>
        <yaw>2.932153</yaw>
        <rollspeed>0</rollspeed>
        <pitchspeed>0</pitchspeed>
        <yawspeed>0</yawspeed>
      </mission_attitude>
    </posture>
    <posture>
      <time>2017-02-20T15:16:45.1979255+08:00</time>
      <mission_attitude>
        <time_boot_ms>132640000</time_boot_ms>
        <roll>-0.00349065848</roll>
        <pitch>-0.07679448</pitch>
        <yaw>2.94960642</yaw>
        <rollspeed>0</rollspeed>
        <pitchspeed>0</pitchspeed>
        <yawspeed>0</yawspeed>
      </mission_attitude>
    </posture>
    <posture>
      <time>2017-02-20T15:16:46.1979827+08:00</time>
      <mission_attitude>
        <time_boot_ms>133640000</time_boot_ms>
        <roll>-0.00349065848</roll>
        <pitch>-0.07679448</pitch>
        <yaw>2.91469979</yaw>
        <rollspeed>0</rollspeed>
        <pitchspeed>0</pitchspeed>
        <yawspeed>0</yawspeed>
      </mission_attitude>
    </posture>
    <posture>
      <time>2017-02-20T15:16:47.1980399+08:00</time>
      <mission_attitude>
        <time_boot_ms>134660000</time_boot_ms>
        <roll>-0.00349065848</roll>
        <pitch>-0.07679448</pitch>
        <yaw>2.91469979</yaw>
        <rollspeed>0</rollspeed>
        <pitchspeed>0</pitchspeed>
        <yawspeed>0</yawspeed>
      </mission_attitude>
    </posture>
    <posture>
      <time>2017-02-20T15:16:48.2480999+08:00</time>
      <mission_attitude>
        <time_boot_ms>135680000</time_boot_ms>
        <roll>-0.00349065848</roll>
        <pitch>-0.07679448</pitch>
        <yaw>2.94960642</yaw>
        <rollspeed>0</rollspeed>
        <pitchspeed>0</pitchspeed>
        <yawspeed>0</yawspeed>
      </mission_attitude>
    </posture>
    <posture>
      <time>2017-02-20T15:16:49.29816+08:00</time>
      <mission_attitude>
        <time_boot_ms>136700000</time_boot_ms>
        <roll>-0.00349065848</roll>
        <pitch>-0.07679448</pitch>
        <yaw>2.91469979</yaw>
        <rollspeed>0</rollspeed>
        <pitchspeed>0</pitchspeed>
        <yawspeed>0</yawspeed>
      </mission_attitude>
    </posture>
    <posture>
      <time>2017-02-20T15:16:50.2982172+08:00</time>
      <mission_attitude>
        <time_boot_ms>137700000</time_boot_ms>
        <roll>-0.00349065848</roll>
        <pitch>-0.07679448</pitch>
        <yaw>2.91469979</yaw>
        <rollspeed>0</rollspeed>
        <pitchspeed>0</pitchspeed>
        <yawspeed>0</yawspeed>
      </mission_attitude>
    </posture>
    <posture>
      <time>2017-02-20T15:16:51.2482715+08:00</time>
      <mission_attitude>
        <time_boot_ms>138680000</time_boot_ms>
        <roll>-0.00349065848</roll>
        <pitch>-0.07679448</pitch>
        <yaw>2.91469979</yaw>
        <rollspeed>0</rollspeed>
        <pitchspeed>0</pitchspeed>
        <yawspeed>0</yawspeed>
      </mission_attitude>
    </posture>
    <posture>
      <time>2017-02-20T15:16:52.2983316+08:00</time>
      <mission_attitude>
        <time_boot_ms>139700000</time_boot_ms>
        <roll>-0.00349065848</roll>
        <pitch>-0.07679448</pitch>
        <yaw>2.8972466</yaw>
        <rollspeed>0</rollspeed>
        <pitchspeed>0</pitchspeed>
        <yawspeed>0</yawspeed>
      </mission_attitude>
    </posture>
    <posture>
      <time>2017-02-20T15:16:53.2983888+08:00</time>
      <mission_attitude>
        <time_boot_ms>140700000</time_boot_ms>
        <roll>-0.00349065848</roll>
        <pitch>-0.07679448</pitch>
        <yaw>2.91469979</yaw>
        <rollspeed>0</rollspeed>
        <pitchspeed>0</pitchspeed>
        <yawspeed>0</yawspeed>
      </mission_attitude>
    </posture>
    <posture>
      <time>2017-02-20T15:16:54.298446+08:00</time>
      <mission_attitude>
        <time_boot_ms>141720000</time_boot_ms>
        <roll>-0.00349065848</roll>
        <pitch>-0.07679448</pitch>
        <yaw>2.94960642</yaw>
        <rollspeed>0</rollspeed>
        <pitchspeed>0</pitchspeed>
        <yawspeed>0</yawspeed>
      </mission_attitude>
    </posture>
    <posture>
      <time>2017-02-20T15:16:55.2985032+08:00</time>
      <mission_attitude>
        <time_boot_ms>142740000</time_boot_ms>
        <roll>-0.00349065848</roll>
        <pitch>-0.07679448</pitch>
        <yaw>2.932153</yaw>
        <rollspeed>0</rollspeed>
        <pitchspeed>0</pitchspeed>
        <yawspeed>0</yawspeed>
      </mission_attitude>
    </posture>
    <posture>
      <time>2017-02-20T15:16:56.3985661+08:00</time>
      <mission_attitude>
        <time_boot_ms>143740000</time_boot_ms>
        <roll>-0.00349065848</roll>
        <pitch>-0.07679448</pitch>
        <yaw>2.932153</yaw>
        <rollspeed>0</rollspeed>
        <pitchspeed>0</pitchspeed>
        <yawspeed>0</yawspeed>
      </mission_attitude>
    </posture>
    <posture>
      <time>2017-02-20T15:16:57.2986176+08:00</time>
      <mission_attitude>
        <time_boot_ms>144720000</time_boot_ms>
        <roll>-0.00349065848</roll>
        <pitch>-0.07679448</pitch>
        <yaw>2.8972466</yaw>
        <rollspeed>0</rollspeed>
        <pitchspeed>0</pitchspeed>
        <yawspeed>0</yawspeed>
      </mission_attitude>
    </posture>
    <posture>
      <time>2017-02-20T15:16:58.2986748+08:00</time>
      <mission_attitude>
        <time_boot_ms>145720000</time_boot_ms>
        <roll>-0.00349065848</roll>
        <pitch>-0.07679448</pitch>
        <yaw>2.932153</yaw>
        <rollspeed>0</rollspeed>
        <pitchspeed>0</pitchspeed>
        <yawspeed>0</yawspeed>
      </mission_attitude>
    </posture>
    <posture>
      <time>2017-02-20T15:16:59.298732+08:00</time>
      <mission_attitude>
        <time_boot_ms>146700000</time_boot_ms>
        <roll>-0.00349065848</roll>
        <pitch>-0.07679448</pitch>
        <yaw>2.91469979</yaw>
        <rollspeed>0</rollspeed>
        <pitchspeed>0</pitchspeed>
        <yawspeed>0</yawspeed>
      </mission_attitude>
    </posture>
    <posture>
      <time>2017-02-20T15:17:00.2977891+08:00</time>
      <mission_attitude>
        <time_boot_ms>147680000</time_boot_ms>
        <roll>-0.00349065848</roll>
        <pitch>-0.07679448</pitch>
        <yaw>2.91469979</yaw>
        <rollspeed>0</rollspeed>
        <pitchspeed>0</pitchspeed>
        <yawspeed>0</yawspeed>
      </mission_attitude>
    </posture>
    <posture>
      <time>2017-02-20T15:17:01.3478492+08:00</time>
      <mission_attitude>
        <time_boot_ms>148720000</time_boot_ms>
        <roll>-0.00349065848</roll>
        <pitch>-0.07679448</pitch>
        <yaw>2.91469979</yaw>
        <rollspeed>0</rollspeed>
        <pitchspeed>0</pitchspeed>
        <yawspeed>0</yawspeed>
      </mission_attitude>
    </posture>
    <posture>
      <time>2017-02-20T15:17:02.3479064+08:00</time>
      <mission_attitude>
        <time_boot_ms>149720000</time_boot_ms>
        <roll>-0.00349065848</roll>
        <pitch>-0.07679448</pitch>
        <yaw>2.94960642</yaw>
        <rollspeed>0</rollspeed>
        <pitchspeed>0</pitchspeed>
        <yawspeed>0</yawspeed>
      </mission_attitude>
    </posture>
    <posture>
      <time>2017-02-20T15:17:03.3479636+08:00</time>
      <mission_attitude>
        <time_boot_ms>150760000</time_boot_ms>
        <roll>-0.00349065848</roll>
        <pitch>-0.07679448</pitch>
        <yaw>2.932153</yaw>
        <rollspeed>0</rollspeed>
        <pitchspeed>0</pitchspeed>
        <yawspeed>0</yawspeed>
      </mission_attitude>
    </posture>
    <posture>
      <time>2017-02-20T15:17:04.3480208+08:00</time>
      <mission_attitude>
        <time_boot_ms>151740000</time_boot_ms>
        <roll>-0.00349065848</roll>
        <pitch>-0.07679448</pitch>
        <yaw>2.94960642</yaw>
        <rollspeed>0</rollspeed>
        <pitchspeed>0</pitchspeed>
        <yawspeed>0</yawspeed>
      </mission_attitude>
    </posture>
    <posture>
      <time>2017-02-20T15:17:05.348078+08:00</time>
      <mission_attitude>
        <time_boot_ms>152740000</time_boot_ms>
        <roll>-0.00349065848</roll>
        <pitch>-0.07679448</pitch>
        <yaw>2.91469979</yaw>
        <rollspeed>0</rollspeed>
        <pitchspeed>0</pitchspeed>
        <yawspeed>0</yawspeed>
      </mission_attitude>
    </posture>
    <posture>
      <time>2017-02-20T15:17:06.3981381+08:00</time>
      <mission_attitude>
        <time_boot_ms>153740000</time_boot_ms>
        <roll>-0.00349065848</roll>
        <pitch>-0.07679448</pitch>
        <yaw>2.8972466</yaw>
        <rollspeed>0</rollspeed>
        <pitchspeed>0</pitchspeed>
        <yawspeed>0</yawspeed>
      </mission_attitude>
    </posture>
    <posture>
      <time>2017-02-20T15:17:07.3481924+08:00</time>
      <mission_attitude>
        <time_boot_ms>154720000</time_boot_ms>
        <roll>-0.00349065848</roll>
        <pitch>-0.07679448</pitch>
        <yaw>2.91469979</yaw>
        <rollspeed>0</rollspeed>
        <pitchspeed>0</pitchspeed>
        <yawspeed>0</yawspeed>
      </mission_attitude>
    </posture>
    <posture>
      <time>2017-02-20T15:17:08.3482496+08:00</time>
      <mission_attitude>
        <time_boot_ms>155740000</time_boot_ms>
        <roll>-0.00349065848</roll>
        <pitch>-0.07679448</pitch>
        <yaw>2.91469979</yaw>
        <rollspeed>0</rollspeed>
        <pitchspeed>0.0174532924</pitchspeed>
        <yawspeed>0</yawspeed>
      </mission_attitude>
    </posture>
    <posture>
      <time>2017-02-20T15:17:09.3983097+08:00</time>
      <mission_attitude>
        <time_boot_ms>156720000</time_boot_ms>
        <roll>-0.00349065848</roll>
        <pitch>-0.07679448</pitch>
        <yaw>2.8972466</yaw>
        <rollspeed>0</rollspeed>
        <pitchspeed>0</pitchspeed>
        <yawspeed>0</yawspeed>
      </mission_attitude>
    </posture>
    <posture>
      <time>2017-02-20T15:17:10.348364+08:00</time>
      <mission_attitude>
        <time_boot_ms>157720000</time_boot_ms>
        <roll>-0.00349065848</roll>
        <pitch>-0.07679448</pitch>
        <yaw>2.94960642</yaw>
        <rollspeed>0</rollspeed>
        <pitchspeed>0</pitchspeed>
        <yawspeed>0</yawspeed>
      </mission_attitude>
    </posture>
    <posture>
      <time>2017-02-20T15:17:11.3984241+08:00</time>
      <mission_attitude>
        <time_boot_ms>158700000</time_boot_ms>
        <roll>-0.00349065848</roll>
        <pitch>-0.07679448</pitch>
        <yaw>2.932153</yaw>
        <rollspeed>0</rollspeed>
        <pitchspeed>0</pitchspeed>
        <yawspeed>0</yawspeed>
      </mission_attitude>
    </posture>
    <posture>
      <time>2017-02-20T15:17:12.3484784+08:00</time>
      <mission_attitude>
        <time_boot_ms>159680000</time_boot_ms>
        <roll>-0.00349065848</roll>
        <pitch>-0.07679448</pitch>
        <yaw>2.932153</yaw>
        <rollspeed>0</rollspeed>
        <pitchspeed>0.0174532924</pitchspeed>
        <yawspeed>0</yawspeed>
      </mission_attitude>
    </posture>
    <posture>
      <time>2017-02-20T15:17:13.3985385+08:00</time>
      <mission_attitude>
        <time_boot_ms>160720000</time_boot_ms>
        <roll>-0.00349065848</roll>
        <pitch>-0.07679448</pitch>
        <yaw>2.932153</yaw>
        <rollspeed>0</rollspeed>
        <pitchspeed>0</pitchspeed>
        <yawspeed>0</yawspeed>
      </mission_attitude>
    </posture>
    <posture>
      <time>2017-02-20T15:17:14.3485928+08:00</time>
      <mission_attitude>
        <time_boot_ms>161700000</time_boot_ms>
        <roll>-0.00349065848</roll>
        <pitch>-0.07679448</pitch>
        <yaw>2.91469979</yaw>
        <rollspeed>0</rollspeed>
        <pitchspeed>0</pitchspeed>
        <yawspeed>0</yawspeed>
      </mission_attitude>
    </posture>
    <posture>
      <time>2017-02-20T15:17:15.3986529+08:00</time>
      <mission_attitude>
        <time_boot_ms>162720000</time_boot_ms>
        <roll>-0.00349065848</roll>
        <pitch>-0.07679448</pitch>
        <yaw>2.91469979</yaw>
        <rollspeed>0</rollspeed>
        <pitchspeed>0</pitchspeed>
        <yawspeed>0</yawspeed>
      </mission_attitude>
    </posture>
    <posture>
      <time>2017-02-20T15:17:16.4487129+08:00</time>
      <mission_attitude>
        <time_boot_ms>163760000</time_boot_ms>
        <roll>-0.00349065848</roll>
        <pitch>-0.07679448</pitch>
        <yaw>2.932153</yaw>
        <rollspeed>0</rollspeed>
        <pitchspeed>0</pitchspeed>
        <yawspeed>0</yawspeed>
      </mission_attitude>
    </posture>
    <posture>
      <time>2017-02-20T15:17:17.5477758+08:00</time>
      <mission_attitude>
        <time_boot_ms>164780000</time_boot_ms>
        <roll>-0.00349065848</roll>
        <pitch>-0.07679448</pitch>
        <yaw>2.8972466</yaw>
        <rollspeed>0</rollspeed>
        <pitchspeed>0</pitchspeed>
        <yawspeed>0</yawspeed>
      </mission_attitude>
    </posture>
    <posture>
      <time>2017-02-20T15:17:18.4978301+08:00</time>
      <mission_attitude>
        <time_boot_ms>165780000</time_boot_ms>
        <roll>-0.00349065848</roll>
        <pitch>-0.07679448</pitch>
        <yaw>2.8972466</yaw>
        <rollspeed>0</rollspeed>
        <pitchspeed>0</pitchspeed>
        <yawspeed>0</yawspeed>
      </mission_attitude>
    </posture>
    <posture>
      <time>2017-02-20T15:17:19.4478845+08:00</time>
      <mission_attitude>
        <time_boot_ms>166760000</time_boot_ms>
        <roll>-0.00349065848</roll>
        <pitch>-0.07679448</pitch>
        <yaw>2.932153</yaw>
        <rollspeed>0</rollspeed>
        <pitchspeed>0</pitchspeed>
        <yawspeed>0</yawspeed>
      </mission_attitude>
    </posture>
    <posture>
      <time>2017-02-20T15:17:20.4479417+08:00</time>
      <mission_attitude>
        <time_boot_ms>167760000</time_boot_ms>
        <roll>-0.00349065848</roll>
        <pitch>-0.07679448</pitch>
        <yaw>2.932153</yaw>
        <rollspeed>0</rollspeed>
        <pitchspeed>0</pitchspeed>
        <yawspeed>0</yawspeed>
      </mission_attitude>
    </posture>
    <posture>
      <time>2017-02-20T15:17:21.4479989+08:00</time>
      <mission_attitude>
        <time_boot_ms>168760000</time_boot_ms>
        <roll>-0.00349065848</roll>
        <pitch>-0.07679448</pitch>
        <yaw>2.96705961</yaw>
        <rollspeed>0</rollspeed>
        <pitchspeed>0</pitchspeed>
        <yawspeed>0</yawspeed>
      </mission_attitude>
    </posture>
    <posture>
      <time>2017-02-20T15:17:22.4480561+08:00</time>
      <mission_attitude>
        <time_boot_ms>169760000</time_boot_ms>
        <roll>-0.00349065848</roll>
        <pitch>-0.07679448</pitch>
        <yaw>2.932153</yaw>
        <rollspeed>0</rollspeed>
        <pitchspeed>0</pitchspeed>
        <yawspeed>0</yawspeed>
      </mission_attitude>
    </posture>
    <posture>
      <time>2017-02-20T15:17:23.4481133+08:00</time>
      <mission_attitude>
        <time_boot_ms>170740000</time_boot_ms>
        <roll>-0.00349065848</roll>
        <pitch>-0.07679448</pitch>
        <yaw>2.86234</yaw>
        <rollspeed>0</rollspeed>
        <pitchspeed>0</pitchspeed>
        <yawspeed>0</yawspeed>
      </mission_attitude>
    </posture>
    <posture>
      <time>2017-02-20T15:17:24.4481705+08:00</time>
      <mission_attitude>
        <time_boot_ms>171740000</time_boot_ms>
        <roll>-0.00349065848</roll>
        <pitch>-0.07679448</pitch>
        <yaw>2.91469979</yaw>
        <rollspeed>0</rollspeed>
        <pitchspeed>0</pitchspeed>
        <yawspeed>0</yawspeed>
      </mission_attitude>
    </posture>
    <posture>
      <time>2017-02-20T15:17:26.4482849+08:00</time>
      <mission_attitude>
        <time_boot_ms>173720000</time_boot_ms>
        <roll>-0.00349065848</roll>
        <pitch>-0.07679448</pitch>
        <yaw>2.91469979</yaw>
        <rollspeed>0</rollspeed>
        <pitchspeed>0</pitchspeed>
        <yawspeed>0</yawspeed>
      </mission_attitude>
    </posture>
    <posture>
      <time>2017-02-20T15:17:27.4483421+08:00</time>
      <mission_attitude>
        <time_boot_ms>174700000</time_boot_ms>
        <roll>-0.00349065848</roll>
        <pitch>-0.07679448</pitch>
        <yaw>2.94960642</yaw>
        <rollspeed>0</rollspeed>
        <pitchspeed>0</pitchspeed>
        <yawspeed>0</yawspeed>
      </mission_attitude>
    </posture>
    <posture>
      <time>2017-02-20T15:17:28.4483993+08:00</time>
      <mission_attitude>
        <time_boot_ms>175680000</time_boot_ms>
        <roll>-0.00349065848</roll>
        <pitch>-0.07679448</pitch>
        <yaw>2.94960642</yaw>
        <rollspeed>0</rollspeed>
        <pitchspeed>0</pitchspeed>
        <yawspeed>0</yawspeed>
      </mission_attitude>
    </posture>
    <posture>
      <time>2017-02-20T15:17:29.4484565+08:00</time>
      <mission_attitude>
        <time_boot_ms>176680000</time_boot_ms>
        <roll>-0.00349065848</roll>
        <pitch>-0.07679448</pitch>
        <yaw>2.94960642</yaw>
        <rollspeed>0</rollspeed>
        <pitchspeed>0</pitchspeed>
        <yawspeed>0</yawspeed>
      </mission_attitude>
    </posture>
    <posture>
      <time>2017-02-20T15:17:30.4485137+08:00</time>
      <mission_attitude>
        <time_boot_ms>177660000</time_boot_ms>
        <roll>-0.00349065848</roll>
        <pitch>-0.07679448</pitch>
        <yaw>2.932153</yaw>
        <rollspeed>0</rollspeed>
        <pitchspeed>0</pitchspeed>
        <yawspeed>0</yawspeed>
      </mission_attitude>
    </posture>
    <posture>
      <time>2017-02-20T15:17:31.4485709+08:00</time>
      <mission_attitude>
        <time_boot_ms>178640000</time_boot_ms>
        <roll>-0.00349065848</roll>
        <pitch>-0.07679448</pitch>
        <yaw>2.91469979</yaw>
        <rollspeed>0</rollspeed>
        <pitchspeed>0</pitchspeed>
        <yawspeed>0</yawspeed>
      </mission_attitude>
    </posture>
    <posture>
      <time>2017-02-20T15:17:32.4486281+08:00</time>
      <mission_attitude>
        <time_boot_ms>179620000</time_boot_ms>
        <roll>-0.00349065848</roll>
        <pitch>-0.07679448</pitch>
        <yaw>2.87979317</yaw>
        <rollspeed>0</rollspeed>
        <pitchspeed>0</pitchspeed>
        <yawspeed>0</yawspeed>
      </mission_attitude>
    </posture>
    <posture>
      <time>2017-02-20T15:17:33.4486853+08:00</time>
      <mission_attitude>
        <time_boot_ms>180620000</time_boot_ms>
        <roll>-0.00349065848</roll>
        <pitch>-0.07679448</pitch>
        <yaw>2.91469979</yaw>
        <rollspeed>0</rollspeed>
        <pitchspeed>0</pitchspeed>
        <yawspeed>0</yawspeed>
      </mission_attitude>
    </posture>
    <posture>
      <time>2017-02-20T15:17:34.3487367+08:00</time>
      <mission_attitude>
        <time_boot_ms>181600000</time_boot_ms>
        <roll>-0.00349065848</roll>
        <pitch>-0.0750491545</pitch>
        <yaw>2.91469979</yaw>
        <rollspeed>0</rollspeed>
        <pitchspeed>0</pitchspeed>
        <yawspeed>0</yawspeed>
      </mission_attitude>
    </posture>
    <posture>
      <time>2017-02-20T15:17:35.4477996+08:00</time>
      <mission_attitude>
        <time_boot_ms>182620000</time_boot_ms>
        <roll>-0.00349065848</roll>
        <pitch>-0.07679448</pitch>
        <yaw>2.932153</yaw>
        <rollspeed>0</rollspeed>
        <pitchspeed>0</pitchspeed>
        <yawspeed>0</yawspeed>
      </mission_attitude>
    </posture>
    <posture>
      <time>2017-02-20T15:17:36.3978539+08:00</time>
      <mission_attitude>
        <time_boot_ms>183620000</time_boot_ms>
        <roll>-0.00349065848</roll>
        <pitch>-0.07679448</pitch>
        <yaw>2.94960642</yaw>
        <rollspeed>0</rollspeed>
        <pitchspeed>0</pitchspeed>
        <yawspeed>0</yawspeed>
      </mission_attitude>
    </posture>
    <posture>
      <time>2017-02-20T15:17:37.447914+08:00</time>
      <mission_attitude>
        <time_boot_ms>184600000</time_boot_ms>
        <roll>-0.00349065848</roll>
        <pitch>-0.07679448</pitch>
        <yaw>2.91469979</yaw>
        <rollspeed>0</rollspeed>
        <pitchspeed>0</pitchspeed>
        <yawspeed>0</yawspeed>
      </mission_attitude>
    </posture>
    <posture>
      <time>2017-02-20T15:17:38.3979683+08:00</time>
      <mission_attitude>
        <time_boot_ms>185580000</time_boot_ms>
        <roll>-0.00349065848</roll>
        <pitch>-0.07679448</pitch>
        <yaw>2.932153</yaw>
        <rollspeed>0</rollspeed>
        <pitchspeed>0</pitchspeed>
        <yawspeed>0</yawspeed>
      </mission_attitude>
    </posture>
    <posture>
      <time>2017-02-20T15:17:39.4480284+08:00</time>
      <mission_attitude>
        <time_boot_ms>186580000</time_boot_ms>
        <roll>-0.00349065848</roll>
        <pitch>-0.07679448</pitch>
        <yaw>2.91469979</yaw>
        <rollspeed>0</rollspeed>
        <pitchspeed>0</pitchspeed>
        <yawspeed>0</yawspeed>
      </mission_attitude>
    </posture>
    <posture>
      <time>2017-02-20T15:17:40.4480856+08:00</time>
      <mission_attitude>
        <time_boot_ms>187600000</time_boot_ms>
        <roll>-0.00349065848</roll>
        <pitch>-0.07679448</pitch>
        <yaw>2.91469979</yaw>
        <rollspeed>0</rollspeed>
        <pitchspeed>0</pitchspeed>
        <yawspeed>0</yawspeed>
      </mission_attitude>
    </posture>
    <posture>
      <time>2017-02-20T15:17:41.4481428+08:00</time>
      <mission_attitude>
        <time_boot_ms>188600000</time_boot_ms>
        <roll>-0.00349065848</roll>
        <pitch>-0.07679448</pitch>
        <yaw>2.91469979</yaw>
        <rollspeed>0</rollspeed>
        <pitchspeed>0</pitchspeed>
        <yawspeed>0</yawspeed>
      </mission_attitude>
    </posture>
    <posture>
      <time>2017-02-20T15:17:42.4482+08:00</time>
      <mission_attitude>
        <time_boot_ms>189580000</time_boot_ms>
        <roll>-0.00349065848</roll>
        <pitch>-0.07679448</pitch>
        <yaw>2.8972466</yaw>
        <rollspeed>0</rollspeed>
        <pitchspeed>0</pitchspeed>
        <yawspeed>0</yawspeed>
      </mission_attitude>
    </posture>
    <posture>
      <time>2017-02-20T15:17:44.4483144+08:00</time>
      <mission_attitude>
        <time_boot_ms>191580000</time_boot_ms>
        <roll>-0.00349065848</roll>
        <pitch>-0.07679448</pitch>
        <yaw>2.932153</yaw>
        <rollspeed>0</rollspeed>
        <pitchspeed>0</pitchspeed>
        <yawspeed>0</yawspeed>
      </mission_attitude>
    </posture>
    <posture>
      <time>2017-02-20T15:17:45.4483716+08:00</time>
      <mission_attitude>
        <time_boot_ms>192560000</time_boot_ms>
        <roll>-0.00349065848</roll>
        <pitch>-0.07679448</pitch>
        <yaw>2.932153</yaw>
        <rollspeed>0</rollspeed>
        <pitchspeed>0</pitchspeed>
        <yawspeed>0</yawspeed>
      </mission_attitude>
    </posture>
    <posture>
      <time>2017-02-20T15:17:46.3484231+08:00</time>
      <mission_attitude>
        <time_boot_ms>193540000</time_boot_ms>
        <roll>-0.00349065848</roll>
        <pitch>-0.07679448</pitch>
        <yaw>2.91469979</yaw>
        <rollspeed>0</rollspeed>
        <pitchspeed>0</pitchspeed>
        <yawspeed>0</yawspeed>
      </mission_attitude>
    </posture>
    <posture>
      <time>2017-02-20T15:17:47.3984831+08:00</time>
      <mission_attitude>
        <time_boot_ms>194520000</time_boot_ms>
        <roll>-0.00349065848</roll>
        <pitch>-0.07679448</pitch>
        <yaw>2.932153</yaw>
        <rollspeed>0</rollspeed>
        <pitchspeed>0</pitchspeed>
        <yawspeed>0</yawspeed>
      </mission_attitude>
    </posture>
    <posture>
      <time>2017-02-20T15:17:48.3485375+08:00</time>
      <mission_attitude>
        <time_boot_ms>195520000</time_boot_ms>
        <roll>-0.00349065848</roll>
        <pitch>-0.07679448</pitch>
        <yaw>2.91469979</yaw>
        <rollspeed>0</rollspeed>
        <pitchspeed>0</pitchspeed>
        <yawspeed>0</yawspeed>
      </mission_attitude>
    </posture>
    <posture>
      <time>2017-02-20T15:17:49.3485947+08:00</time>
      <mission_attitude>
        <time_boot_ms>196520000</time_boot_ms>
        <roll>-0.00349065848</roll>
        <pitch>-0.07679448</pitch>
        <yaw>2.91469979</yaw>
        <rollspeed>0</rollspeed>
        <pitchspeed>0</pitchspeed>
        <yawspeed>0</yawspeed>
      </mission_attitude>
    </posture>
    <posture>
      <time>2017-02-20T15:17:50.3986547+08:00</time>
      <mission_attitude>
        <time_boot_ms>197540000</time_boot_ms>
        <roll>-0.00349065848</roll>
        <pitch>-0.07679448</pitch>
        <yaw>2.91469979</yaw>
        <rollspeed>0</rollspeed>
        <pitchspeed>0</pitchspeed>
        <yawspeed>0</yawspeed>
      </mission_attitude>
    </posture>
    <posture>
      <time>2017-02-20T15:17:51.4487148+08:00</time>
      <mission_attitude>
        <time_boot_ms>198540000</time_boot_ms>
        <roll>-0.00349065848</roll>
        <pitch>-0.07679448</pitch>
        <yaw>2.8972466</yaw>
        <rollspeed>0</rollspeed>
        <pitchspeed>0</pitchspeed>
        <yawspeed>0</yawspeed>
      </mission_attitude>
    </posture>
    <posture>
      <time>2017-02-20T15:17:57.4480579+08:00</time>
      <mission_attitude>
        <time_boot_ms>204560000</time_boot_ms>
        <roll>-0.00349065848</roll>
        <pitch>-0.07679448</pitch>
        <yaw>2.8972466</yaw>
        <rollspeed>0</rollspeed>
        <pitchspeed>0</pitchspeed>
        <yawspeed>0</yawspeed>
      </mission_attitude>
    </posture>
    <posture>
      <time>2017-02-20T15:17:59.4481723+08:00</time>
      <mission_attitude>
        <time_boot_ms>206540000</time_boot_ms>
        <roll>-0.00349065848</roll>
        <pitch>-0.07679448</pitch>
        <yaw>2.91469979</yaw>
        <rollspeed>0</rollspeed>
        <pitchspeed>0</pitchspeed>
        <yawspeed>0</yawspeed>
      </mission_attitude>
    </posture>
    <posture>
      <time>2017-02-20T15:18:01.4482867+08:00</time>
      <mission_attitude>
        <time_boot_ms>208500000</time_boot_ms>
        <roll>-0.00349065848</roll>
        <pitch>-0.07679448</pitch>
        <yaw>2.932153</yaw>
        <rollspeed>0</rollspeed>
        <pitchspeed>0</pitchspeed>
        <yawspeed>0</yawspeed>
      </mission_attitude>
    </posture>
    <posture>
      <time>2017-02-20T15:18:02.3983411+08:00</time>
      <mission_attitude>
        <time_boot_ms>209500000</time_boot_ms>
        <roll>-0.00349065848</roll>
        <pitch>-0.07679448</pitch>
        <yaw>2.94960642</yaw>
        <rollspeed>0</rollspeed>
        <pitchspeed>0</pitchspeed>
        <yawspeed>0</yawspeed>
      </mission_attitude>
    </posture>
    <posture>
      <time>2017-02-20T15:18:03.3983983+08:00</time>
      <mission_attitude>
        <time_boot_ms>210480000</time_boot_ms>
        <roll>-0.00349065848</roll>
        <pitch>-0.07679448</pitch>
        <yaw>2.932153</yaw>
        <rollspeed>0</rollspeed>
        <pitchspeed>0</pitchspeed>
        <yawspeed>0</yawspeed>
      </mission_attitude>
    </posture>
    <posture>
      <time>2017-02-20T15:18:04.4484583+08:00</time>
      <mission_attitude>
        <time_boot_ms>211520000</time_boot_ms>
        <roll>-0.00349065848</roll>
        <pitch>-0.07679448</pitch>
        <yaw>2.8972466</yaw>
        <rollspeed>0</rollspeed>
        <pitchspeed>0</pitchspeed>
        <yawspeed>0</yawspeed>
      </mission_attitude>
    </posture>
    <posture>
      <time>2017-02-20T15:18:05.4485155+08:00</time>
      <mission_attitude>
        <time_boot_ms>212520000</time_boot_ms>
        <roll>-0.00349065848</roll>
        <pitch>-0.07679448</pitch>
        <yaw>2.8972466</yaw>
        <rollspeed>0</rollspeed>
        <pitchspeed>0</pitchspeed>
        <yawspeed>0</yawspeed>
      </mission_attitude>
    </posture>
    <posture>
      <time>2017-02-20T15:18:06.4485727+08:00</time>
      <mission_attitude>
        <time_boot_ms>213520000</time_boot_ms>
        <roll>-0.00349065848</roll>
        <pitch>-0.07679448</pitch>
        <yaw>2.91469979</yaw>
        <rollspeed>0</rollspeed>
        <pitchspeed>0</pitchspeed>
        <yawspeed>0</yawspeed>
      </mission_attitude>
    </posture>
    <posture>
      <time>2017-02-20T15:18:07.4986328+08:00</time>
      <mission_attitude>
        <time_boot_ms>214540000</time_boot_ms>
        <roll>-0.00349065848</roll>
        <pitch>-0.07679448</pitch>
        <yaw>2.91469979</yaw>
        <rollspeed>0</rollspeed>
        <pitchspeed>0</pitchspeed>
        <yawspeed>0</yawspeed>
      </mission_attitude>
    </posture>
    <posture>
      <time>2017-02-20T15:18:08.4486871+08:00</time>
      <mission_attitude>
        <time_boot_ms>215520000</time_boot_ms>
        <roll>-0.00349065848</roll>
        <pitch>-0.07679448</pitch>
        <yaw>2.91469979</yaw>
        <rollspeed>0</rollspeed>
        <pitchspeed>0</pitchspeed>
        <yawspeed>0</yawspeed>
      </mission_attitude>
    </posture>
    <posture>
      <time>2017-02-20T15:18:09.4487443+08:00</time>
      <mission_attitude>
        <time_boot_ms>216520000</time_boot_ms>
        <roll>-0.00349065848</roll>
        <pitch>-0.07679448</pitch>
        <yaw>2.91469979</yaw>
        <rollspeed>0</rollspeed>
        <pitchspeed>0</pitchspeed>
        <yawspeed>0</yawspeed>
      </mission_attitude>
    </posture>
    <posture>
      <time>2017-02-20T15:18:10.4478015+08:00</time>
      <mission_attitude>
        <time_boot_ms>217500000</time_boot_ms>
        <roll>-0.00349065848</roll>
        <pitch>-0.07679448</pitch>
        <yaw>2.932153</yaw>
        <rollspeed>0</rollspeed>
        <pitchspeed>0</pitchspeed>
        <yawspeed>0</yawspeed>
      </mission_attitude>
    </posture>
    <posture>
      <time>2017-02-20T15:18:30.4979483+08:00</time>
      <mission_attitude>
        <time_boot_ms>237440000</time_boot_ms>
        <roll>-0.00349065848</roll>
        <pitch>-0.07679448</pitch>
        <yaw>2.91469979</yaw>
        <rollspeed>0</rollspeed>
        <pitchspeed>0</pitchspeed>
        <yawspeed>0</yawspeed>
      </mission_attitude>
    </posture>
    <posture>
      <time>2017-02-20T15:18:31.4980055+08:00</time>
      <mission_attitude>
        <time_boot_ms>238460000</time_boot_ms>
        <roll>-0.00349065848</roll>
        <pitch>-0.07679448</pitch>
        <yaw>2.91469979</yaw>
        <rollspeed>0</rollspeed>
        <pitchspeed>0</pitchspeed>
        <yawspeed>0</yawspeed>
      </mission_attitude>
    </posture>
    <posture>
      <time>2017-02-20T15:18:35.4982343+08:00</time>
      <mission_attitude>
        <time_boot_ms>242420000</time_boot_ms>
        <roll>-0.00349065848</roll>
        <pitch>-0.07679448</pitch>
        <yaw>2.8972466</yaw>
        <rollspeed>0</rollspeed>
        <pitchspeed>0</pitchspeed>
        <yawspeed>0</yawspeed>
      </mission_attitude>
    </posture>
    <posture>
      <time>2017-02-20T15:18:36.5482944+08:00</time>
      <mission_attitude>
        <time_boot_ms>243400000</time_boot_ms>
        <roll>-0.00349065848</roll>
        <pitch>-0.07679448</pitch>
        <yaw>2.932153</yaw>
        <rollspeed>0</rollspeed>
        <pitchspeed>0</pitchspeed>
        <yawspeed>0</yawspeed>
      </mission_attitude>
    </posture>
    <posture>
      <time>2017-02-20T15:18:37.4983487+08:00</time>
      <mission_attitude>
        <time_boot_ms>244400000</time_boot_ms>
        <roll>-0.00349065848</roll>
        <pitch>-0.07679448</pitch>
        <yaw>2.932153</yaw>
        <rollspeed>0</rollspeed>
        <pitchspeed>0</pitchspeed>
        <yawspeed>0</yawspeed>
      </mission_attitude>
    </posture>
    <posture>
      <time>2017-02-20T15:18:38.4984059+08:00</time>
      <mission_attitude>
        <time_boot_ms>245420000</time_boot_ms>
        <roll>-0.00349065848</roll>
        <pitch>-0.07679448</pitch>
        <yaw>2.932153</yaw>
        <rollspeed>0</rollspeed>
        <pitchspeed>0</pitchspeed>
        <yawspeed>0</yawspeed>
      </mission_attitude>
    </posture>
    <posture>
      <time>2017-02-20T15:18:43.4986919+08:00</time>
      <mission_attitude>
        <time_boot_ms>250380000</time_boot_ms>
        <roll>-0.00349065848</roll>
        <pitch>-0.07679448</pitch>
        <yaw>2.91469979</yaw>
        <rollspeed>0</rollspeed>
        <pitchspeed>0</pitchspeed>
        <yawspeed>0</yawspeed>
      </mission_attitude>
    </posture>
    <posture>
      <time>2017-02-20T15:18:44.4987491+08:00</time>
      <mission_attitude>
        <time_boot_ms>251360000</time_boot_ms>
        <roll>-0.00349065848</roll>
        <pitch>-0.07679448</pitch>
        <yaw>2.932153</yaw>
        <rollspeed>0</rollspeed>
        <pitchspeed>0</pitchspeed>
        <yawspeed>0</yawspeed>
      </mission_attitude>
    </posture>
    <posture>
      <time>2017-02-20T15:18:45.4478034+08:00</time>
      <mission_attitude>
        <time_boot_ms>252340000</time_boot_ms>
        <roll>-0.00349065848</roll>
        <pitch>-0.07679448</pitch>
        <yaw>2.8972466</yaw>
        <rollspeed>0</rollspeed>
        <pitchspeed>0</pitchspeed>
        <yawspeed>0</yawspeed>
      </mission_attitude>
    </posture>
    <posture>
      <time>2017-02-20T15:18:46.4978634+08:00</time>
      <mission_attitude>
        <time_boot_ms>253360000</time_boot_ms>
        <roll>-0.00349065848</roll>
        <pitch>-0.07679448</pitch>
        <yaw>2.932153</yaw>
        <rollspeed>0</rollspeed>
        <pitchspeed>0</pitchspeed>
        <yawspeed>0</yawspeed>
      </mission_attitude>
    </posture>
    <posture>
      <time>2017-02-20T15:18:47.4979206+08:00</time>
      <mission_attitude>
        <time_boot_ms>254360000</time_boot_ms>
        <roll>-0.00174532924</roll>
        <pitch>-0.07679448</pitch>
        <yaw>2.932153</yaw>
        <rollspeed>0</rollspeed>
        <pitchspeed>0</pitchspeed>
