<?xml version="1.0" encoding="utf-8"?>
<SerializeDataClass xmlns:xsi="http://www.w3.org/2001/XMLSchema-instance" xmlns:xsd="http://www.w3.org/2001/XMLSchema">
  <listposture>
    <posture>
      <time>2017-02-21T16:28:46.7430853+08:00</time>
      <mission_attitude>
        <time_boot_ms>76200000</time_boot_ms>
        <roll>-0.02268928</roll>
        <pitch>-0.0645771846</pitch>
        <yaw>2.984513</yaw>
        <rollspeed>0</rollspeed>
        <pitchspeed>0</pitchspeed>
        <yawspeed>0</yawspeed>
      </mission_attitude>
    </posture>
    <posture>
      <time>2017-02-21T16:28:47.6931396+08:00</time>
      <mission_attitude>
        <time_boot_ms>77240000</time_boot_ms>
        <roll>-0.02268928</roll>
        <pitch>-0.0645771846</pitch>
        <yaw>3.01941967</yaw>
        <rollspeed>-0.0174532924</rollspeed>
        <pitchspeed>0</pitchspeed>
        <yawspeed>0</yawspeed>
      </mission_attitude>
    </posture>
    <posture>
      <time>2017-02-21T16:28:48.7431997+08:00</time>
      <mission_attitude>
        <time_boot_ms>78260000</time_boot_ms>
        <roll>-0.02268928</roll>
        <pitch>-0.0645771846</pitch>
        <yaw>3.00196624</yaw>
        <rollspeed>0</rollspeed>
        <pitchspeed>0</pitchspeed>
        <yawspeed>0</yawspeed>
      </mission_attitude>
    </posture>
    <posture>
      <time>2017-02-21T16:28:49.7432569+08:00</time>
      <mission_attitude>
        <time_boot_ms>79240000</time_boot_ms>
        <roll>-0.02268928</roll>
        <pitch>-0.0645771846</pitch>
        <yaw>3.00196624</yaw>
        <rollspeed>-0.0174532924</rollspeed>
        <pitchspeed>0</pitchspeed>
        <yawspeed>0</yawspeed>
      </mission_attitude>
    </posture>
    <posture>
      <time>2017-02-21T16:28:50.7433141+08:00</time>
      <mission_attitude>
        <time_boot_ms>80240000</time_boot_ms>
        <roll>-0.04712389</roll>
        <pitch>-0.0645771846</pitch>
        <yaw>3.00196624</yaw>
        <rollspeed>0</rollspeed>
        <pitchspeed>0</pitchspeed>
        <yawspeed>0</yawspeed>
      </mission_attitude>
    </posture>
    <posture>
      <time>2017-02-21T16:28:51.6933684+08:00</time>
      <mission_attitude>
        <time_boot_ms>81220000</time_boot_ms>
        <roll>-0.02268928</roll>
        <pitch>-0.06632251</pitch>
        <yaw>2.94960642</yaw>
        <rollspeed>0.06981317</rollspeed>
        <pitchspeed>0</pitchspeed>
        <yawspeed>0</yawspeed>
      </mission_attitude>
    </posture>
    <posture>
      <time>2017-02-21T16:29:01.7929461+08:00</time>
      <mission_attitude>
        <time_boot_ms>91300000</time_boot_ms>
        <roll>-0.04886922</roll>
        <pitch>-0.06632251</pitch>
        <yaw>2.984513</yaw>
        <rollspeed>0</rollspeed>
        <pitchspeed>0</pitchspeed>
        <yawspeed>0</yawspeed>
      </mission_attitude>
    </posture>
    <posture>
      <time>2017-02-21T16:29:03.8930662+08:00</time>
      <mission_attitude>
        <time_boot_ms>93300000</time_boot_ms>
        <roll>-0.04886922</roll>
        <pitch>-0.06806784</pitch>
        <yaw>2.96705961</yaw>
        <rollspeed>0</rollspeed>
        <pitchspeed>0</pitchspeed>
        <yawspeed>0</yawspeed>
      </mission_attitude>
    </posture>
    <posture>
      <time>2017-02-21T16:29:04.8931234+08:00</time>
      <mission_attitude>
        <time_boot_ms>94320000</time_boot_ms>
        <roll>-0.04886922</roll>
        <pitch>-0.06806784</pitch>
        <yaw>2.96705961</yaw>
        <rollspeed>0</rollspeed>
        <pitchspeed>0</pitchspeed>
        <yawspeed>0</yawspeed>
      </mission_attitude>
    </posture>
    <posture>
      <time>2017-02-21T16:29:16.2937755+08:00</time>
      <mission_attitude>
        <time_boot_ms>105660000</time_boot_ms>
        <roll>-0.04886922</roll>
        <pitch>-0.06806784</pitch>
        <yaw>2.96705961</yaw>
        <rollspeed>0</rollspeed>
        <pitchspeed>0</pitchspeed>
        <yawspeed>0</yawspeed>
      </mission_attitude>
    </posture>
    <posture>
      <time>2017-02-21T16:29:35.2938622+08:00</time>
      <mission_attitude>
        <time_boot_ms>124540000</time_boot_ms>
        <roll>-0.04886922</roll>
        <pitch>-0.06806784</pitch>
        <yaw>3.00196624</yaw>
        <rollspeed>0</rollspeed>
        <pitchspeed>0</pitchspeed>
        <yawspeed>0</yawspeed>
      </mission_attitude>
    </posture>
    <posture>
      <time>2017-02-21T16:29:37.5929937+08:00</time>
      <mission_attitude>
        <time_boot_ms>126820000</time_boot_ms>
        <roll>-0.0174532924</roll>
        <pitch>-0.06806784</pitch>
        <yaw>3.01941967</yaw>
        <rollspeed>0</rollspeed>
        <pitchspeed>0</pitchspeed>
        <yawspeed>0</yawspeed>
      </mission_attitude>
    </posture>
    <posture>
      <time>2017-02-21T16:29:39.8431224+08:00</time>
      <mission_attitude>
        <time_boot_ms>129080000</time_boot_ms>
        <roll>-0.0174532924</roll>
        <pitch>-0.06806784</pitch>
        <yaw>3.00196624</yaw>
        <rollspeed>0</rollspeed>
        <pitchspeed>0</pitchspeed>
        <yawspeed>0</yawspeed>
      </mission_attitude>
    </posture>
    <posture>
      <time>2017-02-21T16:29:41.0931939+08:00</time>
      <mission_attitude>
        <time_boot_ms>130320000</time_boot_ms>
        <roll>-0.0157079622</roll>
        <pitch>-0.06806784</pitch>
        <yaw>3.00196624</yaw>
        <rollspeed>0</rollspeed>
        <pitchspeed>0</pitchspeed>
        <yawspeed>0</yawspeed>
      </mission_attitude>
    </posture>
    <posture>
      <time>2017-02-21T16:29:42.0932511+08:00</time>
      <mission_attitude>
        <time_boot_ms>131320000</time_boot_ms>
        <roll>-0.0157079622</roll>
        <pitch>-0.06806784</pitch>
        <yaw>3.00196624</yaw>
        <rollspeed>0</rollspeed>
        <pitchspeed>0</pitchspeed>
        <yawspeed>0</yawspeed>
      </mission_attitude>
    </posture>
    <posture>
      <time>2017-02-21T16:29:44.3433798+08:00</time>
      <mission_attitude>
        <time_boot_ms>133620000</time_boot_ms>
        <roll>-0.0157079622</roll>
        <pitch>-0.06806784</pitch>
        <yaw>3.01941967</yaw>
        <rollspeed>0</rollspeed>
        <pitchspeed>0</pitchspeed>
        <yawspeed>0</yawspeed>
      </mission_attitude>
    </posture>
    <posture>
      <time>2017-02-21T16:29:45.4434427+08:00</time>
      <mission_attitude>
        <time_boot_ms>134660000</time_boot_ms>
        <roll>-0.0157079622</roll>
        <pitch>-0.06806784</pitch>
        <yaw>3.00196624</yaw>
        <rollspeed>0</rollspeed>
        <pitchspeed>0</pitchspeed>
        <yawspeed>0</yawspeed>
      </mission_attitude>
    </posture>
    <posture>
      <time>2017-02-21T16:29:46.6435114+08:00</time>
      <mission_attitude>
        <time_boot_ms>135900000</time_boot_ms>
        <roll>-0.0139626339</roll>
        <pitch>-0.06806784</pitch>
        <yaw>3.00196624</yaw>
        <rollspeed>0</rollspeed>
        <pitchspeed>0</pitchspeed>
        <yawspeed>0</yawspeed>
      </mission_attitude>
    </posture>
    <posture>
      <time>2017-02-21T16:29:47.6935714+08:00</time>
      <mission_attitude>
        <time_boot_ms>136940000</time_boot_ms>
        <roll>-0.0139626339</roll>
        <pitch>-0.06806784</pitch>
        <yaw>3.00196624</yaw>
        <rollspeed>0</rollspeed>
        <pitchspeed>0</pitchspeed>
        <yawspeed>0</yawspeed>
      </mission_attitude>
    </posture>
    <posture>
      <time>2017-02-21T16:30:02.7934351+08:00</time>
      <mission_attitude>
        <time_boot_ms>151960000</time_boot_ms>
        <roll>-0.0122173047</roll>
        <pitch>-0.06632251</pitch>
        <yaw>3.01941967</yaw>
        <rollspeed>0</rollspeed>
        <pitchspeed>0</pitchspeed>
        <yawspeed>0</yawspeed>
      </mission_attitude>
    </posture>
    <posture>
      <time>2017-02-21T16:30:03.8434952+08:00</time>
      <mission_attitude>
        <time_boot_ms>153000000</time_boot_ms>
        <roll>-0.0122173047</roll>
        <pitch>-0.06632251</pitch>
        <yaw>3.01941967</yaw>
        <rollspeed>0</rollspeed>
        <pitchspeed>0</pitchspeed>
        <yawspeed>0</yawspeed>
      </mission_attitude>
    </posture>
    <posture>
      <time>2017-02-21T16:30:04.8935552+08:00</time>
      <mission_attitude>
        <time_boot_ms>154020000</time_boot_ms>
        <roll>-0.0122173047</roll>
        <pitch>-0.06632251</pitch>
        <yaw>3.00196624</yaw>
        <rollspeed>0</rollspeed>
        <pitchspeed>0</pitchspeed>
        <yawspeed>0</yawspeed>
      </mission_attitude>
    </posture>
    <posture>
      <time>2017-02-21T16:30:05.8936124+08:00</time>
      <mission_attitude>
        <time_boot_ms>155020000</time_boot_ms>
        <roll>-0.0139626339</roll>
        <pitch>-0.06632251</pitch>
        <yaw>3.01941967</yaw>
        <rollspeed>0</rollspeed>
        <pitchspeed>0</pitchspeed>
        <yawspeed>0</yawspeed>
      </mission_attitude>
    </posture>
    <posture>
      <time>2017-02-21T16:30:06.8936696+08:00</time>
      <mission_attitude>
        <time_boot_ms>156060000</time_boot_ms>
        <roll>-0.0139626339</roll>
        <pitch>-0.06632251</pitch>
        <yaw>3.01941967</yaw>
        <rollspeed>0</rollspeed>
        <pitchspeed>0</pitchspeed>
        <yawspeed>0</yawspeed>
      </mission_attitude>
    </posture>
    <posture>
      <time>2017-02-21T16:30:07.9437297+08:00</time>
      <mission_attitude>
        <time_boot_ms>157080000</time_boot_ms>
        <roll>-0.0139626339</roll>
        <pitch>-0.06632251</pitch>
        <yaw>3.01941967</yaw>
        <rollspeed>0</rollspeed>
        <pitchspeed>0</pitchspeed>
        <yawspeed>0</yawspeed>
      </mission_attitude>
    </posture>
    <posture>
      <time>2017-02-21T16:30:08.9437869+08:00</time>
      <mission_attitude>
        <time_boot_ms>158120000</time_boot_ms>
        <roll>-0.0122173047</roll>
        <pitch>-0.06632251</pitch>
        <yaw>3.01941967</yaw>
        <rollspeed>0</rollspeed>
        <pitchspeed>0</pitchspeed>
        <yawspeed>0</yawspeed>
      </mission_attitude>
    </posture>
    <posture>
      <time>2017-02-21T16:30:10.0438498+08:00</time>
      <mission_attitude>
        <time_boot_ms>159140000</time_boot_ms>
        <roll>-0.0122173047</roll>
        <pitch>-0.06632251</pitch>
        <yaw>3.01941967</yaw>
        <rollspeed>0</rollspeed>
        <pitchspeed>0</pitchspeed>
        <yawspeed>0</yawspeed>
      </mission_attitude>
    </posture>
    <posture>
      <time>2017-02-21T16:30:11.043907+08:00</time>
      <mission_attitude>
        <time_boot_ms>160140000</time_boot_ms>
        <roll>-0.0122173047</roll>
        <pitch>-0.06632251</pitch>
        <yaw>3.03687286</yaw>
        <rollspeed>0</rollspeed>
        <pitchspeed>0</pitchspeed>
        <yawspeed>0</yawspeed>
      </mission_attitude>
    </posture>
    <posture>
      <time>2017-02-21T16:30:12.0429641+08:00</time>
      <mission_attitude>
        <time_boot_ms>161160000</time_boot_ms>
        <roll>-0.0139626339</roll>
        <pitch>-0.06632251</pitch>
        <yaw>3.01941967</yaw>
        <rollspeed>0</rollspeed>
        <pitchspeed>0</pitchspeed>
        <yawspeed>0</yawspeed>
      </mission_attitude>
    </posture>
    <posture>
      <time>2017-02-21T16:30:13.0430213+08:00</time>
      <mission_attitude>
        <time_boot_ms>162140000</time_boot_ms>
        <roll>-0.0139626339</roll>
        <pitch>-0.06632251</pitch>
        <yaw>3.00196624</yaw>
        <rollspeed>0</rollspeed>
        <pitchspeed>0</pitchspeed>
        <yawspeed>0</yawspeed>
      </mission_attitude>
    </posture>
    <posture>
      <time>2017-02-21T16:30:14.0430785+08:00</time>
      <mission_attitude>
        <time_boot_ms>163160000</time_boot_ms>
        <roll>-0.0139626339</roll>
        <pitch>-0.06632251</pitch>
        <yaw>3.00196624</yaw>
        <rollspeed>0</rollspeed>
        <pitchspeed>0</pitchspeed>
        <yawspeed>0</yawspeed>
      </mission_attitude>
    </posture>
    <posture>
      <time>2017-02-21T16:30:15.0931386+08:00</time>
      <mission_attitude>
        <time_boot_ms>164180000</time_boot_ms>
        <roll>-0.0139626339</roll>
        <pitch>-0.06632251</pitch>
        <yaw>3.01941967</yaw>
        <rollspeed>0</rollspeed>
        <pitchspeed>0</pitchspeed>
        <yawspeed>0</yawspeed>
      </mission_attitude>
    </posture>
    <posture>
      <time>2017-02-21T16:30:16.0931958+08:00</time>
      <mission_attitude>
        <time_boot_ms>165200000</time_boot_ms>
        <roll>-0.0122173047</roll>
        <pitch>-0.06632251</pitch>
        <yaw>3.01941967</yaw>
        <rollspeed>0</rollspeed>
        <pitchspeed>0</pitchspeed>
        <yawspeed>0</yawspeed>
      </mission_attitude>
    </posture>
    <posture>
      <time>2017-02-21T16:30:17.093253+08:00</time>
      <mission_attitude>
        <time_boot_ms>166200000</time_boot_ms>
        <roll>-0.0122173047</roll>
        <pitch>-0.06632251</pitch>
        <yaw>3.01941967</yaw>
        <rollspeed>0</rollspeed>
        <pitchspeed>0</pitchspeed>
        <yawspeed>0</yawspeed>
      </mission_attitude>
    </posture>
    <posture>
      <time>2017-02-21T16:30:18.1433131+08:00</time>
      <mission_attitude>
        <time_boot_ms>167220000</time_boot_ms>
        <roll>-0.0122173047</roll>
        <pitch>-0.06632251</pitch>
        <yaw>3.03687286</yaw>
        <rollspeed>0</rollspeed>
        <pitchspeed>0</pitchspeed>
        <yawspeed>0</yawspeed>
      </mission_attitude>
    </posture>
    <posture>
      <time>2017-02-21T16:30:22.3435533+08:00</time>
      <mission_attitude>
        <time_boot_ms>680000</time_boot_ms>
        <roll>-0.0122173047</roll>
        <pitch>-0.06632251</pitch>
        <yaw>0</yaw>
        <rollspeed>0</rollspeed>
        <pitchspeed>0</pitchspeed>
        <yawspeed>0</yawspeed>
      </mission_attitude>
    </posture>
    <posture>
      <time>2017-02-21T16:30:23.3436105+08:00</time>
      <mission_attitude>
        <time_boot_ms>1680000</time_boot_ms>
        <roll>-0.0122173047</roll>
        <pitch>-0.06632251</pitch>
        <yaw>0</yaw>
        <rollspeed>0</rollspeed>
        <pitchspeed>0</pitchspeed>
        <yawspeed>0</yawspeed>
      </mission_attitude>
    </posture>
    <posture>
      <time>2017-02-21T16:30:24.3436677+08:00</time>
      <mission_attitude>
        <time_boot_ms>2680000</time_boot_ms>
        <roll>-0.0122173047</roll>
        <pitch>-0.06632251</pitch>
        <yaw>3.03687286</yaw>
        <rollspeed>0</rollspeed>
        <pitchspeed>0</pitchspeed>
        <yawspeed>0</yawspeed>
      </mission_attitude>
    </posture>
    <posture>
      <time>2017-02-21T16:30:25.3437249+08:00</time>
      <mission_attitude>
        <time_boot_ms>3680000</time_boot_ms>
        <roll>-0.0122173047</roll>
        <pitch>-0.06632251</pitch>
        <yaw>3.01941967</yaw>
        <rollspeed>0</rollspeed>
        <pitchspeed>0</pitchspeed>
        <yawspeed>0</yawspeed>
      </mission_attitude>
    </posture>
    <posture>
      <time>2017-02-21T16:30:26.3437821+08:00</time>
      <mission_attitude>
        <time_boot_ms>4700000</time_boot_ms>
        <roll>-0.0122173047</roll>
        <pitch>-0.06632251</pitch>
        <yaw>3.03687286</yaw>
        <rollspeed>0</rollspeed>
        <pitchspeed>0</pitchspeed>
        <yawspeed>0</yawspeed>
      </mission_attitude>
    </posture>
    <posture>
      <time>2017-02-21T16:30:27.3938422+08:00</time>
      <mission_attitude>
        <time_boot_ms>5720000</time_boot_ms>
        <roll>-0.0122173047</roll>
        <pitch>-0.06632251</pitch>
        <yaw>3.03687286</yaw>
        <rollspeed>0</rollspeed>
        <pitchspeed>0</pitchspeed>
        <yawspeed>0</yawspeed>
      </mission_attitude>
    </posture>
    <posture>
      <time>2017-02-21T16:30:28.3938994+08:00</time>
      <mission_attitude>
        <time_boot_ms>6700000</time_boot_ms>
        <roll>-0.0122173047</roll>
        <pitch>-0.06632251</pitch>
        <yaw>3.01941967</yaw>
        <rollspeed>0</rollspeed>
        <pitchspeed>0</pitchspeed>
        <yawspeed>0</yawspeed>
      </mission_attitude>
    </posture>
    <posture>
      <time>2017-02-21T16:30:29.3429536+08:00</time>
      <mission_attitude>
        <time_boot_ms>7700000</time_boot_ms>
        <roll>-0.0122173047</roll>
        <pitch>-0.06632251</pitch>
        <yaw>3.00196624</yaw>
        <rollspeed>0</rollspeed>
        <pitchspeed>0</pitchspeed>
        <yawspeed>0</yawspeed>
      </mission_attitude>
    </posture>
    <posture>
      <time>2017-02-21T16:30:30.3430108+08:00</time>
      <mission_attitude>
        <time_boot_ms>8700000</time_boot_ms>
        <roll>-0.0122173047</roll>
        <pitch>-0.06632251</pitch>
        <yaw>3.00196624</yaw>
        <rollspeed>0</rollspeed>
        <pitchspeed>0</pitchspeed>
        <yawspeed>0</yawspeed>
      </mission_attitude>
    </posture>
    <posture>
      <time>2017-02-21T16:30:33.5931967+08:00</time>
      <mission_attitude>
        <time_boot_ms>11560000</time_boot_ms>
        <roll>-0.0122173047</roll>
        <pitch>-0.06632251</pitch>
        <yaw>3.01941967</yaw>
        <rollspeed>0</rollspeed>
        <pitchspeed>0</pitchspeed>
        <yawspeed>0</yawspeed>
      </mission_attitude>
    </posture>
    <posture>
      <time>2017-02-21T16:30:34.2432339+08:00</time>
      <mission_attitude>
        <time_boot_ms>12560000</time_boot_ms>
        <roll>-0.0122173047</roll>
        <pitch>-0.06632251</pitch>
        <yaw>3.01941967</yaw>
        <rollspeed>0</rollspeed>
        <pitchspeed>0</pitchspeed>
        <yawspeed>0</yawspeed>
      </mission_attitude>
    </posture>
    <posture>
      <time>2017-02-21T16:30:35.293294+08:00</time>
      <mission_attitude>
        <time_boot_ms>13620000</time_boot_ms>
        <roll>-0.0122173047</roll>
        <pitch>-0.06632251</pitch>
        <yaw>3.01941967</yaw>
        <rollspeed>0</rollspeed>
        <pitchspeed>0</pitchspeed>
        <yawspeed>0</yawspeed>
      </mission_attitude>
    </posture>
    <posture>
      <time>2017-02-21T16:30:36.343354+08:00</time>
      <mission_attitude>
        <time_boot_ms>14640000</time_boot_ms>
        <roll>-0.0122173047</roll>
        <pitch>-0.06632251</pitch>
        <yaw>3.01941967</yaw>
        <rollspeed>0</rollspeed>
        <pitchspeed>0</pitchspeed>
        <yawspeed>0</yawspeed>
      </mission_attitude>
    </posture>
    <posture>
      <time>2017-02-21T16:30:37.3434112+08:00</time>
      <mission_attitude>
        <time_boot_ms>15620000</time_boot_ms>
        <roll>-0.0122173047</roll>
        <pitch>-0.06632251</pitch>
        <yaw>3.01941967</yaw>
        <rollspeed>0</rollspeed>
        <pitchspeed>0</pitchspeed>
        <yawspeed>0</yawspeed>
      </mission_attitude>
    </posture>
    <posture>
      <time>2017-02-21T16:31:00.3937297+08:00</time>
      <mission_attitude>
        <time_boot_ms>38580000</time_boot_ms>
        <roll>-0.0122173047</roll>
        <pitch>-0.06632251</pitch>
        <yaw>3.01941967</yaw>
        <rollspeed>0</rollspeed>
        <pitchspeed>0</pitchspeed>
        <yawspeed>0</yawspeed>
      </mission_attitude>
    </posture>
    <posture>
      <time>2017-02-21T16:31:01.4437897+08:00</time>
      <mission_attitude>
        <time_boot_ms>39620000</time_boot_ms>
        <roll>-0.0122173047</roll>
        <pitch>-0.06632251</pitch>
        <yaw>3.01941967</yaw>
        <rollspeed>0</rollspeed>
        <pitchspeed>0</pitchspeed>
        <yawspeed>0</yawspeed>
      </mission_attitude>
    </posture>
    <posture>
      <time>2017-02-21T16:31:02.4938498+08:00</time>
      <mission_attitude>
        <time_boot_ms>40640000</time_boot_ms>
        <roll>-0.0122173047</roll>
        <pitch>-0.06632251</pitch>
        <yaw>3.01941967</yaw>
        <rollspeed>0</rollspeed>
        <pitchspeed>0</pitchspeed>
        <yawspeed>0</yawspeed>
      </mission_attitude>
    </posture>
    <posture>
      <time>2017-02-21T16:31:03.493907+08:00</time>
      <mission_attitude>
        <time_boot_ms>41640000</time_boot_ms>
        <roll>-0.0122173047</roll>
        <pitch>-0.06632251</pitch>
        <yaw>3.01941967</yaw>
        <rollspeed>0</rollspeed>
        <pitchspeed>0</pitchspeed>
        <yawspeed>0</yawspeed>
      </mission_attitude>
    </posture>
    <posture>
      <time>2017-02-21T16:31:04.4929641+08:00</time>
      <mission_attitude>
        <time_boot_ms>42640000</time_boot_ms>
        <roll>-0.0122173047</roll>
        <pitch>-0.06632251</pitch>
        <yaw>3.01941967</yaw>
        <rollspeed>0</rollspeed>
        <pitchspeed>0</pitchspeed>
        <yawspeed>0</yawspeed>
      </mission_attitude>
    </posture>
    <posture>
      <time>2017-02-21T16:31:05.4930213+08:00</time>
      <mission_attitude>
        <time_boot_ms>43640000</time_boot_ms>
        <roll>-0.0122173047</roll>
        <pitch>-0.06632251</pitch>
        <yaw>3.01941967</yaw>
        <rollspeed>0</rollspeed>
        <pitchspeed>0</pitchspeed>
        <yawspeed>0</yawspeed>
      </mission_attitude>
    </posture>
    <posture>
      <time>2017-02-21T16:31:06.4930785+08:00</time>
      <mission_attitude>
        <time_boot_ms>44640000</time_boot_ms>
        <roll>-0.0122173047</roll>
        <pitch>-0.06632251</pitch>
        <yaw>3.01941967</yaw>
        <rollspeed>0</rollspeed>
        <pitchspeed>0</pitchspeed>
        <yawspeed>0</yawspeed>
      </mission_attitude>
    </posture>
    <posture>
      <time>2017-02-21T16:31:07.4931357+08:00</time>
      <mission_attitude>
        <time_boot_ms>45640000</time_boot_ms>
        <roll>-0.0122173047</roll>
        <pitch>-0.06632251</pitch>
        <yaw>3.01941967</yaw>
        <rollspeed>0</rollspeed>
        <pitchspeed>0</pitchspeed>
        <yawspeed>0</yawspeed>
      </mission_attitude>
    </posture>
    <posture>
      <time>2017-02-21T16:31:08.5431958+08:00</time>
      <mission_attitude>
        <time_boot_ms>46660000</time_boot_ms>
        <roll>-0.0122173047</roll>
        <pitch>-0.06632251</pitch>
        <yaw>3.01941967</yaw>
        <rollspeed>0</rollspeed>
        <pitchspeed>0</pitchspeed>
        <yawspeed>0</yawspeed>
      </mission_attitude>
    </posture>
    <posture>
      <time>2017-02-21T16:31:09.543253+08:00</time>
      <mission_attitude>
        <time_boot_ms>47660000</time_boot_ms>
        <roll>-0.0122173047</roll>
        <pitch>-0.06632251</pitch>
        <yaw>3.01941967</yaw>
        <rollspeed>0</rollspeed>
        <pitchspeed>0</pitchspeed>
        <yawspeed>0</yawspeed>
      </mission_attitude>
    </posture>
    <posture>
      <time>2017-02-21T16:31:10.5433102+08:00</time>
      <mission_attitude>
        <time_boot_ms>48660000</time_boot_ms>
        <roll>-0.0122173047</roll>
        <pitch>-0.06632251</pitch>
        <yaw>3.03687286</yaw>
        <rollspeed>0</rollspeed>
        <pitchspeed>0</pitchspeed>
        <yawspeed>0</yawspeed>
      </mission_attitude>
    </posture>
    <posture>
      <time>2017-02-21T16:31:11.5433674+08:00</time>
      <mission_attitude>
        <time_boot_ms>49640000</time_boot_ms>
        <roll>-0.0122173047</roll>
        <pitch>-0.06632251</pitch>
        <yaw>3.01941967</yaw>
        <rollspeed>0</rollspeed>
        <pitchspeed>0</pitchspeed>
        <yawspeed>0</yawspeed>
      </mission_attitude>
    </posture>
    <posture>
      <time>2017-02-21T16:31:12.5434246+08:00</time>
      <mission_attitude>
        <time_boot_ms>50640000</time_boot_ms>
        <roll>-0.0122173047</roll>
        <pitch>-0.06632251</pitch>
        <yaw>3.01941967</yaw>
        <rollspeed>0</rollspeed>
        <pitchspeed>0</pitchspeed>
        <yawspeed>0</yawspeed>
      </mission_attitude>
    </posture>
    <posture>
      <time>2017-02-21T16:31:13.5434818+08:00</time>
      <mission_attitude>
        <time_boot_ms>51640000</time_boot_ms>
        <roll>-0.0122173047</roll>
        <pitch>-0.06632251</pitch>
        <yaw>3.01941967</yaw>
        <rollspeed>0</rollspeed>
        <pitchspeed>0</pitchspeed>
        <yawspeed>0</yawspeed>
      </mission_attitude>
    </posture>
    <posture>
      <time>2017-02-21T16:31:14.543539+08:00</time>
      <mission_attitude>
        <time_boot_ms>52640000</time_boot_ms>
        <roll>-0.0122173047</roll>
        <pitch>-0.06632251</pitch>
        <yaw>3.01941967</yaw>
        <rollspeed>0</rollspeed>
        <pitchspeed>0</pitchspeed>
        <yawspeed>0</yawspeed>
      </mission_attitude>
    </posture>
    <posture>
      <time>2017-02-21T16:31:15.5435962+08:00</time>
      <mission_attitude>
        <time_boot_ms>53640000</time_boot_ms>
        <roll>-0.0122173047</roll>
        <pitch>-0.06632251</pitch>
        <yaw>3.03687286</yaw>
        <rollspeed>0</rollspeed>
        <pitchspeed>0</pitchspeed>
        <yawspeed>0</yawspeed>
      </mission_attitude>
    </posture>
    <posture>
      <time>2017-02-21T16:31:16.5436534+08:00</time>
      <mission_attitude>
        <time_boot_ms>54620000</time_boot_ms>
        <roll>-0.0122173047</roll>
        <pitch>-0.06632251</pitch>
        <yaw>3.03687286</yaw>
        <rollspeed>0</rollspeed>
        <pitchspeed>0</pitchspeed>
        <yawspeed>0</yawspeed>
      </mission_attitude>
    </posture>
    <posture>
      <time>2017-02-21T16:31:17.5437106+08:00</time>
      <mission_attitude>
        <time_boot_ms>55640000</time_boot_ms>
        <roll>-0.0122173047</roll>
        <pitch>-0.06632251</pitch>
        <yaw>3.01941967</yaw>
        <rollspeed>0</rollspeed>
        <pitchspeed>0</pitchspeed>
        <yawspeed>0</yawspeed>
      </mission_attitude>
    </posture>
    <posture>
      <time>2017-02-21T16:31:18.5437678+08:00</time>
      <mission_attitude>
        <time_boot_ms>56640000</time_boot_ms>
        <roll>-0.0122173047</roll>
        <pitch>-0.06632251</pitch>
        <yaw>3.01941967</yaw>
        <rollspeed>0</rollspeed>
        <pitchspeed>0</pitchspeed>
        <yawspeed>0</yawspeed>
      </mission_attitude>
    </posture>
    <posture>
      <time>2017-02-21T16:31:19.543825+08:00</time>
      <mission_attitude>
        <time_boot_ms>57640000</time_boot_ms>
        <roll>-0.0122173047</roll>
        <pitch>-0.06632251</pitch>
        <yaw>3.00196624</yaw>
        <rollspeed>0</rollspeed>
        <pitchspeed>0</pitchspeed>
        <yawspeed>0</yawspeed>
      </mission_attitude>
    </posture>
    <posture>
      <time>2017-02-21T16:31:20.5438822+08:00</time>
      <mission_attitude>
        <time_boot_ms>58640000</time_boot_ms>
        <roll>-0.0122173047</roll>
        <pitch>-0.06632251</pitch>
        <yaw>3.00196624</yaw>
        <rollspeed>0</rollspeed>
        <pitchspeed>0</pitchspeed>
        <yawspeed>0</yawspeed>
      </mission_attitude>
    </posture>
    <posture>
      <time>2017-02-21T16:31:21.5929422+08:00</time>
      <mission_attitude>
        <time_boot_ms>59640000</time_boot_ms>
        <roll>-0.0122173047</roll>
        <pitch>-0.06632251</pitch>
        <yaw>3.01941967</yaw>
        <rollspeed>0</rollspeed>
        <pitchspeed>0</pitchspeed>
        <yawspeed>0</yawspeed>
      </mission_attitude>
    </posture>
    <posture>
      <time>2017-02-21T16:31:22.5429965+08:00</time>
      <mission_attitude>
        <time_boot_ms>60640000</time_boot_ms>
        <roll>-0.0122173047</roll>
        <pitch>-0.06632251</pitch>
        <yaw>3.01941967</yaw>
        <rollspeed>0</rollspeed>
        <pitchspeed>0</pitchspeed>
        <yawspeed>0</yawspeed>
      </mission_attitude>
    </posture>
    <posture>
      <time>2017-02-21T16:31:23.5930566+08:00</time>
      <mission_attitude>
        <time_boot_ms>61640000</time_boot_ms>
        <roll>-0.0122173047</roll>
        <pitch>-0.06632251</pitch>
        <yaw>3.01941967</yaw>
        <rollspeed>0</rollspeed>
        <pitchspeed>0</pitchspeed>
        <yawspeed>0</yawspeed>
      </mission_attitude>
    </posture>
    <posture>
      <time>2017-02-21T16:31:24.5931138+08:00</time>
      <mission_attitude>
        <time_boot_ms>62640000</time_boot_ms>
        <roll>-0.0122173047</roll>
        <pitch>-0.06632251</pitch>
        <yaw>3.01941967</yaw>
        <rollspeed>0</rollspeed>
        <pitchspeed>0</pitchspeed>
        <yawspeed>0</yawspeed>
      </mission_attitude>
    </posture>
    <posture>
      <time>2017-02-21T16:31:25.593171+08:00</time>
      <mission_attitude>
        <time_boot_ms>63620000</time_boot_ms>
        <roll>-0.0122173047</roll>
        <pitch>-0.06632251</pitch>
        <yaw>3.03687286</yaw>
        <rollspeed>0</rollspeed>
        <pitchspeed>0</pitchspeed>
        <yawspeed>0</yawspeed>
      </mission_attitude>
    </posture>
    <posture>
      <time>2017-02-21T16:31:26.5932282+08:00</time>
      <mission_attitude>
        <time_boot_ms>64620000</time_boot_ms>
        <roll>-0.0122173047</roll>
        <pitch>-0.06632251</pitch>
        <yaw>3.01941967</yaw>
        <rollspeed>0</rollspeed>
        <pitchspeed>0</pitchspeed>
        <yawspeed>0</yawspeed>
      </mission_attitude>
    </posture>
    <posture>
      <time>2017-02-21T16:31:27.5932854+08:00</time>
      <mission_attitude>
        <time_boot_ms>65640000</time_boot_ms>
        <roll>-0.0122173047</roll>
        <pitch>-0.06632251</pitch>
        <yaw>3.01941967</yaw>
        <rollspeed>0</rollspeed>
        <pitchspeed>0</pitchspeed>
        <yawspeed>0</yawspeed>
      </mission_attitude>
    </posture>
    <posture>
      <time>2017-02-21T16:31:28.5933426+08:00</time>
      <mission_attitude>
        <time_boot_ms>66640000</time_boot_ms>
        <roll>-0.0122173047</roll>
        <pitch>-0.06632251</pitch>
        <yaw>3.01941967</yaw>
        <rollspeed>0</rollspeed>
        <pitchspeed>0</pitchspeed>
        <yawspeed>0</yawspeed>
      </mission_attitude>
    </posture>
    <posture>
      <time>2017-02-21T16:31:29.5933998+08:00</time>
      <mission_attitude>
        <time_boot_ms>67640000</time_boot_ms>
        <roll>-0.0122173047</roll>
        <pitch>-0.06632251</pitch>
        <yaw>3.01941967</yaw>
        <rollspeed>0</rollspeed>
        <pitchspeed>0</pitchspeed>
        <yawspeed>0</yawspeed>
      </mission_attitude>
    </posture>
    <posture>
      <time>2017-02-21T16:31:30.593457+08:00</time>
      <mission_attitude>
        <time_boot_ms>68640000</time_boot_ms>
        <roll>-0.0122173047</roll>
        <pitch>-0.06632251</pitch>
        <yaw>3.00196624</yaw>
        <rollspeed>0</rollspeed>
        <pitchspeed>0</pitchspeed>
        <yawspeed>0</yawspeed>
      </mission_attitude>
    </posture>
    <posture>
      <time>2017-02-21T16:31:31.643517+08:00</time>
      <mission_attitude>
        <time_boot_ms>69640000</time_boot_ms>
        <roll>-0.0122173047</roll>
        <pitch>-0.06632251</pitch>
        <yaw>3.00196624</yaw>
        <rollspeed>0</rollspeed>
        <pitchspeed>0</pitchspeed>
        <yawspeed>0</yawspeed>
      </mission_attitude>
    </posture>
    <posture>
      <time>2017-02-21T16:31:32.6435742+08:00</time>
      <mission_attitude>
        <time_boot_ms>70640000</time_boot_ms>
        <roll>-0.0122173047</roll>
        <pitch>-0.06632251</pitch>
        <yaw>3.01941967</yaw>
        <rollspeed>0</rollspeed>
        <pitchspeed>0</pitchspeed>
        <yawspeed>0</yawspeed>
      </mission_attitude>
    </posture>
    <posture>
      <time>2017-02-21T16:31:33.6436314+08:00</time>
      <mission_attitude>
        <time_boot_ms>71640000</time_boot_ms>
        <roll>-0.0122173047</roll>
        <pitch>-0.06632251</pitch>
        <yaw>3.03687286</yaw>
        <rollspeed>0</rollspeed>
        <pitchspeed>0</pitchspeed>
        <yawspeed>0</yawspeed>
      </mission_attitude>
    </posture>
    <posture>
      <time>2017-02-21T16:31:34.6436886+08:00</time>
      <mission_attitude>
        <time_boot_ms>72640000</time_boot_ms>
        <roll>-0.0122173047</roll>
        <pitch>-0.06632251</pitch>
        <yaw>3.01941967</yaw>
        <rollspeed>0</rollspeed>
        <pitchspeed>0</pitchspeed>
        <yawspeed>0</yawspeed>
      </mission_attitude>
    </posture>
    <posture>
      <time>2017-02-21T16:31:35.6437458+08:00</time>
      <mission_attitude>
        <time_boot_ms>73640000</time_boot_ms>
        <roll>-0.0122173047</roll>
        <pitch>-0.06632251</pitch>
        <yaw>3.01941967</yaw>
        <rollspeed>0</rollspeed>
        <pitchspeed>0</pitchspeed>
        <yawspeed>0</yawspeed>
      </mission_attitude>
    </posture>
    <posture>
      <time>2017-02-21T16:31:36.643803+08:00</time>
      <mission_attitude>
        <time_boot_ms>74640000</time_boot_ms>
        <roll>-0.0122173047</roll>
        <pitch>-0.06632251</pitch>
        <yaw>3.00196624</yaw>
        <rollspeed>0</rollspeed>
        <pitchspeed>0</pitchspeed>
        <yawspeed>0</yawspeed>
      </mission_attitude>
    </posture>
    <posture>
      <time>2017-02-21T16:31:37.6438602+08:00</time>
      <mission_attitude>
        <time_boot_ms>75640000</time_boot_ms>
        <roll>-0.0122173047</roll>
        <pitch>-0.06632251</pitch>
        <yaw>3.03687286</yaw>
        <rollspeed>0</rollspeed>
        <pitchspeed>0</pitchspeed>
        <yawspeed>0</yawspeed>
      </mission_attitude>
    </posture>
    <posture>
      <time>2017-02-21T16:31:38.6479177+08:00</time>
      <mission_attitude>
        <time_boot_ms>76640000</time_boot_ms>
        <roll>-0.0122173047</roll>
        <pitch>-0.06632251</pitch>
        <yaw>3.01941967</yaw>
        <rollspeed>0</rollspeed>
        <pitchspeed>0</pitchspeed>
        <yawspeed>0</yawspeed>
      </mission_attitude>
    </posture>
    <posture>
      <time>2017-02-21T16:31:39.6429746+08:00</time>
      <mission_attitude>
        <time_boot_ms>77640000</time_boot_ms>
        <roll>-0.0122173047</roll>
        <pitch>-0.06632251</pitch>
        <yaw>3.00196624</yaw>
        <rollspeed>0</rollspeed>
        <pitchspeed>0</pitchspeed>
        <yawspeed>0</yawspeed>
      </mission_attitude>
    </posture>
    <posture>
      <time>2017-02-21T16:31:40.6930346+08:00</time>
      <mission_attitude>
        <time_boot_ms>78640000</time_boot_ms>
        <roll>-0.0122173047</roll>
        <pitch>-0.06632251</pitch>
        <yaw>3.00196624</yaw>
        <rollspeed>0</rollspeed>
        <pitchspeed>0</pitchspeed>
        <yawspeed>0</yawspeed>
      </mission_attitude>
    </posture>
    <posture>
      <time>2017-02-21T16:31:41.6930918+08:00</time>
      <mission_attitude>
        <time_boot_ms>79660000</time_boot_ms>
        <roll>-0.0122173047</roll>
        <pitch>-0.06632251</pitch>
        <yaw>3.03687286</yaw>
        <rollspeed>0</rollspeed>
        <pitchspeed>0</pitchspeed>
        <yawspeed>0</yawspeed>
      </mission_attitude>
    </posture>
    <posture>
      <time>2017-02-21T16:31:42.693149+08:00</time>
      <mission_attitude>
        <time_boot_ms>80640000</time_boot_ms>
        <roll>-0.0122173047</roll>
        <pitch>-0.06632251</pitch>
        <yaw>3.01941967</yaw>
        <rollspeed>0</rollspeed>
        <pitchspeed>0</pitchspeed>
        <yawspeed>0</yawspeed>
      </mission_attitude>
    </posture>
    <posture>
      <time>2017-02-21T16:31:43.6932062+08:00</time>
      <mission_attitude>
        <time_boot_ms>81660000</time_boot_ms>
        <roll>-0.0122173047</roll>
        <pitch>-0.06632251</pitch>
        <yaw>3.03687286</yaw>
        <rollspeed>0</rollspeed>
        <pitchspeed>0</pitchspeed>
        <yawspeed>0</yawspeed>
      </mission_attitude>
    </posture>
    <posture>
      <time>2017-02-21T16:31:44.6932634+08:00</time>
      <mission_attitude>
        <time_boot_ms>82660000</time_boot_ms>
        <roll>-0.0122173047</roll>
        <pitch>-0.06632251</pitch>
        <yaw>3.00196624</yaw>
        <rollspeed>0</rollspeed>
        <pitchspeed>0</pitchspeed>
        <yawspeed>0</yawspeed>
      </mission_attitude>
    </posture>
    <posture>
      <time>2017-02-21T16:31:45.7433235+08:00</time>
      <mission_attitude>
        <time_boot_ms>83660000</time_boot_ms>
        <roll>-0.0122173047</roll>
        <pitch>-0.06632251</pitch>
        <yaw>3.00196624</yaw>
        <rollspeed>0</rollspeed>
        <pitchspeed>0</pitchspeed>
        <yawspeed>0</yawspeed>
      </mission_attitude>
    </posture>
    <posture>
      <time>2017-02-21T16:31:46.7433807+08:00</time>
      <mission_attitude>
        <time_boot_ms>84660000</time_boot_ms>
        <roll>-0.0122173047</roll>
        <pitch>-0.06632251</pitch>
        <yaw>3.01941967</yaw>
        <rollspeed>0</rollspeed>
        <pitchspeed>0</pitchspeed>
        <yawspeed>0</yawspeed>
      </mission_attitude>
    </posture>
    <posture>
      <time>2017-02-21T16:31:47.7434379+08:00</time>
      <mission_attitude>
        <time_boot_ms>85660000</time_boot_ms>
        <roll>-0.0122173047</roll>
        <pitch>-0.06632251</pitch>
        <yaw>3.01941967</yaw>
        <rollspeed>0</rollspeed>
        <pitchspeed>0</pitchspeed>
        <yawspeed>0</yawspeed>
      </mission_attitude>
    </posture>
    <posture>
      <time>2017-02-21T16:31:48.7434951+08:00</time>
      <mission_attitude>
        <time_boot_ms>86660000</time_boot_ms>
        <roll>-0.0122173047</roll>
        <pitch>-0.06632251</pitch>
        <yaw>3.01941967</yaw>
        <rollspeed>0</rollspeed>
        <pitchspeed>0</pitchspeed>
        <yawspeed>0</yawspeed>
      </mission_attitude>
    </posture>
    <posture>
      <time>2017-02-21T16:31:49.7435523+08:00</time>
      <mission_attitude>
        <time_boot_ms>87680000</time_boot_ms>
        <roll>-0.0122173047</roll>
        <pitch>-0.06632251</pitch>
        <yaw>3.03687286</yaw>
        <rollspeed>0</rollspeed>
        <pitchspeed>0</pitchspeed>
        <yawspeed>0</yawspeed>
      </mission_attitude>
    </posture>
    <posture>
      <time>2017-02-21T16:31:50.7436095+08:00</time>
      <mission_attitude>
        <time_boot_ms>88680000</time_boot_ms>
        <roll>-0.0122173047</roll>
        <pitch>-0.06632251</pitch>
        <yaw>3.01941967</yaw>
        <rollspeed>0</rollspeed>
        <pitchspeed>0</pitchspeed>
        <yawspeed>0</yawspeed>
      </mission_attitude>
    </posture>
    <posture>
      <time>2017-02-21T16:31:51.7436667+08:00</time>
      <mission_attitude>
        <time_boot_ms>89680000</time_boot_ms>
        <roll>-0.0122173047</roll>
        <pitch>-0.06632251</pitch>
        <yaw>3.03687286</yaw>
        <rollspeed>0</rollspeed>
        <pitchspeed>0</pitchspeed>
        <yawspeed>0</yawspeed>
      </mission_attitude>
    </posture>
    <posture>
      <time>2017-02-21T16:31:52.7937268+08:00</time>
      <mission_attitude>
        <time_boot_ms>90680000</time_boot_ms>
        <roll>-0.0104719754</roll>
        <pitch>-0.06632251</pitch>
        <yaw>3.01941967</yaw>
        <rollspeed>0</rollspeed>
        <pitchspeed>0</pitchspeed>
        <yawspeed>0</yawspeed>
      </mission_attitude>
    </posture>
    <posture>
      <time>2017-02-21T16:31:53.793784+08:00</time>
      <mission_attitude>
        <time_boot_ms>91680000</time_boot_ms>
        <roll>-0.0122173047</roll>
        <pitch>-0.06632251</pitch>
        <yaw>3.01941967</yaw>
        <rollspeed>0</rollspeed>
        <pitchspeed>0</pitchspeed>
        <yawspeed>0</yawspeed>
      </mission_attitude>
    </posture>
    <posture>
      <time>2017-02-21T16:31:54.7938412+08:00</time>
      <mission_attitude>
        <time_boot_ms>92680000</time_boot_ms>
        <roll>-0.0122173047</roll>
        <pitch>-0.06632251</pitch>
        <yaw>3.00196624</yaw>
        <rollspeed>0</rollspeed>
        <pitchspeed>0</pitchspeed>
        <yawspeed>0</yawspeed>
      </mission_attitude>
    </posture>
    <posture>
      <time>2017-02-21T16:31:55.7938984+08:00</time>
      <mission_attitude>
        <time_boot_ms>93700000</time_boot_ms>
        <roll>-0.0122173047</roll>
        <pitch>-0.06632251</pitch>
        <yaw>3.01941967</yaw>
        <rollspeed>0</rollspeed>
        <pitchspeed>0</pitchspeed>
        <yawspeed>0</yawspeed>
      </mission_attitude>
    </posture>
    <posture>
      <time>2017-02-21T16:31:56.7929555+08:00</time>
      <mission_attitude>
        <time_boot_ms>94700000</time_boot_ms>
        <roll>-0.0122173047</roll>
        <pitch>-0.06632251</pitch>
        <yaw>3.01941967</yaw>
        <rollspeed>0</rollspeed>
        <pitchspeed>0</pitchspeed>
        <yawspeed>0</yawspeed>
      </mission_attitude>
    </posture>
    <posture>
      <time>2017-02-21T16:31:57.7930127+08:00</time>
      <mission_attitude>
        <time_boot_ms>95700000</time_boot_ms>
        <roll>-0.0122173047</roll>
        <pitch>-0.06632251</pitch>
        <yaw>3.03687286</yaw>
        <rollspeed>0</rollspeed>
        <pitchspeed>0</pitchspeed>
        <yawspeed>0</yawspeed>
      </mission_attitude>
    </posture>
    <posture>
      <time>2017-02-21T16:31:58.8430728+08:00</time>
      <mission_attitude>
        <time_boot_ms>96700000</time_boot_ms>
        <roll>-0.0122173047</roll>
        <pitch>-0.06632251</pitch>
        <yaw>3.01941967</yaw>
        <rollspeed>0</rollspeed>
        <pitchspeed>0</pitchspeed>
        <yawspeed>0</yawspeed>
      </mission_attitude>
    </posture>
    <posture>
      <time>2017-02-21T16:31:59.7931271+08:00</time>
      <mission_attitude>
        <time_boot_ms>97700000</time_boot_ms>
        <roll>-0.0122173047</roll>
        <pitch>-0.06632251</pitch>
        <yaw>3.03687286</yaw>
        <rollspeed>0</rollspeed>
        <pitchspeed>0</pitchspeed>
        <yawspeed>0</yawspeed>
      </mission_attitude>
    </posture>
    <posture>
      <time>2017-02-21T16:32:00.8431872+08:00</time>
      <mission_attitude>
        <time_boot_ms>98700000</time_boot_ms>
        <roll>-0.0122173047</roll>
        <pitch>-0.06632251</pitch>
        <yaw>3.01941967</yaw>
        <rollspeed>0</rollspeed>
        <pitchspeed>0</pitchspeed>
        <yawspeed>0</yawspeed>
      </mission_attitude>
    </posture>
    <posture>
      <time>2017-02-21T16:32:01.8432444+08:00</time>
      <mission_attitude>
        <time_boot_ms>99700000</time_boot_ms>
        <roll>-0.0122173047</roll>
        <pitch>-0.06632251</pitch>
        <yaw>3.01941967</yaw>
        <rollspeed>0</rollspeed>
        <pitchspeed>0</pitchspeed>
        <yawspeed>0</yawspeed>
      </mission_attitude>
    </posture>
    <posture>
      <time>2017-02-21T16:32:02.8433016+08:00</time>
      <mission_attitude>
        <time_boot_ms>100700000</time_boot_ms>
        <roll>-0.0122173047</roll>
        <pitch>-0.06632251</pitch>
        <yaw>3.01941967</yaw>
        <rollspeed>0</rollspeed>
        <pitchspeed>0</pitchspeed>
        <yawspeed>0</yawspeed>
      </mission_attitude>
    </posture>
    <posture>
      <time>2017-02-21T16:32:03.8433588+08:00</time>
      <mission_attitude>
        <time_boot_ms>101700000</time_boot_ms>
        <roll>-0.0122173047</roll>
        <pitch>-0.06632251</pitch>
        <yaw>3.00196624</yaw>
        <rollspeed>0</rollspeed>
        <pitchspeed>0</pitchspeed>
        <yawspeed>0</yawspeed>
      </mission_attitude>
    </posture>
    <posture>
      <time>2017-02-21T16:32:04.843416+08:00</time>
      <mission_attitude>
        <time_boot_ms>102700000</time_boot_ms>
        <roll>-0.0122173047</roll>
        <pitch>-0.06632251</pitch>
        <yaw>3.01941967</yaw>
        <rollspeed>0</rollspeed>
        <pitchspeed>0</pitchspeed>
        <yawspeed>0</yawspeed>
      </mission_attitude>
    </posture>
    <posture>
      <time>2017-02-21T16:32:05.893476+08:00</time>
      <mission_attitude>
        <time_boot_ms>103720000</time_boot_ms>
        <roll>-0.0122173047</roll>
        <pitch>-0.06632251</pitch>
        <yaw>3.03687286</yaw>
        <rollspeed>0</rollspeed>
        <pitchspeed>0</pitchspeed>
        <yawspeed>0</yawspeed>
      </mission_attitude>
    </posture>
    <posture>
      <time>2017-02-21T16:32:06.8935332+08:00</time>
      <mission_attitude>
        <time_boot_ms>104720000</time_boot_ms>
        <roll>-0.0122173047</roll>
        <pitch>-0.06632251</pitch>
        <yaw>3.01941967</yaw>
        <rollspeed>0</rollspeed>
        <pitchspeed>0</pitchspeed>
        <yawspeed>0</yawspeed>
      </mission_attitude>
    </posture>
    <posture>
      <time>2017-02-21T16:32:07.8935904+08:00</time>
      <mission_attitude>
        <time_boot_ms>105720000</time_boot_ms>
        <roll>-0.0122173047</roll>
        <pitch>-0.06632251</pitch>
        <yaw>3.01941967</yaw>
        <rollspeed>0</rollspeed>
        <pitchspeed>0</pitchspeed>
        <yawspeed>0</yawspeed>
      </mission_attitude>
    </posture>
    <posture>
      <time>2017-02-21T16:32:08.8936476+08:00</time>
      <mission_attitude>
        <time_boot_ms>106720000</time_boot_ms>
        <roll>-0.0122173047</roll>
        <pitch>-0.06632251</pitch>
        <yaw>3.03687286</yaw>
        <rollspeed>0</rollspeed>
        <pitchspeed>0</pitchspeed>
        <yawspeed>0</yawspeed>
      </mission_attitude>
    </posture>
    <posture>
      <time>2017-02-21T16:32:09.8937048+08:00</time>
      <mission_attitude>
        <time_boot_ms>107720000</time_boot_ms>
        <roll>-0.0122173047</roll>
        <pitch>-0.06632251</pitch>
        <yaw>3.01941967</yaw>
        <rollspeed>0</rollspeed>
        <pitchspeed>0</pitchspeed>
        <yawspeed>0</yawspeed>
      </mission_attitude>
    </posture>
    <posture>
      <time>2017-02-21T16:32:10.893762+08:00</time>
      <mission_attitude>
        <time_boot_ms>108740000</time_boot_ms>
        <roll>-0.0122173047</roll>
        <pitch>-0.06632251</pitch>
        <yaw>3.01941967</yaw>
        <rollspeed>0</rollspeed>
        <pitchspeed>0</pitchspeed>
        <yawspeed>0</yawspeed>
      </mission_attitude>
    </posture>
    <posture>
      <time>2017-02-21T16:32:11.9438221+08:00</time>
      <mission_attitude>
        <time_boot_ms>109740000</time_boot_ms>
        <roll>-0.0122173047</roll>
        <pitch>-0.06632251</pitch>
        <yaw>3.01941967</yaw>
        <rollspeed>0</rollspeed>
        <pitchspeed>0</pitchspeed>
        <yawspeed>0</yawspeed>
      </mission_attitude>
    </posture>
    <posture>
      <time>2017-02-21T16:32:12.8938764+08:00</time>
      <mission_attitude>
        <time_boot_ms>110740000</time_boot_ms>
        <roll>-0.0122173047</roll>
        <pitch>-0.06632251</pitch>
        <yaw>3.00196624</yaw>
        <rollspeed>0</rollspeed>
        <pitchspeed>0</pitchspeed>
        <yawspeed>0</yawspeed>
      </mission_attitude>
    </posture>
    <posture>
      <time>2017-02-21T16:32:13.9429364+08:00</time>
      <mission_attitude>
        <time_boot_ms>111740000</time_boot_ms>
        <roll>-0.0122173047</roll>
        <pitch>-0.06632251</pitch>
        <yaw>3.01941967</yaw>
        <rollspeed>0</rollspeed>
        <pitchspeed>0</pitchspeed>
        <yawspeed>0</yawspeed>
      </mission_attitude>
    </posture>
    <posture>
      <time>2017-02-21T16:32:14.9429936+08:00</time>
      <mission_attitude>
        <time_boot_ms>112740000</time_boot_ms>
        <roll>-0.0122173047</roll>
        <pitch>-0.06632251</pitch>
        <yaw>3.01941967</yaw>
        <rollspeed>0</rollspeed>
        <pitchspeed>0</pitchspeed>
        <yawspeed>0</yawspeed>
      </mission_attitude>
    </posture>
    <posture>
      <time>2017-02-21T16:32:15.9430508+08:00</time>
      <mission_attitude>
        <time_boot_ms>113740000</time_boot_ms>
        <roll>-0.0122173047</roll>
        <pitch>-0.06632251</pitch>
        <yaw>3.03687286</yaw>
        <rollspeed>0</rollspeed>
        <pitchspeed>0</pitchspeed>
        <yawspeed>0</yawspeed>
      </mission_attitude>
    </posture>
    <posture>
      <time>2017-02-21T16:32:16.943108+08:00</time>
      <mission_attitude>
        <time_boot_ms>114760000</time_boot_ms>
        <roll>-0.0104719754</roll>
        <pitch>-0.06632251</pitch>
        <yaw>3.01941967</yaw>
        <rollspeed>0</rollspeed>
        <pitchspeed>0</pitchspeed>
        <yawspeed>0</yawspeed>
      </mission_attitude>
    </posture>
    <posture>
      <time>2017-02-21T16:32:17.9931681+08:00</time>
      <mission_attitude>
        <time_boot_ms>115760000</time_boot_ms>
        <roll>-0.0104719754</roll>
        <pitch>-0.06632251</pitch>
        <yaw>3.01941967</yaw>
        <rollspeed>0</rollspeed>
        <pitchspeed>0</pitchspeed>
        <yawspeed>0</yawspeed>
      </mission_attitude>
    </posture>
    <posture>
      <time>2017-02-21T16:32:18.9932253+08:00</time>
      <mission_attitude>
        <time_boot_ms>116780000</time_boot_ms>
        <roll>-0.0104719754</roll>
        <pitch>-0.06632251</pitch>
        <yaw>3.00196624</yaw>
        <rollspeed>0</rollspeed>
        <pitchspeed>0</pitchspeed>
        <yawspeed>0</yawspeed>
      </mission_attitude>
    </posture>
    <posture>
      <time>2017-02-21T16:32:19.9932825+08:00</time>
      <mission_attitude>
        <time_boot_ms>117780000</time_boot_ms>
        <roll>-0.0122173047</roll>
        <pitch>-0.06632251</pitch>
        <yaw>3.01941967</yaw>
        <rollspeed>0</rollspeed>
        <pitchspeed>0</pitchspeed>
        <yawspeed>0</yawspeed>
      </mission_attitude>
    </posture>
    <posture>
      <time>2017-02-21T16:32:21.0433425+08:00</time>
      <mission_attitude>
        <time_boot_ms>118800000</time_boot_ms>
        <roll>-0.0122173047</roll>
        <pitch>-0.06632251</pitch>
        <yaw>3.00196624</yaw>
        <rollspeed>0</rollspeed>
        <pitchspeed>0</pitchspeed>
        <yawspeed>0</yawspeed>
      </mission_attitude>
    </posture>
    <posture>
      <time>2017-02-21T16:32:22.0433997+08:00</time>
      <mission_attitude>
        <time_boot_ms>119800000</time_boot_ms>
        <roll>-0.0122173047</roll>
        <pitch>-0.06632251</pitch>
        <yaw>3.01941967</yaw>
        <rollspeed>0</rollspeed>
        <pitchspeed>0</pitchspeed>
        <yawspeed>0</yawspeed>
      </mission_attitude>
    </posture>
    <posture>
      <time>2017-02-21T16:32:22.9934541+08:00</time>
      <mission_attitude>
        <time_boot_ms>120780000</time_boot_ms>
        <roll>-0.0122173047</roll>
        <pitch>-0.06632251</pitch>
        <yaw>3.01941967</yaw>
        <rollspeed>0</rollspeed>
        <pitchspeed>0</pitchspeed>
        <yawspeed>0</yawspeed>
      </mission_attitude>
    </posture>
    <posture>
      <time>2017-02-21T16:32:24.0435141+08:00</time>
      <mission_attitude>
        <time_boot_ms>121780000</time_boot_ms>
        <roll>-0.0122173047</roll>
        <pitch>-0.06632251</pitch>
        <yaw>3.01941967</yaw>
        <rollspeed>0</rollspeed>
        <pitchspeed>0</pitchspeed>
        <yawspeed>0</yawspeed>
      </mission_attitude>
    </posture>
    <posture>
      <time>2017-02-21T16:32:24.9935685+08:00</time>
      <mission_attitude>
        <time_boot_ms>122760000</time_boot_ms>
        <roll>-0.0122173047</roll>
        <pitch>-0.06632251</pitch>
        <yaw>3.01941967</yaw>
        <rollspeed>0</rollspeed>
        <pitchspeed>0</pitchspeed>
        <yawspeed>0</yawspeed>
      </mission_attitude>
    </posture>
    <posture>
      <time>2017-02-21T16:32:26.0436285+08:00</time>
      <mission_attitude>
        <time_boot_ms>123760000</time_boot_ms>
        <roll>-0.0122173047</roll>
        <pitch>-0.06632251</pitch>
        <yaw>3.03687286</yaw>
        <rollspeed>0</rollspeed>
        <pitchspeed>0</pitchspeed>
        <yawspeed>0</yawspeed>
      </mission_attitude>
    </posture>
    <posture>
      <time>2017-02-21T16:32:27.0436857+08:00</time>
      <mission_attitude>
        <time_boot_ms>124760000</time_boot_ms>
        <roll>-0.0122173047</roll>
        <pitch>-0.06632251</pitch>
        <yaw>3.01941967</yaw>
        <rollspeed>0</rollspeed>
        <pitchspeed>0</pitchspeed>
        <yawspeed>0</yawspeed>
      </mission_attitude>
    </posture>
    <posture>
      <time>2017-02-21T16:32:27.9937401+08:00</time>
      <mission_attitude>
        <time_boot_ms>125740000</time_boot_ms>
        <roll>-0.0122173047</roll>
        <pitch>-0.06632251</pitch>
        <yaw>3.01941967</yaw>
        <rollspeed>0</rollspeed>
        <pitchspeed>0</pitchspeed>
        <yawspeed>0</yawspeed>
      </mission_attitude>
    </posture>
    <posture>
      <time>2017-02-21T16:32:28.9937973+08:00</time>
      <mission_attitude>
        <time_boot_ms>126740000</time_boot_ms>
        <roll>-0.0122173047</roll>
        <pitch>-0.06632251</pitch>
        <yaw>3.00196624</yaw>
        <rollspeed>0</rollspeed>
        <pitchspeed>0</pitchspeed>
        <yawspeed>0</yawspeed>
      </mission_attitude>
    </posture>
    <posture>
      <time>2017-02-21T16:32:30.0438573+08:00</time>
      <mission_attitude>
        <time_boot_ms>127740000</time_boot_ms>
        <roll>-0.0122173047</roll>
        <pitch>-0.06632251</pitch>
        <yaw>3.00196624</yaw>
        <rollspeed>0</rollspeed>
        <pitchspeed>0</pitchspeed>
        <yawspeed>0</yawspeed>
      </mission_attitude>
    </posture>
    <posture>
      <time>2017-02-21T16:32:31.0439145+08:00</time>
      <mission_attitude>
        <time_boot_ms>128740000</time_boot_ms>
        <roll>-0.0122173047</roll>
        <pitch>-0.06632251</pitch>
        <yaw>3.01941967</yaw>
        <rollspeed>0</rollspeed>
        <pitchspeed>0</pitchspeed>
        <yawspeed>0</yawspeed>
      </mission_attitude>
    </posture>
    <posture>
      <time>2017-02-21T16:32:32.0429717+08:00</time>
      <mission_attitude>
        <time_boot_ms>129760000</time_boot_ms>
        <roll>-0.0122173047</roll>
        <pitch>-0.06632251</pitch>
        <yaw>3.03687286</yaw>
        <rollspeed>0</rollspeed>
        <pitchspeed>0</pitchspeed>
        <yawspeed>0</yawspeed>
      </mission_attitude>
    </posture>
    <posture>
      <time>2017-02-21T16:32:33.0430289+08:00</time>
      <mission_attitude>
        <time_boot_ms>130760000</time_boot_ms>
        <roll>-0.0122173047</roll>
        <pitch>-0.06632251</pitch>
        <yaw>3.03687286</yaw>
        <rollspeed>0</rollspeed>
        <pitchspeed>0</pitchspeed>
        <yawspeed>0</yawspeed>
      </mission_attitude>
    </posture>
    <posture>
      <time>2017-02-21T16:32:34.0430861+08:00</time>
      <mission_attitude>
        <time_boot_ms>131760000</time_boot_ms>
        <roll>-0.0122173047</roll>
        <pitch>-0.06632251</pitch>
        <yaw>3.03687286</yaw>
        <rollspeed>0</rollspeed>
        <pitchspeed>0</pitchspeed>
        <yawspeed>0</yawspeed>
      </mission_attitude>
    </posture>
    <posture>
      <time>2017-02-21T16:32:35.0431433+08:00</time>
      <mission_attitude>
        <time_boot_ms>132760000</time_boot_ms>
        <roll>-0.0104719754</roll>
        <pitch>-0.06632251</pitch>
        <yaw>3.01941967</yaw>
        <rollspeed>0</rollspeed>
        <pitchspeed>0</pitchspeed>
        <yawspeed>0</yawspeed>
      </mission_attitude>
    </posture>
    <posture>
      <time>2017-02-21T16:32:36.0932033+08:00</time>
      <mission_attitude>
        <time_boot_ms>133760000</time_boot_ms>
        <roll>-0.0122173047</roll>
        <pitch>-0.06632251</pitch>
        <yaw>3.01941967</yaw>
        <rollspeed>0</rollspeed>
        <pitchspeed>0</pitchspeed>
        <yawspeed>0</yawspeed>
      </mission_attitude>
    </posture>
    <posture>
      <time>2017-02-21T16:32:37.0932605+08:00</time>
      <mission_attitude>
        <time_boot_ms>134780000</time_boot_ms>
        <roll>-0.0122173047</roll>
        <pitch>-0.06632251</pitch>
        <yaw>3.01941967</yaw>
        <rollspeed>0</rollspeed>
        <pitchspeed>0</pitchspeed>
        <yawspeed>0</yawspeed>
      </mission_attitude>
    </posture>
    <posture>
      <time>2017-02-21T16:32:38.0933177+08:00</time>
      <mission_attitude>
        <time_boot_ms>135780000</time_boot_ms>
        <roll>-0.0122173047</roll>
        <pitch>-0.06632251</pitch>
        <yaw>3.01941967</yaw>
        <rollspeed>0</rollspeed>
        <pitchspeed>0</pitchspeed>
        <yawspeed>0</yawspeed>
      </mission_attitude>
    </posture>
    <posture>
      <time>2017-02-21T16:32:39.1433778+08:00</time>
      <mission_attitude>
        <time_boot_ms>136800000</time_boot_ms>
        <roll>-0.0122173047</roll>
        <pitch>-0.06632251</pitch>
        <yaw>3.00196624</yaw>
        <rollspeed>0</rollspeed>
        <pitchspeed>0</pitchspeed>
        <yawspeed>0</yawspeed>
      </mission_attitude>
    </posture>
    <posture>
      <time>2017-02-21T16:32:40.143435+08:00</time>
      <mission_attitude>
        <time_boot_ms>137800000</time_boot_ms>
        <roll>-0.0122173047</roll>
        <pitch>-0.06632251</pitch>
        <yaw>3.01941967</yaw>
        <rollspeed>0</rollspeed>
        <pitchspeed>0</pitchspeed>
        <yawspeed>0</yawspeed>
      </mission_attitude>
    </posture>
    <posture>
      <time>2017-02-21T16:32:41.1434922+08:00</time>
      <mission_attitude>
        <time_boot_ms>138820000</time_boot_ms>
        <roll>-0.0122173047</roll>
        <pitch>-0.06632251</pitch>
        <yaw>3.01941967</yaw>
        <rollspeed>0</rollspeed>
        <pitchspeed>0</pitchspeed>
        <yawspeed>0</yawspeed>
      </mission_attitude>
    </posture>
    <posture>
      <time>2017-02-21T16:32:42.1435494+08:00</time>
      <mission_attitude>
        <time_boot_ms>139820000</time_boot_ms>
        <roll>-0.0104719754</roll>
        <pitch>-0.06632251</pitch>
        <yaw>3.01941967</yaw>
        <rollspeed>0</rollspeed>
        <pitchspeed>0</pitchspeed>
        <yawspeed>0</yawspeed>
      </mission_attitude>
    </posture>
    <posture>
      <time>2017-02-21T16:32:43.1936095+08:00</time>
      <mission_attitude>
        <time_boot_ms>140820000</time_boot_ms>
        <roll>-0.0104719754</roll>
        <pitch>-0.06632251</pitch>
        <yaw>3.03687286</yaw>
        <rollspeed>0</rollspeed>
        <pitchspeed>0</pitchspeed>
        <yawspeed>0</yawspeed>
      </mission_attitude>
    </posture>
    <posture>
      <time>2017-02-21T16:32:44.1436638+08:00</time>
      <mission_attitude>
        <time_boot_ms>141800000</time_boot_ms>
        <roll>-0.0104719754</roll>
        <pitch>-0.06632251</pitch>
        <yaw>3.00196624</yaw>
        <rollspeed>0</rollspeed>
        <pitchspeed>0</pitchspeed>
        <yawspeed>0</yawspeed>
      </mission_attitude>
    </posture>
    <posture>
      <time>2017-02-21T16:32:45.143721+08:00</time>
      <mission_attitude>
        <time_boot_ms>142800000</time_boot_ms>
        <roll>-0.0122173047</roll>
        <pitch>-0.06632251</pitch>
        <yaw>3.01941967</yaw>
        <rollspeed>0</rollspeed>
        <pitchspeed>0</pitchspeed>
        <yawspeed>0</yawspeed>
      </mission_attitude>
    </posture>
    <posture>
      <time>2017-02-21T16:32:46.1437782+08:00</time>
      <mission_attitude>
        <time_boot_ms>143800000</time_boot_ms>
        <roll>-0.0122173047</roll>
        <pitch>-0.06632251</pitch>
        <yaw>3.01941967</yaw>
        <rollspeed>0</rollspeed>
        <pitchspeed>0</pitchspeed>
        <yawspeed>0</yawspeed>
      </mission_attitude>
    </posture>
    <posture>
      <time>2017-02-21T16:32:47.1938383+08:00</time>
      <mission_attitude>
        <time_boot_ms>144820000</time_boot_ms>
        <roll>-0.0122173047</roll>
        <pitch>-0.06632251</pitch>
        <yaw>3.00196624</yaw>
        <rollspeed>0</rollspeed>
        <pitchspeed>0</pitchspeed>
        <yawspeed>0</yawspeed>
      </mission_attitude>
    </posture>
    <posture>
      <time>2017-02-21T16:32:48.1938955+08:00</time>
      <mission_attitude>
        <time_boot_ms>145820000</time_boot_ms>
        <roll>-0.0122173047</roll>
        <pitch>-0.06632251</pitch>
        <yaw>3.00196624</yaw>
        <rollspeed>0</rollspeed>
        <pitchspeed>0</pitchspeed>
        <yawspeed>0</yawspeed>
      </mission_attitude>
    </posture>
  </listposture>
  <listsysstatus>
    <sysstatus>
      <time>2017-02-21T16:28:46.2430567+08:00</time>
      <mission_sysstatus>
        <onboard_control_sensors_present>0</onboard_control_sensors_present>
        <onboard_control_sensors_enabled>0</onboard_control_sensors_enabled>
        <onboard_control_sensors_health>0</onboard_control_sensors_health>
        <load>0</load>
        <voltage_battery>1488</voltage_battery>
