<?xml version="1.0" encoding="utf-8"?>
<SerializeDataClass xmlns:xsi="http://www.w3.org/2001/XMLSchema-instance" xmlns:xsd="http://www.w3.org/2001/XMLSchema">
  <listposture>
    <posture>
      <time>2017-02-21T10:01:21.2067918+08:00</time>
      <mission_attitude>
        <time_boot_ms>182340000</time_boot_ms>
        <roll>0</roll>
        <pitch>-0.06806784</pitch>
        <yaw>2.46091413</yaw>
        <rollspeed>0</rollspeed>
        <pitchspeed>0</pitchspeed>
        <yawspeed>0</yawspeed>
      </mission_attitude>
    </posture>
    <posture>
      <time>2017-02-21T10:01:22.1568462+08:00</time>
      <mission_attitude>
        <time_boot_ms>183300000</time_boot_ms>
        <roll>0</roll>
        <pitch>-0.06632251</pitch>
        <yaw>2.443461</yaw>
        <rollspeed>0</rollspeed>
        <pitchspeed>0</pitchspeed>
        <yawspeed>0</yawspeed>
      </mission_attitude>
    </posture>
    <posture>
      <time>2017-02-21T10:01:24.006952+08:00</time>
      <mission_attitude>
        <time_boot_ms>185140000</time_boot_ms>
        <roll>0</roll>
        <pitch>-0.06632251</pitch>
        <yaw>2.39110112</yaw>
        <rollspeed>0</rollspeed>
        <pitchspeed>0</pitchspeed>
        <yawspeed>0</yawspeed>
      </mission_attitude>
    </posture>
    <posture>
      <time>2017-02-21T10:01:24.9570063+08:00</time>
      <mission_attitude>
        <time_boot_ms>186100000</time_boot_ms>
        <roll>0</roll>
        <pitch>-0.06806784</pitch>
        <yaw>2.46091413</yaw>
        <rollspeed>0</rollspeed>
        <pitchspeed>0</pitchspeed>
        <yawspeed>0</yawspeed>
      </mission_attitude>
    </posture>
    <posture>
      <time>2017-02-21T10:01:25.9070607+08:00</time>
      <mission_attitude>
        <time_boot_ms>187060000</time_boot_ms>
        <roll>0</roll>
        <pitch>-0.06806784</pitch>
        <yaw>2.37364769</yaw>
        <rollspeed>0</rollspeed>
        <pitchspeed>0</pitchspeed>
        <yawspeed>0</yawspeed>
      </mission_attitude>
    </posture>
    <posture>
      <time>2017-02-21T10:01:26.9071179+08:00</time>
      <mission_attitude>
        <time_boot_ms>188020000</time_boot_ms>
        <roll>0</roll>
        <pitch>-0.06632251</pitch>
        <yaw>2.42600751</yaw>
        <rollspeed>0</rollspeed>
        <pitchspeed>0</pitchspeed>
        <yawspeed>0</yawspeed>
      </mission_attitude>
    </posture>
    <posture>
      <time>2017-02-21T10:01:27.8571722+08:00</time>
      <mission_attitude>
        <time_boot_ms>188980000</time_boot_ms>
        <roll>0</roll>
        <pitch>-0.06806784</pitch>
        <yaw>2.46091413</yaw>
        <rollspeed>0</rollspeed>
        <pitchspeed>0</pitchspeed>
        <yawspeed>0</yawspeed>
      </mission_attitude>
    </posture>
    <posture>
      <time>2017-02-21T10:01:29.007238+08:00</time>
      <mission_attitude>
        <time_boot_ms>190120000</time_boot_ms>
        <roll>0</roll>
        <pitch>-0.06806784</pitch>
        <yaw>2.49582076</yaw>
        <rollspeed>0</rollspeed>
        <pitchspeed>0</pitchspeed>
        <yawspeed>0</yawspeed>
      </mission_attitude>
    </posture>
    <posture>
      <time>2017-02-21T10:01:29.9572923+08:00</time>
      <mission_attitude>
        <time_boot_ms>191080000</time_boot_ms>
        <roll>0</roll>
        <pitch>-0.06806784</pitch>
        <yaw>2.443461</yaw>
        <rollspeed>0</rollspeed>
        <pitchspeed>0</pitchspeed>
        <yawspeed>0</yawspeed>
      </mission_attitude>
    </posture>
    <posture>
      <time>2017-02-21T10:01:30.9573495+08:00</time>
      <mission_attitude>
        <time_boot_ms>192040000</time_boot_ms>
        <roll>0</roll>
        <pitch>-0.06806784</pitch>
        <yaw>2.39110112</yaw>
        <rollspeed>0</rollspeed>
        <pitchspeed>0</pitchspeed>
        <yawspeed>0</yawspeed>
      </mission_attitude>
    </posture>
    <posture>
      <time>2017-02-21T10:01:31.857401+08:00</time>
      <mission_attitude>
        <time_boot_ms>193000000</time_boot_ms>
        <roll>0</roll>
        <pitch>-0.06806784</pitch>
        <yaw>2.46091413</yaw>
        <rollspeed>0</rollspeed>
        <pitchspeed>0</pitchspeed>
        <yawspeed>0</yawspeed>
      </mission_attitude>
    </posture>
    <posture>
      <time>2017-02-21T10:01:32.8574582+08:00</time>
      <mission_attitude>
        <time_boot_ms>193960000</time_boot_ms>
        <roll>0</roll>
        <pitch>-0.06806784</pitch>
        <yaw>2.46091413</yaw>
        <rollspeed>0</rollspeed>
        <pitchspeed>0</pitchspeed>
        <yawspeed>0</yawspeed>
      </mission_attitude>
    </posture>
    <posture>
      <time>2017-02-21T10:01:34.007524+08:00</time>
      <mission_attitude>
        <time_boot_ms>195100000</time_boot_ms>
        <roll>0</roll>
        <pitch>-0.06632251</pitch>
        <yaw>2.46091413</yaw>
        <rollspeed>0</rollspeed>
        <pitchspeed>0</pitchspeed>
        <yawspeed>0</yawspeed>
      </mission_attitude>
    </posture>
    <posture>
      <time>2017-02-21T10:01:35.0075812+08:00</time>
      <mission_attitude>
        <time_boot_ms>196060000</time_boot_ms>
        <roll>0</roll>
        <pitch>-0.06632251</pitch>
        <yaw>2.46091413</yaw>
        <rollspeed>0</rollspeed>
        <pitchspeed>0</pitchspeed>
        <yawspeed>0</yawspeed>
      </mission_attitude>
    </posture>
    <posture>
      <time>2017-02-21T10:01:35.9576355+08:00</time>
      <mission_attitude>
        <time_boot_ms>197020000</time_boot_ms>
        <roll>0</roll>
        <pitch>-0.06632251</pitch>
        <yaw>2.46091413</yaw>
        <rollspeed>0</rollspeed>
        <pitchspeed>0</pitchspeed>
        <yawspeed>0</yawspeed>
      </mission_attitude>
    </posture>
    <posture>
      <time>2017-02-21T10:01:36.9076899+08:00</time>
      <mission_attitude>
        <time_boot_ms>197980000</time_boot_ms>
        <roll>0</roll>
        <pitch>-0.06632251</pitch>
        <yaw>2.46091413</yaw>
        <rollspeed>0</rollspeed>
        <pitchspeed>0</pitchspeed>
        <yawspeed>0</yawspeed>
      </mission_attitude>
    </posture>
    <posture>
      <time>2017-02-21T10:01:37.8567442+08:00</time>
      <mission_attitude>
        <time_boot_ms>198940000</time_boot_ms>
        <roll>0</roll>
        <pitch>-0.06806784</pitch>
        <yaw>2.51327419</yaw>
        <rollspeed>0</rollspeed>
        <pitchspeed>0</pitchspeed>
        <yawspeed>0</yawspeed>
      </mission_attitude>
    </posture>
    <posture>
      <time>2017-02-21T10:01:38.8067985+08:00</time>
      <mission_attitude>
        <time_boot_ms>199900000</time_boot_ms>
        <roll>0</roll>
        <pitch>-0.06806784</pitch>
        <yaw>2.51327419</yaw>
        <rollspeed>0</rollspeed>
        <pitchspeed>0</pitchspeed>
        <yawspeed>0</yawspeed>
      </mission_attitude>
    </posture>
    <posture>
      <time>2017-02-21T10:01:39.8068557+08:00</time>
      <mission_attitude>
        <time_boot_ms>200860000</time_boot_ms>
        <roll>0</roll>
        <pitch>-0.06806784</pitch>
        <yaw>2.49582076</yaw>
        <rollspeed>0</rollspeed>
        <pitchspeed>0</pitchspeed>
        <yawspeed>0</yawspeed>
      </mission_attitude>
    </posture>
    <posture>
      <time>2017-02-21T10:01:40.75691+08:00</time>
      <mission_attitude>
        <time_boot_ms>201820000</time_boot_ms>
        <roll>0</roll>
        <pitch>-0.06632251</pitch>
        <yaw>2.46091413</yaw>
        <rollspeed>0</rollspeed>
        <pitchspeed>0</pitchspeed>
        <yawspeed>0</yawspeed>
      </mission_attitude>
    </posture>
    <posture>
      <time>2017-02-21T10:01:41.7569672+08:00</time>
      <mission_attitude>
        <time_boot_ms>202780000</time_boot_ms>
        <roll>0</roll>
        <pitch>-0.06632251</pitch>
        <yaw>2.46091413</yaw>
        <rollspeed>0</rollspeed>
        <pitchspeed>0</pitchspeed>
        <yawspeed>0</yawspeed>
      </mission_attitude>
    </posture>
    <posture>
      <time>2017-02-21T10:01:43.6570759+08:00</time>
      <mission_attitude>
        <time_boot_ms>204700000</time_boot_ms>
        <roll>0</roll>
        <pitch>-0.06632251</pitch>
        <yaw>2.3561945</yaw>
        <rollspeed>0</rollspeed>
        <pitchspeed>0</pitchspeed>
        <yawspeed>0</yawspeed>
      </mission_attitude>
    </posture>
    <posture>
      <time>2017-02-21T10:01:48.5573562+08:00</time>
      <mission_attitude>
        <time_boot_ms>209600000</time_boot_ms>
        <roll>0</roll>
        <pitch>-0.06632251</pitch>
        <yaw>2.49582076</yaw>
        <rollspeed>0</rollspeed>
        <pitchspeed>0</pitchspeed>
        <yawspeed>0</yawspeed>
      </mission_attitude>
    </posture>
    <posture>
      <time>2017-02-21T10:01:49.5574134+08:00</time>
      <mission_attitude>
        <time_boot_ms>210560000</time_boot_ms>
        <roll>0</roll>
        <pitch>-0.06632251</pitch>
        <yaw>2.51327419</yaw>
        <rollspeed>0</rollspeed>
        <pitchspeed>0</pitchspeed>
        <yawspeed>0</yawspeed>
      </mission_attitude>
    </posture>
    <posture>
      <time>2017-02-21T10:01:50.5074677+08:00</time>
      <mission_attitude>
        <time_boot_ms>211520000</time_boot_ms>
        <roll>0</roll>
        <pitch>-0.06632251</pitch>
        <yaw>2.46091413</yaw>
        <rollspeed>0</rollspeed>
        <pitchspeed>0</pitchspeed>
        <yawspeed>0</yawspeed>
      </mission_attitude>
    </posture>
    <posture>
      <time>2017-02-21T10:01:53.6576479+08:00</time>
      <mission_attitude>
        <time_boot_ms>214600000</time_boot_ms>
        <roll>0</roll>
        <pitch>-0.06632251</pitch>
        <yaw>2.47836757</yaw>
        <rollspeed>0</rollspeed>
        <pitchspeed>0</pitchspeed>
        <yawspeed>0</yawspeed>
      </mission_attitude>
    </posture>
    <posture>
      <time>2017-02-21T10:01:54.5576994+08:00</time>
      <mission_attitude>
        <time_boot_ms>215560000</time_boot_ms>
        <roll>0</roll>
        <pitch>-0.06632251</pitch>
        <yaw>2.443461</yaw>
        <rollspeed>0</rollspeed>
        <pitchspeed>0</pitchspeed>
        <yawspeed>0</yawspeed>
      </mission_attitude>
    </posture>
    <posture>
      <time>2017-02-21T10:01:55.5567565+08:00</time>
      <mission_attitude>
        <time_boot_ms>216520000</time_boot_ms>
        <roll>0</roll>
        <pitch>-0.06632251</pitch>
        <yaw>2.443461</yaw>
        <rollspeed>0</rollspeed>
        <pitchspeed>0</pitchspeed>
        <yawspeed>0</yawspeed>
      </mission_attitude>
    </posture>
    <posture>
      <time>2017-02-21T10:01:56.5068109+08:00</time>
      <mission_attitude>
        <time_boot_ms>217480000</time_boot_ms>
        <roll>0</roll>
        <pitch>-0.06632251</pitch>
        <yaw>2.443461</yaw>
        <rollspeed>0</rollspeed>
        <pitchspeed>0</pitchspeed>
        <yawspeed>0</yawspeed>
      </mission_attitude>
    </posture>
    <posture>
      <time>2017-02-21T10:02:00.5570425+08:00</time>
      <mission_attitude>
        <time_boot_ms>221520000</time_boot_ms>
        <roll>0</roll>
        <pitch>-0.06632251</pitch>
        <yaw>2.46091413</yaw>
        <rollspeed>0</rollspeed>
        <pitchspeed>0</pitchspeed>
        <yawspeed>0</yawspeed>
      </mission_attitude>
    </posture>
    <posture>
      <time>2017-02-21T10:02:01.5570997+08:00</time>
      <mission_attitude>
        <time_boot_ms>222480000</time_boot_ms>
        <roll>0</roll>
        <pitch>-0.06632251</pitch>
        <yaw>2.46091413</yaw>
        <rollspeed>0</rollspeed>
        <pitchspeed>0</pitchspeed>
        <yawspeed>0</yawspeed>
      </mission_attitude>
    </posture>
    <posture>
      <time>2017-02-21T10:02:02.6571627+08:00</time>
      <mission_attitude>
        <time_boot_ms>223580000</time_boot_ms>
        <roll>0</roll>
        <pitch>-0.06632251</pitch>
        <yaw>2.443461</yaw>
        <rollspeed>0</rollspeed>
        <pitchspeed>0</pitchspeed>
        <yawspeed>0</yawspeed>
      </mission_attitude>
    </posture>
    <posture>
      <time>2017-02-21T10:02:04.5572713+08:00</time>
      <mission_attitude>
        <time_boot_ms>225500000</time_boot_ms>
        <roll>0</roll>
        <pitch>-0.06632251</pitch>
        <yaw>2.46091413</yaw>
        <rollspeed>0</rollspeed>
        <pitchspeed>0</pitchspeed>
        <yawspeed>0</yawspeed>
      </mission_attitude>
    </posture>
    <posture>
      <time>2017-02-21T10:02:05.5573285+08:00</time>
      <mission_attitude>
        <time_boot_ms>226460000</time_boot_ms>
        <roll>0</roll>
        <pitch>-0.06632251</pitch>
        <yaw>2.46091413</yaw>
        <rollspeed>0</rollspeed>
        <pitchspeed>0</pitchspeed>
        <yawspeed>0</yawspeed>
      </mission_attitude>
    </posture>
    <posture>
      <time>2017-02-21T10:02:06.5073829+08:00</time>
      <mission_attitude>
        <time_boot_ms>227420000</time_boot_ms>
        <roll>0</roll>
        <pitch>-0.06632251</pitch>
        <yaw>2.47836757</yaw>
        <rollspeed>0</rollspeed>
        <pitchspeed>0</pitchspeed>
        <yawspeed>0</yawspeed>
      </mission_attitude>
    </posture>
    <posture>
      <time>2017-02-21T10:02:07.4574372+08:00</time>
      <mission_attitude>
        <time_boot_ms>228380000</time_boot_ms>
        <roll>0</roll>
        <pitch>-0.06632251</pitch>
        <yaw>2.53072739</yaw>
        <rollspeed>0</rollspeed>
        <pitchspeed>0</pitchspeed>
        <yawspeed>0</yawspeed>
      </mission_attitude>
    </posture>
    <posture>
      <time>2017-02-21T10:02:08.4574944+08:00</time>
      <mission_attitude>
        <time_boot_ms>229340000</time_boot_ms>
        <roll>0</roll>
        <pitch>-0.06632251</pitch>
        <yaw>2.51327419</yaw>
        <rollspeed>0</rollspeed>
        <pitchspeed>0</pitchspeed>
        <yawspeed>0</yawspeed>
      </mission_attitude>
    </posture>
    <posture>
      <time>2017-02-21T10:02:09.4075488+08:00</time>
      <mission_attitude>
        <time_boot_ms>230300000</time_boot_ms>
        <roll>0</roll>
        <pitch>-0.06632251</pitch>
        <yaw>2.49582076</yaw>
        <rollspeed>0</rollspeed>
        <pitchspeed>0</pitchspeed>
        <yawspeed>0</yawspeed>
      </mission_attitude>
    </posture>
    <posture>
      <time>2017-02-21T10:02:10.407606+08:00</time>
      <mission_attitude>
        <time_boot_ms>231260000</time_boot_ms>
        <roll>0</roll>
        <pitch>-0.06632251</pitch>
        <yaw>2.443461</yaw>
        <rollspeed>0</rollspeed>
        <pitchspeed>0</pitchspeed>
        <yawspeed>0</yawspeed>
      </mission_attitude>
    </posture>
    <posture>
      <time>2017-02-21T10:02:11.3076574+08:00</time>
      <mission_attitude>
        <time_boot_ms>232220000</time_boot_ms>
        <roll>0</roll>
        <pitch>-0.06632251</pitch>
        <yaw>2.46091413</yaw>
        <rollspeed>0</rollspeed>
        <pitchspeed>0</pitchspeed>
        <yawspeed>0</yawspeed>
      </mission_attitude>
    </posture>
    <posture>
      <time>2017-02-21T10:02:12.3077146+08:00</time>
      <mission_attitude>
        <time_boot_ms>233180000</time_boot_ms>
        <roll>0</roll>
        <pitch>-0.06632251</pitch>
        <yaw>2.47836757</yaw>
        <rollspeed>0</rollspeed>
        <pitchspeed>0</pitchspeed>
        <yawspeed>0</yawspeed>
      </mission_attitude>
    </posture>
    <posture>
      <time>2017-02-21T10:02:13.2567689+08:00</time>
      <mission_attitude>
        <time_boot_ms>234140000</time_boot_ms>
        <roll>0</roll>
        <pitch>-0.06632251</pitch>
        <yaw>2.47836757</yaw>
        <rollspeed>0</rollspeed>
        <pitchspeed>0</pitchspeed>
        <yawspeed>0</yawspeed>
      </mission_attitude>
    </posture>
    <posture>
      <time>2017-02-21T10:02:14.2068233+08:00</time>
      <mission_attitude>
        <time_boot_ms>235100000</time_boot_ms>
        <roll>0</roll>
        <pitch>-0.06632251</pitch>
        <yaw>2.443461</yaw>
        <rollspeed>0</rollspeed>
        <pitchspeed>0</pitchspeed>
        <yawspeed>0</yawspeed>
      </mission_attitude>
    </posture>
    <posture>
      <time>2017-02-21T10:02:15.1568776+08:00</time>
      <mission_attitude>
        <time_boot_ms>236060000</time_boot_ms>
        <roll>0</roll>
        <pitch>-0.06632251</pitch>
        <yaw>2.443461</yaw>
        <rollspeed>0</rollspeed>
        <pitchspeed>0</pitchspeed>
        <yawspeed>0</yawspeed>
      </mission_attitude>
    </posture>
    <posture>
      <time>2017-02-21T10:02:16.1569348+08:00</time>
      <mission_attitude>
        <time_boot_ms>237020000</time_boot_ms>
        <roll>0</roll>
        <pitch>-0.06632251</pitch>
        <yaw>2.42600751</yaw>
        <rollspeed>0</rollspeed>
        <pitchspeed>0</pitchspeed>
        <yawspeed>0</yawspeed>
      </mission_attitude>
    </posture>
    <posture>
      <time>2017-02-21T10:02:17.1069891+08:00</time>
      <mission_attitude>
        <time_boot_ms>237980000</time_boot_ms>
        <roll>0</roll>
        <pitch>-0.06632251</pitch>
        <yaw>2.46091413</yaw>
        <rollspeed>0</rollspeed>
        <pitchspeed>0</pitchspeed>
        <yawspeed>0</yawspeed>
      </mission_attitude>
    </posture>
    <posture>
      <time>2017-02-21T10:02:18.1070463+08:00</time>
      <mission_attitude>
        <time_boot_ms>238940000</time_boot_ms>
        <roll>0</roll>
        <pitch>-0.06632251</pitch>
        <yaw>2.53072739</yaw>
        <rollspeed>0</rollspeed>
        <pitchspeed>0</pitchspeed>
        <yawspeed>0</yawspeed>
      </mission_attitude>
    </posture>
    <posture>
      <time>2017-02-21T10:02:19.1071035+08:00</time>
      <mission_attitude>
        <time_boot_ms>239900000</time_boot_ms>
        <roll>0</roll>
        <pitch>-0.06632251</pitch>
        <yaw>2.49582076</yaw>
        <rollspeed>0</rollspeed>
        <pitchspeed>0</pitchspeed>
        <yawspeed>0</yawspeed>
      </mission_attitude>
    </posture>
    <posture>
      <time>2017-02-21T10:02:20.007155+08:00</time>
      <mission_attitude>
        <time_boot_ms>240860000</time_boot_ms>
        <roll>0</roll>
        <pitch>-0.06632251</pitch>
        <yaw>2.47836757</yaw>
        <rollspeed>0</rollspeed>
        <pitchspeed>0</pitchspeed>
        <yawspeed>0</yawspeed>
      </mission_attitude>
    </posture>
    <posture>
      <time>2017-02-21T10:02:20.9572094+08:00</time>
      <mission_attitude>
        <time_boot_ms>241820000</time_boot_ms>
        <roll>0</roll>
        <pitch>-0.06632251</pitch>
        <yaw>2.46091413</yaw>
        <rollspeed>0</rollspeed>
        <pitchspeed>0</pitchspeed>
        <yawspeed>0</yawspeed>
      </mission_attitude>
    </posture>
    <posture>
      <time>2017-02-21T10:02:21.9072637+08:00</time>
      <mission_attitude>
        <time_boot_ms>242780000</time_boot_ms>
        <roll>0</roll>
        <pitch>-0.06632251</pitch>
        <yaw>2.46091413</yaw>
        <rollspeed>0</rollspeed>
        <pitchspeed>0</pitchspeed>
        <yawspeed>0</yawspeed>
      </mission_attitude>
    </posture>
    <posture>
      <time>2017-02-21T10:02:22.9073209+08:00</time>
      <mission_attitude>
        <time_boot_ms>243740000</time_boot_ms>
        <roll>0</roll>
        <pitch>-0.06632251</pitch>
        <yaw>2.46091413</yaw>
        <rollspeed>0</rollspeed>
        <pitchspeed>0</pitchspeed>
        <yawspeed>0</yawspeed>
      </mission_attitude>
    </posture>
    <posture>
      <time>2017-02-21T10:02:23.8573752+08:00</time>
      <mission_attitude>
        <time_boot_ms>244700000</time_boot_ms>
        <roll>0</roll>
        <pitch>-0.06632251</pitch>
        <yaw>2.46091413</yaw>
        <rollspeed>0</rollspeed>
        <pitchspeed>0</pitchspeed>
        <yawspeed>0</yawspeed>
      </mission_attitude>
    </posture>
    <posture>
      <time>2017-02-21T10:02:24.8074296+08:00</time>
      <mission_attitude>
        <time_boot_ms>245660000</time_boot_ms>
        <roll>0.00174532924</roll>
        <pitch>-0.06632251</pitch>
        <yaw>2.42600751</yaw>
        <rollspeed>0</rollspeed>
        <pitchspeed>0</pitchspeed>
        <yawspeed>0</yawspeed>
      </mission_attitude>
    </posture>
    <posture>
      <time>2017-02-21T10:02:26.3075154+08:00</time>
      <mission_attitude>
        <time_boot_ms>247140000</time_boot_ms>
        <roll>0.00174532924</roll>
        <pitch>-0.06632251</pitch>
        <yaw>2.46091413</yaw>
        <rollspeed>0</rollspeed>
        <pitchspeed>0</pitchspeed>
        <yawspeed>0</yawspeed>
      </mission_attitude>
    </posture>
    <posture>
      <time>2017-02-21T10:02:27.2575697+08:00</time>
      <mission_attitude>
        <time_boot_ms>248100000</time_boot_ms>
        <roll>0</roll>
        <pitch>-0.06632251</pitch>
        <yaw>2.443461</yaw>
        <rollspeed>0</rollspeed>
        <pitchspeed>0</pitchspeed>
        <yawspeed>0</yawspeed>
      </mission_attitude>
    </posture>
    <posture>
      <time>2017-02-21T10:02:28.2076241+08:00</time>
      <mission_attitude>
        <time_boot_ms>249060000</time_boot_ms>
        <roll>0.00174532924</roll>
        <pitch>-0.06632251</pitch>
        <yaw>2.443461</yaw>
        <rollspeed>0</rollspeed>
        <pitchspeed>0</pitchspeed>
        <yawspeed>0</yawspeed>
      </mission_attitude>
    </posture>
    <posture>
      <time>2017-02-21T10:02:29.2076813+08:00</time>
      <mission_attitude>
        <time_boot_ms>250020000</time_boot_ms>
        <roll>0.00174532924</roll>
        <pitch>-0.06632251</pitch>
        <yaw>2.40855432</yaw>
        <rollspeed>0</rollspeed>
        <pitchspeed>0</pitchspeed>
        <yawspeed>0</yawspeed>
      </mission_attitude>
    </posture>
    <posture>
      <time>2017-02-21T10:02:30.1567355+08:00</time>
      <mission_attitude>
        <time_boot_ms>250980000</time_boot_ms>
        <roll>0.00174532924</roll>
        <pitch>-0.06632251</pitch>
        <yaw>2.443461</yaw>
        <rollspeed>0</rollspeed>
        <pitchspeed>0</pitchspeed>
        <yawspeed>0</yawspeed>
      </mission_attitude>
    </posture>
    <posture>
      <time>2017-02-21T10:02:31.3068013+08:00</time>
      <mission_attitude>
        <time_boot_ms>252120000</time_boot_ms>
        <roll>0.00174532924</roll>
        <pitch>-0.06632251</pitch>
        <yaw>2.46091413</yaw>
        <rollspeed>0</rollspeed>
        <pitchspeed>0</pitchspeed>
        <yawspeed>0</yawspeed>
      </mission_attitude>
    </posture>
    <posture>
      <time>2017-02-21T10:02:32.2568557+08:00</time>
      <mission_attitude>
        <time_boot_ms>253080000</time_boot_ms>
        <roll>0.00174532924</roll>
        <pitch>-0.06632251</pitch>
        <yaw>2.42600751</yaw>
        <rollspeed>0</rollspeed>
        <pitchspeed>0</pitchspeed>
        <yawspeed>0</yawspeed>
      </mission_attitude>
    </posture>
    <posture>
      <time>2017-02-21T10:02:33.20691+08:00</time>
      <mission_attitude>
        <time_boot_ms>254040000</time_boot_ms>
        <roll>0.00174532924</roll>
        <pitch>-0.06632251</pitch>
        <yaw>2.40855432</yaw>
        <rollspeed>0</rollspeed>
        <pitchspeed>0</pitchspeed>
        <yawspeed>0</yawspeed>
      </mission_attitude>
    </posture>
    <posture>
      <time>2017-02-21T10:02:34.2069672+08:00</time>
      <mission_attitude>
        <time_boot_ms>255000000</time_boot_ms>
        <roll>0.00174532924</roll>
        <pitch>-0.06632251</pitch>
        <yaw>2.42600751</yaw>
        <rollspeed>0</rollspeed>
        <pitchspeed>0</pitchspeed>
        <yawspeed>0</yawspeed>
      </mission_attitude>
    </posture>
    <posture>
      <time>2017-02-21T10:02:35.1570215+08:00</time>
      <mission_attitude>
        <time_boot_ms>255960000</time_boot_ms>
        <roll>0</roll>
        <pitch>-0.06632251</pitch>
        <yaw>2.443461</yaw>
        <rollspeed>0</rollspeed>
        <pitchspeed>0</pitchspeed>
        <yawspeed>0</yawspeed>
      </mission_attitude>
    </posture>
    <posture>
      <time>2017-02-21T10:02:37.3571474+08:00</time>
      <mission_attitude>
        <time_boot_ms>258100000</time_boot_ms>
        <roll>0.00174532924</roll>
        <pitch>-0.06632251</pitch>
        <yaw>2.49582076</yaw>
        <rollspeed>0</rollspeed>
        <pitchspeed>0</pitchspeed>
        <yawspeed>0</yawspeed>
      </mission_attitude>
    </posture>
    <posture>
      <time>2017-02-21T10:02:38.3072017+08:00</time>
      <mission_attitude>
        <time_boot_ms>259060000</time_boot_ms>
        <roll>0.00174532924</roll>
        <pitch>-0.06632251</pitch>
        <yaw>2.49582076</yaw>
        <rollspeed>0</rollspeed>
        <pitchspeed>0</pitchspeed>
        <yawspeed>0</yawspeed>
      </mission_attitude>
    </posture>
    <posture>
      <time>2017-02-21T10:03:17.457441+08:00</time>
      <mission_attitude>
        <time_boot_ms>1600000</time_boot_ms>
        <roll>-0.006981317</roll>
        <pitch>-0.0750491545</pitch>
        <yaw>0</yaw>
        <rollspeed>0</rollspeed>
        <pitchspeed>0</pitchspeed>
        <yawspeed>0</yawspeed>
      </mission_attitude>
    </posture>
    <posture>
      <time>2017-02-21T10:03:18.4074953+08:00</time>
      <mission_attitude>
        <time_boot_ms>2560000</time_boot_ms>
        <roll>0</roll>
        <pitch>-0.0715585</pitch>
        <yaw>1.88495553</yaw>
        <rollspeed>0</rollspeed>
        <pitchspeed>0</pitchspeed>
        <yawspeed>0</yawspeed>
      </mission_attitude>
    </posture>
    <posture>
      <time>2017-02-21T10:03:19.4075525+08:00</time>
      <mission_attitude>
        <time_boot_ms>3520000</time_boot_ms>
        <roll>0</roll>
        <pitch>-0.0715585</pitch>
        <yaw>1.91986215</yaw>
        <rollspeed>0</rollspeed>
        <pitchspeed>0</pitchspeed>
        <yawspeed>0</yawspeed>
      </mission_attitude>
    </posture>
    <posture>
      <time>2017-02-21T10:03:20.3576069+08:00</time>
      <mission_attitude>
        <time_boot_ms>4480000</time_boot_ms>
        <roll>0</roll>
        <pitch>-0.06981317</pitch>
        <yaw>2.024582</yaw>
        <rollspeed>0</rollspeed>
        <pitchspeed>0</pitchspeed>
        <yawspeed>0</yawspeed>
      </mission_attitude>
    </posture>
    <posture>
      <time>2017-02-21T10:03:21.3076612+08:00</time>
      <mission_attitude>
        <time_boot_ms>5440000</time_boot_ms>
        <roll>0</roll>
        <pitch>-0.06981317</pitch>
        <yaw>1.850049</yaw>
        <rollspeed>0</rollspeed>
        <pitchspeed>0</pitchspeed>
        <yawspeed>0</yawspeed>
      </mission_attitude>
    </posture>
    <posture>
      <time>2017-02-21T10:04:25.957359+08:00</time>
      <mission_attitude>
        <time_boot_ms>1600000</time_boot_ms>
        <roll>-0.0104719754</roll>
        <pitch>-0.0750491545</pitch>
        <yaw>0</yaw>
        <rollspeed>0</rollspeed>
        <pitchspeed>0</pitchspeed>
        <yawspeed>0</yawspeed>
      </mission_attitude>
    </posture>
    <posture>
      <time>2017-02-21T10:04:26.9074133+08:00</time>
      <mission_attitude>
        <time_boot_ms>2560000</time_boot_ms>
        <roll>-0.008726646</roll>
        <pitch>-0.0750491545</pitch>
        <yaw>1.78023577</yaw>
        <rollspeed>0</rollspeed>
        <pitchspeed>0</pitchspeed>
        <yawspeed>0</yawspeed>
      </mission_attitude>
    </posture>
    <posture>
      <time>2017-02-21T10:04:27.9074705+08:00</time>
      <mission_attitude>
        <time_boot_ms>3520000</time_boot_ms>
        <roll>-0.008726646</roll>
        <pitch>-0.0750491545</pitch>
        <yaw>1.65806282</yaw>
        <rollspeed>0</rollspeed>
        <pitchspeed>0</pitchspeed>
        <yawspeed>0</yawspeed>
      </mission_attitude>
    </posture>
    <posture>
      <time>2017-02-21T10:04:29.1075391+08:00</time>
      <mission_attitude>
        <time_boot_ms>4780000</time_boot_ms>
        <roll>-0.008726646</roll>
        <pitch>-0.0733038262</pitch>
        <yaw>1.850049</yaw>
        <rollspeed>0</rollspeed>
        <pitchspeed>0</pitchspeed>
        <yawspeed>0</yawspeed>
      </mission_attitude>
    </posture>
    <posture>
      <time>2017-02-21T10:04:30.0575935+08:00</time>
      <mission_attitude>
        <time_boot_ms>5740000</time_boot_ms>
        <roll>-0.006981317</roll>
        <pitch>-0.0733038262</pitch>
        <yaw>1.81514239</yaw>
        <rollspeed>0</rollspeed>
        <pitchspeed>0</pitchspeed>
        <yawspeed>0</yawspeed>
      </mission_attitude>
    </posture>
    <posture>
      <time>2017-02-21T10:04:31.0576507+08:00</time>
      <mission_attitude>
        <time_boot_ms>6700000</time_boot_ms>
        <roll>-0.006981317</roll>
        <pitch>-0.0733038262</pitch>
        <yaw>1.95476878</yaw>
        <rollspeed>0</rollspeed>
        <pitchspeed>0</pitchspeed>
        <yawspeed>0</yawspeed>
      </mission_attitude>
    </posture>
    <posture>
      <time>2017-02-21T10:04:32.1577136+08:00</time>
      <mission_attitude>
        <time_boot_ms>7760000</time_boot_ms>
        <roll>-0.00523598772</roll>
        <pitch>-0.0733038262</pitch>
        <yaw>2.18166161</yaw>
        <rollspeed>0</rollspeed>
        <pitchspeed>0</pitchspeed>
        <yawspeed>0</yawspeed>
      </mission_attitude>
    </posture>
    <posture>
      <time>2017-02-21T10:04:33.8068079+08:00</time>
      <mission_attitude>
        <time_boot_ms>9440000</time_boot_ms>
        <roll>-0.00523598772</roll>
        <pitch>-0.0715585</pitch>
        <yaw>2.16420817</yaw>
        <rollspeed>0</rollspeed>
        <pitchspeed>0</pitchspeed>
        <yawspeed>0</yawspeed>
      </mission_attitude>
    </posture>
    <posture>
      <time>2017-02-21T10:04:34.7568623+08:00</time>
      <mission_attitude>
        <time_boot_ms>10400000</time_boot_ms>
        <roll>-0.00523598772</roll>
        <pitch>-0.0715585</pitch>
        <yaw>2.07694173</yaw>
        <rollspeed>0</rollspeed>
        <pitchspeed>0</pitchspeed>
        <yawspeed>0</yawspeed>
      </mission_attitude>
    </posture>
    <posture>
      <time>2017-02-21T10:04:35.7569195+08:00</time>
      <mission_attitude>
        <time_boot_ms>11360000</time_boot_ms>
        <roll>-0.00523598772</roll>
        <pitch>-0.0715585</pitch>
        <yaw>2.18166161</yaw>
        <rollspeed>0</rollspeed>
        <pitchspeed>0</pitchspeed>
        <yawspeed>0</yawspeed>
      </mission_attitude>
    </posture>
    <posture>
      <time>2017-02-21T10:04:38.8070939+08:00</time>
      <mission_attitude>
        <time_boot_ms>14420000</time_boot_ms>
        <roll>-0.00523598772</roll>
        <pitch>-0.0715585</pitch>
        <yaw>2.16420817</yaw>
        <rollspeed>0</rollspeed>
        <pitchspeed>0</pitchspeed>
        <yawspeed>0</yawspeed>
      </mission_attitude>
    </posture>
    <posture>
      <time>2017-02-21T10:04:39.7571483+08:00</time>
      <mission_attitude>
        <time_boot_ms>15380000</time_boot_ms>
        <roll>-0.00523598772</roll>
        <pitch>-0.0715585</pitch>
        <yaw>2.18166161</yaw>
        <rollspeed>0</rollspeed>
        <pitchspeed>0</pitchspeed>
        <yawspeed>0</yawspeed>
      </mission_attitude>
    </posture>
    <posture>
      <time>2017-02-21T10:04:40.7572055+08:00</time>
      <mission_attitude>
        <time_boot_ms>16340000</time_boot_ms>
        <roll>-0.00523598772</roll>
        <pitch>-0.06981317</pitch>
        <yaw>2.216568</yaw>
        <rollspeed>0</rollspeed>
        <pitchspeed>0</pitchspeed>
        <yawspeed>0</yawspeed>
      </mission_attitude>
    </posture>
    <posture>
      <time>2017-02-21T10:04:41.7572627+08:00</time>
      <mission_attitude>
        <time_boot_ms>17300000</time_boot_ms>
        <roll>-0.00349065848</roll>
        <pitch>-0.06981317</pitch>
        <yaw>2.18166161</yaw>
        <rollspeed>0</rollspeed>
        <pitchspeed>0</pitchspeed>
        <yawspeed>0</yawspeed>
      </mission_attitude>
    </posture>
    <posture>
      <time>2017-02-21T10:04:43.8073799+08:00</time>
      <mission_attitude>
        <time_boot_ms>19380000</time_boot_ms>
        <roll>-0.00523598772</roll>
        <pitch>-0.0715585</pitch>
        <yaw>2.18166161</yaw>
        <rollspeed>0</rollspeed>
        <pitchspeed>0</pitchspeed>
        <yawspeed>0</yawspeed>
      </mission_attitude>
    </posture>
    <posture>
      <time>2017-02-21T10:04:44.7574343+08:00</time>
      <mission_attitude>
        <time_boot_ms>20340000</time_boot_ms>
        <roll>-0.00523598772</roll>
        <pitch>-0.0715585</pitch>
        <yaw>2.18166161</yaw>
        <rollspeed>0</rollspeed>
        <pitchspeed>0</pitchspeed>
        <yawspeed>0</yawspeed>
      </mission_attitude>
    </posture>
    <posture>
      <time>2017-02-21T10:04:45.7574915+08:00</time>
      <mission_attitude>
        <time_boot_ms>21300000</time_boot_ms>
        <roll>-0.00523598772</roll>
        <pitch>-0.0715585</pitch>
        <yaw>2.16420817</yaw>
        <rollspeed>0</rollspeed>
        <pitchspeed>0</pitchspeed>
        <yawspeed>0</yawspeed>
      </mission_attitude>
    </posture>
    <posture>
      <time>2017-02-21T10:04:50.906786+08:00</time>
      <mission_attitude>
        <time_boot_ms>26380000</time_boot_ms>
        <roll>-0.00349065848</roll>
        <pitch>-0.06981317</pitch>
        <yaw>2.216568</yaw>
        <rollspeed>0</rollspeed>
        <pitchspeed>0</pitchspeed>
        <yawspeed>0</yawspeed>
      </mission_attitude>
    </posture>
    <posture>
      <time>2017-02-21T10:04:51.8068375+08:00</time>
      <mission_attitude>
        <time_boot_ms>27340000</time_boot_ms>
        <roll>-0.00349065848</roll>
        <pitch>-0.06981317</pitch>
        <yaw>2.216568</yaw>
        <rollspeed>0</rollspeed>
        <pitchspeed>0</pitchspeed>
        <yawspeed>0</yawspeed>
      </mission_attitude>
    </posture>
    <posture>
      <time>2017-02-21T10:04:52.7568918+08:00</time>
      <mission_attitude>
        <time_boot_ms>28300000</time_boot_ms>
        <roll>-0.00349065848</roll>
        <pitch>-0.06981317</pitch>
        <yaw>2.1991148</yaw>
        <rollspeed>0</rollspeed>
        <pitchspeed>0</pitchspeed>
        <yawspeed>0</yawspeed>
      </mission_attitude>
    </posture>
    <posture>
      <time>2017-02-21T10:04:53.8069519+08:00</time>
      <mission_attitude>
        <time_boot_ms>29360000</time_boot_ms>
        <roll>-0.00349065848</roll>
        <pitch>-0.06981317</pitch>
        <yaw>2.16420817</yaw>
        <rollspeed>0</rollspeed>
        <pitchspeed>0</pitchspeed>
        <yawspeed>0</yawspeed>
      </mission_attitude>
    </posture>
    <posture>
      <time>2017-02-21T10:04:54.8070091+08:00</time>
      <mission_attitude>
        <time_boot_ms>30340000</time_boot_ms>
        <roll>-0.00349065848</roll>
        <pitch>-0.06981317</pitch>
        <yaw>2.146755</yaw>
        <rollspeed>0</rollspeed>
        <pitchspeed>0</pitchspeed>
        <yawspeed>0</yawspeed>
      </mission_attitude>
    </posture>
    <posture>
      <time>2017-02-21T10:04:55.8070663+08:00</time>
      <mission_attitude>
        <time_boot_ms>31320000</time_boot_ms>
        <roll>-0.00349065848</roll>
        <pitch>-0.06981317</pitch>
        <yaw>2.16420817</yaw>
        <rollspeed>0</rollspeed>
        <pitchspeed>0</pitchspeed>
        <yawspeed>0</yawspeed>
      </mission_attitude>
    </posture>
    <posture>
      <time>2017-02-21T10:04:56.7571206+08:00</time>
      <mission_attitude>
        <time_boot_ms>32280000</time_boot_ms>
        <roll>-0.148352981</roll>
        <pitch>-0.006981317</pitch>
        <yaw>2.07694173</yaw>
        <rollspeed>0.401425719</rollspeed>
        <pitchspeed>-0.122173049</pitchspeed>
        <yawspeed>0.0523598753</yawspeed>
      </mission_attitude>
    </posture>
    <posture>
      <time>2017-02-21T10:04:57.7571778+08:00</time>
      <mission_attitude>
        <time_boot_ms>33240000</time_boot_ms>
        <roll>-0.006981317</roll>
        <pitch>-0.06981317</pitch>
        <yaw>2.09439516</yaw>
        <rollspeed>-0.0523598753</rollspeed>
        <pitchspeed>0</pitchspeed>
        <yawspeed>0</yawspeed>
      </mission_attitude>
    </posture>
    <posture>
      <time>2017-02-21T10:05:01.4073866+08:00</time>
      <mission_attitude>
        <time_boot_ms>36940000</time_boot_ms>
        <roll>-0.00523598772</roll>
        <pitch>-0.06981317</pitch>
        <yaw>2.1991148</yaw>
        <rollspeed>0</rollspeed>
        <pitchspeed>0</pitchspeed>
        <yawspeed>0</yawspeed>
      </mission_attitude>
    </posture>
    <posture>
      <time>2017-02-21T10:05:02.4074438+08:00</time>
      <mission_attitude>
        <time_boot_ms>37900000</time_boot_ms>
        <roll>-0.00523598772</roll>
        <pitch>-0.06981317</pitch>
        <yaw>2.216568</yaw>
        <rollspeed>0</rollspeed>
        <pitchspeed>0</pitchspeed>
        <yawspeed>0</yawspeed>
      </mission_attitude>
    </posture>
    <posture>
      <time>2017-02-21T10:05:03.3574981+08:00</time>
      <mission_attitude>
        <time_boot_ms>38860000</time_boot_ms>
        <roll>-0.00523598772</roll>
        <pitch>-0.06981317</pitch>
        <yaw>2.16420817</yaw>
        <rollspeed>0</rollspeed>
        <pitchspeed>0</pitchspeed>
        <yawspeed>0</yawspeed>
      </mission_attitude>
    </posture>
    <posture>
      <time>2017-02-21T10:05:04.3575553+08:00</time>
      <mission_attitude>
        <time_boot_ms>39820000</time_boot_ms>
        <roll>-0.00523598772</roll>
        <pitch>-0.06981317</pitch>
        <yaw>2.18166161</yaw>
        <rollspeed>0</rollspeed>
        <pitchspeed>0</pitchspeed>
        <yawspeed>0</yawspeed>
      </mission_attitude>
    </posture>
    <posture>
      <time>2017-02-21T10:05:05.3076097+08:00</time>
      <mission_attitude>
        <time_boot_ms>40780000</time_boot_ms>
        <roll>-0.00523598772</roll>
        <pitch>-0.06981317</pitch>
        <yaw>2.16420817</yaw>
        <rollspeed>0</rollspeed>
        <pitchspeed>0</pitchspeed>
        <yawspeed>0</yawspeed>
      </mission_attitude>
    </posture>
    <posture>
      <time>2017-02-21T10:05:06.4576754+08:00</time>
      <mission_attitude>
        <time_boot_ms>41920000</time_boot_ms>
        <roll>-0.00523598772</roll>
        <pitch>-0.06981317</pitch>
        <yaw>2.18166161</yaw>
        <rollspeed>0</rollspeed>
        <pitchspeed>0</pitchspeed>
        <yawspeed>0</yawspeed>
      </mission_attitude>
    </posture>
    <posture>
      <time>2017-02-21T10:05:07.4067297+08:00</time>
      <mission_attitude>
        <time_boot_ms>42880000</time_boot_ms>
        <roll>-0.00523598772</roll>
        <pitch>-0.06981317</pitch>
        <yaw>2.16420817</yaw>
        <rollspeed>0</rollspeed>
        <pitchspeed>0</pitchspeed>
        <yawspeed>0</yawspeed>
      </mission_attitude>
    </posture>
    <posture>
      <time>2017-02-21T10:05:08.3567841+08:00</time>
      <mission_attitude>
        <time_boot_ms>43840000</time_boot_ms>
        <roll>-0.00523598772</roll>
        <pitch>-0.06981317</pitch>
        <yaw>2.18166161</yaw>
        <rollspeed>0</rollspeed>
        <pitchspeed>0</pitchspeed>
        <yawspeed>0</yawspeed>
      </mission_attitude>
    </posture>
    <posture>
      <time>2017-02-21T10:05:09.3568413+08:00</time>
      <mission_attitude>
        <time_boot_ms>44800000</time_boot_ms>
        <roll>-0.00523598772</roll>
        <pitch>-0.06981317</pitch>
        <yaw>2.18166161</yaw>
        <rollspeed>0</rollspeed>
        <pitchspeed>0</pitchspeed>
        <yawspeed>0</yawspeed>
      </mission_attitude>
    </posture>
    <posture>
      <time>2017-02-21T10:05:10.3068956+08:00</time>
      <mission_attitude>
        <time_boot_ms>45760000</time_boot_ms>
        <roll>-0.00523598772</roll>
        <pitch>-0.06981317</pitch>
        <yaw>2.18166161</yaw>
        <rollspeed>0</rollspeed>
        <pitchspeed>0</pitchspeed>
        <yawspeed>0</yawspeed>
      </mission_attitude>
    </posture>
    <posture>
      <time>2017-02-21T10:05:11.4569614+08:00</time>
      <mission_attitude>
        <time_boot_ms>46880000</time_boot_ms>
        <roll>-0.00523598772</roll>
        <pitch>-0.06981317</pitch>
        <yaw>2.216568</yaw>
        <rollspeed>0</rollspeed>
        <pitchspeed>0</pitchspeed>
        <yawspeed>0</yawspeed>
      </mission_attitude>
    </posture>
    <posture>
      <time>2017-02-21T10:05:12.4070157+08:00</time>
      <mission_attitude>
        <time_boot_ms>47840000</time_boot_ms>
        <roll>-0.00523598772</roll>
        <pitch>-0.06981317</pitch>
        <yaw>2.216568</yaw>
        <rollspeed>0</rollspeed>
        <pitchspeed>0</pitchspeed>
        <yawspeed>0</yawspeed>
      </mission_attitude>
    </posture>
    <posture>
      <time>2017-02-21T10:05:13.3570701+08:00</time>
      <mission_attitude>
        <time_boot_ms>48800000</time_boot_ms>
        <roll>-0.00523598772</roll>
        <pitch>-0.06981317</pitch>
        <yaw>2.18166161</yaw>
        <rollspeed>0</rollspeed>
        <pitchspeed>0</pitchspeed>
        <yawspeed>0</yawspeed>
      </mission_attitude>
    </posture>
    <posture>
      <time>2017-02-21T10:05:14.3571273+08:00</time>
      <mission_attitude>
        <time_boot_ms>49760000</time_boot_ms>
        <roll>-0.00523598772</roll>
        <pitch>-0.06981317</pitch>
        <yaw>2.18166161</yaw>
        <rollspeed>0</rollspeed>
        <pitchspeed>0</pitchspeed>
        <yawspeed>0</yawspeed>
      </mission_attitude>
    </posture>
    <posture>
      <time>2017-02-21T10:05:15.3071816+08:00</time>
      <mission_attitude>
        <time_boot_ms>50720000</time_boot_ms>
        <roll>-0.00523598772</roll>
        <pitch>-0.06981317</pitch>
        <yaw>2.18166161</yaw>
        <rollspeed>0</rollspeed>
        <pitchspeed>0</pitchspeed>
        <yawspeed>0</yawspeed>
      </mission_attitude>
    </posture>
    <posture>
      <time>2017-02-21T10:05:16.3072388+08:00</time>
      <mission_attitude>
        <time_boot_ms>51680000</time_boot_ms>
        <roll>-0.00523598772</roll>
        <pitch>-0.06981317</pitch>
        <yaw>2.18166161</yaw>
        <rollspeed>0</rollspeed>
        <pitchspeed>0</pitchspeed>
        <yawspeed>0</yawspeed>
      </mission_attitude>
    </posture>
    <posture>
      <time>2017-02-21T10:05:17.2072903+08:00</time>
      <mission_attitude>
        <time_boot_ms>52640000</time_boot_ms>
        <roll>-0.00523598772</roll>
        <pitch>-0.06981317</pitch>
        <yaw>2.18166161</yaw>
        <rollspeed>0</rollspeed>
        <pitchspeed>0</pitchspeed>
        <yawspeed>0</yawspeed>
      </mission_attitude>
    </posture>
    <posture>
      <time>2017-02-21T10:05:18.2073475+08:00</time>
      <mission_attitude>
        <time_boot_ms>53600000</time_boot_ms>
        <roll>-0.00523598772</roll>
        <pitch>-0.06981317</pitch>
        <yaw>2.16420817</yaw>
        <rollspeed>0</rollspeed>
        <pitchspeed>0</pitchspeed>
        <yawspeed>0</yawspeed>
      </mission_attitude>
    </posture>
    <posture>
      <time>2017-02-21T10:05:19.1574018+08:00</time>
      <mission_attitude>
        <time_boot_ms>54560000</time_boot_ms>
        <roll>-0.00523598772</roll>
        <pitch>-0.06981317</pitch>
        <yaw>2.18166161</yaw>
        <rollspeed>0</rollspeed>
        <pitchspeed>0</pitchspeed>
        <yawspeed>0</yawspeed>
      </mission_attitude>
    </posture>
    <posture>
      <time>2017-02-21T10:05:20.1074562+08:00</time>
      <mission_attitude>
        <time_boot_ms>55520000</time_boot_ms>
        <roll>-0.00523598772</roll>
        <pitch>-0.06981317</pitch>
        <yaw>2.16420817</yaw>
        <rollspeed>0</rollspeed>
        <pitchspeed>0</pitchspeed>
        <yawspeed>0</yawspeed>
      </mission_attitude>
    </posture>
    <posture>
      <time>2017-02-21T10:05:21.0575105+08:00</time>
      <mission_attitude>
        <time_boot_ms>56480000</time_boot_ms>
        <roll>-0.00523598772</roll>
        <pitch>-0.06981317</pitch>
        <yaw>2.16420817</yaw>
        <rollspeed>0</rollspeed>
        <pitchspeed>0</pitchspeed>
        <yawspeed>0</yawspeed>
      </mission_attitude>
    </posture>
    <posture>
      <time>2017-02-21T10:05:22.0575677+08:00</time>
      <mission_attitude>
        <time_boot_ms>57440000</time_boot_ms>
        <roll>-0.00523598772</roll>
        <pitch>-0.06981317</pitch>
        <yaw>2.216568</yaw>
        <rollspeed>0</rollspeed>
        <pitchspeed>0</pitchspeed>
        <yawspeed>0</yawspeed>
      </mission_attitude>
    </posture>
    <posture>
      <time>2017-02-21T10:05:23.007622+08:00</time>
      <mission_attitude>
        <time_boot_ms>58400000</time_boot_ms>
        <roll>-0.00523598772</roll>
        <pitch>-0.06981317</pitch>
        <yaw>2.216568</yaw>
        <rollspeed>0</rollspeed>
        <pitchspeed>0</pitchspeed>
        <yawspeed>0</yawspeed>
      </mission_attitude>
    </posture>
    <posture>
      <time>2017-02-21T10:05:24.0076792+08:00</time>
      <mission_attitude>
        <time_boot_ms>59360000</time_boot_ms>
        <roll>-0.00523598772</roll>
        <pitch>-0.06981317</pitch>
        <yaw>2.18166161</yaw>
        <rollspeed>0</rollspeed>
        <pitchspeed>0</pitchspeed>
        <yawspeed>0</yawspeed>
      </mission_attitude>
    </posture>
    <posture>
      <time>2017-02-21T10:05:24.9567335+08:00</time>
      <mission_attitude>
        <time_boot_ms>60320000</time_boot_ms>
        <roll>-0.00523598772</roll>
        <pitch>-0.06981317</pitch>
        <yaw>2.11184835</yaw>
        <rollspeed>0</rollspeed>
        <pitchspeed>0</pitchspeed>
        <yawspeed>0</yawspeed>
      </mission_attitude>
    </posture>
    <posture>
      <time>2017-02-21T10:05:25.9067879+08:00</time>
      <mission_attitude>
        <time_boot_ms>61280000</time_boot_ms>
        <roll>-0.00523598772</roll>
        <pitch>-0.0715585</pitch>
        <yaw>2.18166161</yaw>
        <rollspeed>0</rollspeed>
        <pitchspeed>0</pitchspeed>
        <yawspeed>0</yawspeed>
      </mission_attitude>
    </posture>
    <posture>
      <time>2017-02-21T10:05:26.8568422+08:00</time>
      <mission_attitude>
        <time_boot_ms>62240000</time_boot_ms>
        <roll>-0.00523598772</roll>
        <pitch>-0.06981317</pitch>
        <yaw>2.18166161</yaw>
        <rollspeed>0</rollspeed>
        <pitchspeed>0</pitchspeed>
        <yawspeed>0</yawspeed>
      </mission_attitude>
    </posture>
    <posture>
      <time>2017-02-21T10:05:27.8568994+08:00</time>
      <mission_attitude>
        <time_boot_ms>63200000</time_boot_ms>
        <roll>-0.00523598772</roll>
        <pitch>-0.06981317</pitch>
        <yaw>2.18166161</yaw>
        <rollspeed>0</rollspeed>
        <pitchspeed>0</pitchspeed>
        <yawspeed>0</yawspeed>
      </mission_attitude>
    </posture>
    <posture>
      <time>2017-02-21T10:05:28.8069537+08:00</time>
      <mission_attitude>
        <time_boot_ms>64160000</time_boot_ms>
        <roll>-0.00523598772</roll>
        <pitch>-0.06981317</pitch>
        <yaw>2.16420817</yaw>
        <rollspeed>0</rollspeed>
        <pitchspeed>0</pitchspeed>
        <yawspeed>0</yawspeed>
      </mission_attitude>
    </posture>
    <posture>
      <time>2017-02-21T10:05:29.7570081+08:00</time>
      <mission_attitude>
        <time_boot_ms>65120000</time_boot_ms>
        <roll>-0.00523598772</roll>
        <pitch>-0.06981317</pitch>
        <yaw>2.18166161</yaw>
        <rollspeed>0</rollspeed>
        <pitchspeed>0</pitchspeed>
        <yawspeed>0</yawspeed>
      </mission_attitude>
    </posture>
    <posture>
      <time>2017-02-21T10:05:30.7570653+08:00</time>
      <mission_attitude>
        <time_boot_ms>66080000</time_boot_ms>
        <roll>-0.00523598772</roll>
        <pitch>-0.06981317</pitch>
        <yaw>2.16420817</yaw>
        <rollspeed>0</rollspeed>
        <pitchspeed>0</pitchspeed>
        <yawspeed>0</yawspeed>
      </mission_attitude>
    </posture>
    <posture>
      <time>2017-02-21T10:05:31.7571225+08:00</time>
      <mission_attitude>
        <time_boot_ms>67040000</time_boot_ms>
        <roll>-0.00523598772</roll>
        <pitch>-0.06981317</pitch>
        <yaw>2.16420817</yaw>
        <rollspeed>0</rollspeed>
        <pitchspeed>0</pitchspeed>
        <yawspeed>0</yawspeed>
      </mission_attitude>
    </posture>
    <posture>
      <time>2017-02-21T10:05:34.0072512+08:00</time>
      <mission_attitude>
        <time_boot_ms>69320000</time_boot_ms>
        <roll>-0.00523598772</roll>
        <pitch>-0.06981317</pitch>
        <yaw>2.18166161</yaw>
        <rollspeed>0</rollspeed>
        <pitchspeed>0</pitchspeed>
        <yawspeed>0</yawspeed>
      </mission_attitude>
    </posture>
    <posture>
      <time>2017-02-21T10:05:34.9573055+08:00</time>
      <mission_attitude>
        <time_boot_ms>70280000</time_boot_ms>
        <roll>-0.00523598772</roll>
        <pitch>-0.06981317</pitch>
        <yaw>2.11184835</yaw>
        <rollspeed>0</rollspeed>
        <pitchspeed>0</pitchspeed>
        <yawspeed>0</yawspeed>
      </mission_attitude>
    </posture>
    <posture>
      <time>2017-02-21T10:05:38.5575114+08:00</time>
      <mission_attitude>
        <time_boot_ms>73860000</time_boot_ms>
        <roll>-0.00523598772</roll>
        <pitch>-0.06981317</pitch>
        <yaw>2.18166161</yaw>
        <rollspeed>0</rollspeed>
        <pitchspeed>0</pitchspeed>
        <yawspeed>0</yawspeed>
      </mission_attitude>
    </posture>
    <posture>
      <time>2017-02-21T10:05:39.5575686+08:00</time>
      <mission_attitude>
        <time_boot_ms>74820000</time_boot_ms>
        <roll>-0.00523598772</roll>
        <pitch>-0.06981317</pitch>
        <yaw>2.18166161</yaw>
        <rollspeed>0</rollspeed>
        <pitchspeed>0</pitchspeed>
        <yawspeed>0</yawspeed>
      </mission_attitude>
    </posture>
    <posture>
      <time>2017-02-21T10:05:43.5567974+08:00</time>
      <mission_attitude>
        <time_boot_ms>78840000</time_boot_ms>
        <roll>-0.00523598772</roll>
        <pitch>-0.06981317</pitch>
        <yaw>2.216568</yaw>
        <rollspeed>0</rollspeed>
        <pitchspeed>0</pitchspeed>
        <yawspeed>0</yawspeed>
      </mission_attitude>
    </posture>
    <posture>
      <time>2017-02-21T10:05:44.5568546+08:00</time>
      <mission_attitude>
        <time_boot_ms>79800000</time_boot_ms>
        <roll>-0.00523598772</roll>
        <pitch>-0.06981317</pitch>
        <yaw>2.216568</yaw>
        <rollspeed>0</rollspeed>
        <pitchspeed>0</pitchspeed>
        <yawspeed>0</yawspeed>
      </mission_attitude>
    </posture>
    <posture>
      <time>2017-02-21T10:05:45.4569061+08:00</time>
      <mission_attitude>
        <time_boot_ms>80760000</time_boot_ms>
        <roll>-0.00523598772</roll>
        <pitch>-0.06981317</pitch>
        <yaw>2.16420817</yaw>
        <rollspeed>0</rollspeed>
        <pitchspeed>0</pitchspeed>
        <yawspeed>0</yawspeed>
      </mission_attitude>
    </posture>
    <posture>
      <time>2017-02-21T10:05:48.5570834+08:00</time>
      <mission_attitude>
        <time_boot_ms>83820000</time_boot_ms>
        <roll>-0.00523598772</roll>
        <pitch>-0.06981317</pitch>
        <yaw>2.16420817</yaw>
        <rollspeed>0</rollspeed>
        <pitchspeed>0</pitchspeed>
        <yawspeed>0</yawspeed>
      </mission_attitude>
    </posture>
    <posture>
      <time>2017-02-21T10:05:49.5571406+08:00</time>
      <mission_attitude>
        <time_boot_ms>84780000</time_boot_ms>
        <roll>-0.00523598772</roll>
        <pitch>-0.06981317</pitch>
        <yaw>2.16420817</yaw>
        <rollspeed>0</rollspeed>
        <pitchspeed>0</pitchspeed>
        <yawspeed>0</yawspeed>
      </mission_attitude>
    </posture>
    <posture>
      <time>2017-02-21T10:05:50.4571921+08:00</time>
      <mission_attitude>
        <time_boot_ms>85740000</time_boot_ms>
        <roll>-0.00523598772</roll>
        <pitch>-0.06981317</pitch>
        <yaw>2.16420817</yaw>
        <rollspeed>0</rollspeed>
        <pitchspeed>0</pitchspeed>
        <yawspeed>0</yawspeed>
      </mission_attitude>
    </posture>
    <posture>
      <time>2017-02-21T10:05:51.4572493+08:00</time>
      <mission_attitude>
        <time_boot_ms>86700000</time_boot_ms>
        <roll>-0.00523598772</roll>
        <pitch>-0.06981317</pitch>
        <yaw>2.146755</yaw>
        <rollspeed>0</rollspeed>
        <pitchspeed>0</pitchspeed>
        <yawspeed>0</yawspeed>
      </mission_attitude>
    </posture>
    <posture>
      <time>2017-02-21T10:05:52.4073036+08:00</time>
      <mission_attitude>
        <time_boot_ms>87660000</time_boot_ms>
        <roll>-0.006981317</roll>
        <pitch>-0.06981317</pitch>
        <yaw>2.16420817</yaw>
        <rollspeed>0</rollspeed>
        <pitchspeed>0</pitchspeed>
        <yawspeed>0</yawspeed>
      </mission_attitude>
    </posture>
    <posture>
      <time>2017-02-21T10:05:53.3573579+08:00</time>
      <mission_attitude>
        <time_boot_ms>88620000</time_boot_ms>
        <roll>-0.00523598772</roll>
        <pitch>-0.06981317</pitch>
        <yaw>2.18166161</yaw>
        <rollspeed>0</rollspeed>
        <pitchspeed>0</pitchspeed>
        <yawspeed>0</yawspeed>
      </mission_attitude>
    </posture>
    <posture>
      <time>2017-02-21T10:05:54.3574151+08:00</time>
      <mission_attitude>
        <time_boot_ms>89580000</time_boot_ms>
        <roll>-0.00523598772</roll>
        <pitch>-0.06981317</pitch>
        <yaw>2.216568</yaw>
        <rollspeed>0</rollspeed>
        <pitchspeed>0</pitchspeed>
        <yawspeed>0</yawspeed>
      </mission_attitude>
    </posture>
    <posture>
      <time>2017-02-21T10:05:55.3574723+08:00</time>
      <mission_attitude>
        <time_boot_ms>90540000</time_boot_ms>
        <roll>-0.00523598772</roll>
        <pitch>-0.06981317</pitch>
        <yaw>2.216568</yaw>
        <rollspeed>0</rollspeed>
        <pitchspeed>0</pitchspeed>
        <yawspeed>0</yawspeed>
      </mission_attitude>
    </posture>
    <posture>
      <time>2017-02-21T10:05:57.2075782+08:00</time>
      <mission_attitude>
        <time_boot_ms>92440000</time_boot_ms>
        <roll>-0.00523598772</roll>
        <pitch>-0.06981317</pitch>
        <yaw>2.05948853</yaw>
        <rollspeed>0</rollspeed>
        <pitchspeed>0</pitchspeed>
        <yawspeed>0</yawspeed>
      </mission_attitude>
    </posture>
    <posture>
      <time>2017-02-21T10:05:58.2076354+08:00</time>
      <mission_attitude>
        <time_boot_ms>93400000</time_boot_ms>
        <roll>-0.00523598772</roll>
        <pitch>-0.06981317</pitch>
        <yaw>2.18166161</yaw>
        <rollspeed>0</rollspeed>
        <pitchspeed>0</pitchspeed>
        <yawspeed>0</yawspeed>
      </mission_attitude>
    </posture>
    <posture>
      <time>2017-02-21T10:05:59.1576897+08:00</time>
      <mission_attitude>
        <time_boot_ms>94360000</time_boot_ms>
        <roll>-0.00523598772</roll>
        <pitch>-0.06981317</pitch>
        <yaw>2.18166161</yaw>
        <rollspeed>0</rollspeed>
        <pitchspeed>0</pitchspeed>
        <yawspeed>0</yawspeed>
      </mission_attitude>
    </posture>
    <posture>
      <time>2017-02-21T10:06:00.106744+08:00</time>
      <mission_attitude>
        <time_boot_ms>95320000</time_boot_ms>
        <roll>-0.00523598772</roll>
        <pitch>-0.06981317</pitch>
        <yaw>2.18166161</yaw>
        <rollspeed>0</rollspeed>
        <pitchspeed>0</pitchspeed>
        <yawspeed>0</yawspeed>
      </mission_attitude>
    </posture>
    <posture>
      <time>2017-02-21T10:06:01.0567983+08:00</time>
      <mission_attitude>
        <time_boot_ms>96280000</time_boot_ms>
        <roll>-0.00523598772</roll>
        <pitch>-0.06981317</pitch>
        <yaw>2.18166161</yaw>
        <rollspeed>0</rollspeed>
        <pitchspeed>0</pitchspeed>
        <yawspeed>0</yawspeed>
      </mission_attitude>
    </posture>
    <posture>
      <time>2017-02-21T10:06:02.2068641+08:00</time>
      <mission_attitude>
        <time_boot_ms>97400000</time_boot_ms>
        <roll>-0.00523598772</roll>
        <pitch>-0.06981317</pitch>
        <yaw>2.18166161</yaw>
        <rollspeed>0</rollspeed>
        <pitchspeed>0</pitchspeed>
        <yawspeed>0</yawspeed>
      </mission_attitude>
    </posture>
    <posture>
      <time>2017-02-21T10:06:03.1569185+08:00</time>
      <mission_attitude>
        <time_boot_ms>98360000</time_boot_ms>
        <roll>-0.00523598772</roll>
        <pitch>-0.06981317</pitch>
        <yaw>2.16420817</yaw>
        <rollspeed>0</rollspeed>
        <pitchspeed>0</pitchspeed>
        <yawspeed>0</yawspeed>
      </mission_attitude>
    </posture>
    <posture>
      <time>2017-02-21T10:06:04.1069728+08:00</time>
      <mission_attitude>
        <time_boot_ms>99320000</time_boot_ms>
        <roll>-0.00523598772</roll>
        <pitch>-0.06981317</pitch>
        <yaw>2.1991148</yaw>
        <rollspeed>0</rollspeed>
        <pitchspeed>0</pitchspeed>
        <yawspeed>0</yawspeed>
      </mission_attitude>
    </posture>
    <posture>
      <time>2017-02-21T10:06:05.10703+08:00</time>
      <mission_attitude>
        <time_boot_ms>100280000</time_boot_ms>
        <roll>-0.00523598772</roll>
        <pitch>-0.06981317</pitch>
        <yaw>2.216568</yaw>
        <rollspeed>0</rollspeed>
        <pitchspeed>0</pitchspeed>
        <yawspeed>0</yawspeed>
      </mission_attitude>
    </posture>
    <posture>
      <time>2017-02-21T10:06:06.0570843+08:00</time>
      <mission_attitude>
        <time_boot_ms>101240000</time_boot_ms>
        <roll>-0.00523598772</roll>
        <pitch>-0.06981317</pitch>
        <yaw>2.1991148</yaw>
        <rollspeed>0</rollspeed>
        <pitchspeed>0</pitchspeed>
        <yawspeed>0</yawspeed>
      </mission_attitude>
    </posture>
    <posture>
      <time>2017-02-21T10:06:07.2071501+08:00</time>
      <mission_attitude>
        <time_boot_ms>102400000</time_boot_ms>
        <roll>-0.00523598772</roll>
        <pitch>-0.06981317</pitch>
        <yaw>2.18166161</yaw>
        <rollspeed>0</rollspeed>
        <pitchspeed>0</pitchspeed>
        <yawspeed>0</yawspeed>
      </mission_attitude>
    </posture>
    <posture>
      <time>2017-02-21T10:06:08.1572045+08:00</time>
      <mission_attitude>
        <time_boot_ms>103360000</time_boot_ms>
        <roll>-0.00523598772</roll>
        <pitch>-0.06981317</pitch>
        <yaw>2.18166161</yaw>
        <rollspeed>0</rollspeed>
        <pitchspeed>0</pitchspeed>
        <yawspeed>0</yawspeed>
      </mission_attitude>
    </posture>
    <posture>
      <time>2017-02-21T10:06:09.1572617+08:00</time>
      <mission_attitude>
        <time_boot_ms>104320000</time_boot_ms>
        <roll>-0.00523598772</roll>
        <pitch>-0.06981317</pitch>
        <yaw>2.16420817</yaw>
        <rollspeed>0</rollspeed>
        <pitchspeed>0</pitchspeed>
        <yawspeed>0</yawspeed>
      </mission_attitude>
    </posture>
    <posture>
      <time>2017-02-21T10:06:10.1573189+08:00</time>
      <mission_attitude>
        <time_boot_ms>105280000</time_boot_ms>
        <roll>-0.00523598772</roll>
        <pitch>-0.06981317</pitch>
        <yaw>2.18166161</yaw>
        <rollspeed>0</rollspeed>
        <pitchspeed>0</pitchspeed>
        <yawspeed>0</yawspeed>
      </mission_attitude>
    </posture>
    <posture>
      <time>2017-02-21T10:06:11.1073732+08:00</time>
      <mission_attitude>
        <time_boot_ms>106240000</time_boot_ms>
        <roll>-0.00523598772</roll>
        <pitch>-0.06981317</pitch>
        <yaw>2.16420817</yaw>
        <rollspeed>0</rollspeed>
        <pitchspeed>0</pitchspeed>
        <yawspeed>0</yawspeed>
      </mission_attitude>
    </posture>
    <posture>
      <time>2017-02-21T10:06:12.0574275+08:00</time>
      <mission_attitude>
        <time_boot_ms>107200000</time_boot_ms>
        <roll>-0.00523598772</roll>
        <pitch>-0.06981317</pitch>
        <yaw>2.16420817</yaw>
        <rollspeed>0</rollspeed>
        <pitchspeed>0</pitchspeed>
        <yawspeed>0</yawspeed>
      </mission_attitude>
    </posture>
    <posture>
      <time>2017-02-21T10:06:13.0574847+08:00</time>
      <mission_attitude>
        <time_boot_ms>108160000</time_boot_ms>
        <roll>-0.00523598772</roll>
        <pitch>-0.06981317</pitch>
        <yaw>2.18166161</yaw>
        <rollspeed>0</rollspeed>
        <pitchspeed>0</pitchspeed>
        <yawspeed>0</yawspeed>
