<?xml version="1.0" encoding="utf-8"?>
<SerializeDataClass xmlns:xsi="http://www.w3.org/2001/XMLSchema-instance" xmlns:xsd="http://www.w3.org/2001/XMLSchema">
  <listposture>
    <posture>
      <time>2017-02-21T15:16:00.7933672+08:00</time>
      <mission_attitude>
        <time_boot_ms>676080000</time_boot_ms>
        <roll>-0.02443461</roll>
        <pitch>-0.0750491545</pitch>
        <yaw>1.93731546</yaw>
        <rollspeed>0</rollspeed>
        <pitchspeed>0</pitchspeed>
        <yawspeed>0</yawspeed>
      </mission_attitude>
    </posture>
    <posture>
      <time>2017-02-21T15:16:01.7934244+08:00</time>
      <mission_attitude>
        <time_boot_ms>677100000</time_boot_ms>
        <roll>-0.02443461</roll>
        <pitch>-0.0750491545</pitch>
        <yaw>2.18166161</yaw>
        <rollspeed>0</rollspeed>
        <pitchspeed>0</pitchspeed>
        <yawspeed>0</yawspeed>
      </mission_attitude>
    </posture>
    <posture>
      <time>2017-02-21T15:16:04.093556+08:00</time>
      <mission_attitude>
        <time_boot_ms>679400000</time_boot_ms>
        <roll>-0.02443461</roll>
        <pitch>-0.0750491545</pitch>
        <yaw>2.1991148</yaw>
        <rollspeed>0</rollspeed>
        <pitchspeed>0</pitchspeed>
        <yawspeed>0</yawspeed>
      </mission_attitude>
    </posture>
    <posture>
      <time>2017-02-21T15:16:10.6939335+08:00</time>
      <mission_attitude>
        <time_boot_ms>685940000</time_boot_ms>
        <roll>-0.02443461</roll>
        <pitch>-0.0750491545</pitch>
        <yaw>2.216568</yaw>
        <rollspeed>0</rollspeed>
        <pitchspeed>0</pitchspeed>
        <yawspeed>0</yawspeed>
      </mission_attitude>
    </posture>
    <posture>
      <time>2017-02-21T15:16:11.6929907+08:00</time>
      <mission_attitude>
        <time_boot_ms>686980000</time_boot_ms>
        <roll>-0.02443461</roll>
        <pitch>-0.0750491545</pitch>
        <yaw>1.93731546</yaw>
        <rollspeed>0</rollspeed>
        <pitchspeed>0</pitchspeed>
        <yawspeed>0</yawspeed>
      </mission_attitude>
    </posture>
    <posture>
      <time>2017-02-21T15:16:12.9430622+08:00</time>
      <mission_attitude>
        <time_boot_ms>688200000</time_boot_ms>
        <roll>-0.02443461</roll>
        <pitch>-0.0750491545</pitch>
        <yaw>2.30383468</yaw>
        <rollspeed>0</rollspeed>
        <pitchspeed>0</pitchspeed>
        <yawspeed>0</yawspeed>
      </mission_attitude>
    </posture>
    <posture>
      <time>2017-02-21T15:16:22.4436056+08:00</time>
      <mission_attitude>
        <time_boot_ms>697640000</time_boot_ms>
        <roll>-0.02443461</roll>
        <pitch>-0.0750491545</pitch>
        <yaw>2.30383468</yaw>
        <rollspeed>0</rollspeed>
        <pitchspeed>0</pitchspeed>
        <yawspeed>0</yawspeed>
      </mission_attitude>
    </posture>
    <posture>
      <time>2017-02-21T15:16:23.8436856+08:00</time>
      <mission_attitude>
        <time_boot_ms>699080000</time_boot_ms>
        <roll>-0.02443461</roll>
        <pitch>-0.0750491545</pitch>
        <yaw>2.1991148</yaw>
        <rollspeed>0</rollspeed>
        <pitchspeed>0</pitchspeed>
        <yawspeed>0</yawspeed>
      </mission_attitude>
    </posture>
    <posture>
      <time>2017-02-21T15:16:27.8439144+08:00</time>
      <mission_attitude>
        <time_boot_ms>703040000</time_boot_ms>
        <roll>-0.02443461</roll>
        <pitch>-0.0750491545</pitch>
        <yaw>2.18166161</yaw>
        <rollspeed>0</rollspeed>
        <pitchspeed>0</pitchspeed>
        <yawspeed>0</yawspeed>
      </mission_attitude>
    </posture>
    <posture>
      <time>2017-02-21T15:16:30.9430917+08:00</time>
      <mission_attitude>
        <time_boot_ms>706140000</time_boot_ms>
        <roll>-0.02443461</roll>
        <pitch>-0.0750491545</pitch>
        <yaw>2.28638124</yaw>
        <rollspeed>0</rollspeed>
        <pitchspeed>0</pitchspeed>
        <yawspeed>0</yawspeed>
      </mission_attitude>
    </posture>
    <posture>
      <time>2017-02-21T15:16:32.8932032+08:00</time>
      <mission_attitude>
        <time_boot_ms>708060000</time_boot_ms>
        <roll>-0.02443461</roll>
        <pitch>-0.0750491545</pitch>
        <yaw>2.216568</yaw>
        <rollspeed>0</rollspeed>
        <pitchspeed>0</pitchspeed>
        <yawspeed>0</yawspeed>
      </mission_attitude>
    </posture>
    <posture>
      <time>2017-02-21T15:16:43.5438124+08:00</time>
      <mission_attitude>
        <time_boot_ms>718640000</time_boot_ms>
        <roll>-0.02443461</roll>
        <pitch>-0.0750491545</pitch>
        <yaw>2.09439516</yaw>
        <rollspeed>0</rollspeed>
        <pitchspeed>0</pitchspeed>
        <yawspeed>0</yawspeed>
      </mission_attitude>
    </posture>
    <posture>
      <time>2017-02-21T15:16:44.8438868+08:00</time>
      <mission_attitude>
        <time_boot_ms>719920000</time_boot_ms>
        <roll>-0.02443461</roll>
        <pitch>-0.0750491545</pitch>
        <yaw>2.1991148</yaw>
        <rollspeed>0</rollspeed>
        <pitchspeed>0</pitchspeed>
        <yawspeed>0</yawspeed>
      </mission_attitude>
    </posture>
    <posture>
      <time>2017-02-21T15:16:45.8929468+08:00</time>
      <mission_attitude>
        <time_boot_ms>720980000</time_boot_ms>
        <roll>-0.02443461</roll>
        <pitch>-0.0750491545</pitch>
        <yaw>2.18166161</yaw>
        <rollspeed>0</rollspeed>
        <pitchspeed>0</pitchspeed>
        <yawspeed>0</yawspeed>
      </mission_attitude>
    </posture>
    <posture>
      <time>2017-02-21T15:16:52.8433443+08:00</time>
      <mission_attitude>
        <time_boot_ms>727920000</time_boot_ms>
        <roll>-0.02443461</roll>
        <pitch>-0.0750491545</pitch>
        <yaw>2.23402143</yaw>
        <rollspeed>0</rollspeed>
        <pitchspeed>0</pitchspeed>
        <yawspeed>0</yawspeed>
      </mission_attitude>
    </posture>
    <posture>
      <time>2017-02-21T15:16:56.2435388+08:00</time>
      <mission_attitude>
        <time_boot_ms>731280000</time_boot_ms>
        <roll>-0.02443461</roll>
        <pitch>-0.0750491545</pitch>
        <yaw>2.23402143</yaw>
        <rollspeed>0</rollspeed>
        <pitchspeed>0</pitchspeed>
        <yawspeed>0</yawspeed>
      </mission_attitude>
    </posture>
    <posture>
      <time>2017-02-21T15:16:59.8437447+08:00</time>
      <mission_attitude>
        <time_boot_ms>734840000</time_boot_ms>
        <roll>-0.02443461</roll>
        <pitch>-0.0750491545</pitch>
        <yaw>2.268928</yaw>
        <rollspeed>0</rollspeed>
        <pitchspeed>0</pitchspeed>
        <yawspeed>0</yawspeed>
      </mission_attitude>
    </posture>
    <posture>
      <time>2017-02-21T15:17:00.8438019+08:00</time>
      <mission_attitude>
        <time_boot_ms>735880000</time_boot_ms>
        <roll>-0.02443461</roll>
        <pitch>-0.0750491545</pitch>
        <yaw>2.23402143</yaw>
        <rollspeed>0</rollspeed>
        <pitchspeed>0</pitchspeed>
        <yawspeed>0</yawspeed>
      </mission_attitude>
    </posture>
    <posture>
      <time>2017-02-21T15:17:01.893862+08:00</time>
      <mission_attitude>
        <time_boot_ms>736920000</time_boot_ms>
        <roll>-0.02443461</roll>
        <pitch>-0.0750491545</pitch>
        <yaw>2.042035</yaw>
        <rollspeed>0</rollspeed>
        <pitchspeed>0</pitchspeed>
        <yawspeed>0</yawspeed>
      </mission_attitude>
    </posture>
    <posture>
      <time>2017-02-21T15:17:08.2432251+08:00</time>
      <mission_attitude>
        <time_boot_ms>743200000</time_boot_ms>
        <roll>-0.02443461</roll>
        <pitch>-0.0750491545</pitch>
        <yaw>2.216568</yaw>
        <rollspeed>0</rollspeed>
        <pitchspeed>0</pitchspeed>
        <yawspeed>0</yawspeed>
      </mission_attitude>
    </posture>
    <posture>
      <time>2017-02-21T15:17:49.6435931+08:00</time>
      <mission_attitude>
        <time_boot_ms>784380000</time_boot_ms>
        <roll>-0.02443461</roll>
        <pitch>-0.0750491545</pitch>
        <yaw>2.16420817</yaw>
        <rollspeed>0</rollspeed>
        <pitchspeed>0</pitchspeed>
        <yawspeed>0</yawspeed>
      </mission_attitude>
    </posture>
    <posture>
      <time>2017-02-21T15:17:52.6437647+08:00</time>
      <mission_attitude>
        <time_boot_ms>787380000</time_boot_ms>
        <roll>-0.02443461</roll>
        <pitch>-0.0750491545</pitch>
        <yaw>2.1991148</yaw>
        <rollspeed>0</rollspeed>
        <pitchspeed>0</pitchspeed>
        <yawspeed>0</yawspeed>
      </mission_attitude>
    </posture>
    <posture>
      <time>2017-02-21T15:17:58.6431079+08:00</time>
      <mission_attitude>
        <time_boot_ms>793380000</time_boot_ms>
        <roll>-0.02443461</roll>
        <pitch>-0.0750491545</pitch>
        <yaw>2.16420817</yaw>
        <rollspeed>0</rollspeed>
        <pitchspeed>0</pitchspeed>
        <yawspeed>0</yawspeed>
      </mission_attitude>
    </posture>
    <posture>
      <time>2017-02-21T15:18:06.5435597+08:00</time>
      <mission_attitude>
        <time_boot_ms>801280000</time_boot_ms>
        <roll>-0.0261799376</roll>
        <pitch>-0.0750491545</pitch>
        <yaw>2.28638124</yaw>
        <rollspeed>0</rollspeed>
        <pitchspeed>0</pitchspeed>
        <yawspeed>0</yawspeed>
      </mission_attitude>
    </posture>
    <posture>
      <time>2017-02-21T15:18:07.5936198+08:00</time>
      <mission_attitude>
        <time_boot_ms>802300000</time_boot_ms>
        <roll>-0.0261799376</roll>
        <pitch>-0.0750491545</pitch>
        <yaw>2.28638124</yaw>
        <rollspeed>0</rollspeed>
        <pitchspeed>0</pitchspeed>
        <yawspeed>0</yawspeed>
      </mission_attitude>
    </posture>
    <posture>
      <time>2017-02-21T15:18:08.593677+08:00</time>
      <mission_attitude>
        <time_boot_ms>803300000</time_boot_ms>
        <roll>-0.0279252678</roll>
        <pitch>-0.0750491545</pitch>
        <yaw>2.1991148</yaw>
        <rollspeed>0</rollspeed>
        <pitchspeed>0</pitchspeed>
        <yawspeed>0</yawspeed>
      </mission_attitude>
    </posture>
    <posture>
      <time>2017-02-21T15:18:11.2438286+08:00</time>
      <mission_attitude>
        <time_boot_ms>805940000</time_boot_ms>
        <roll>-0.0279252678</roll>
        <pitch>-0.0750491545</pitch>
        <yaw>2.268928</yaw>
        <rollspeed>0</rollspeed>
        <pitchspeed>0</pitchspeed>
        <yawspeed>0</yawspeed>
      </mission_attitude>
    </posture>
    <posture>
      <time>2017-02-21T15:18:12.2438858+08:00</time>
      <mission_attitude>
        <time_boot_ms>806940000</time_boot_ms>
        <roll>-0.0279252678</roll>
        <pitch>-0.0750491545</pitch>
        <yaw>2.16420817</yaw>
        <rollspeed>0</rollspeed>
        <pitchspeed>0</pitchspeed>
        <yawspeed>0</yawspeed>
      </mission_attitude>
    </posture>
    <posture>
      <time>2017-02-21T15:18:13.2429429+08:00</time>
      <mission_attitude>
        <time_boot_ms>807920000</time_boot_ms>
        <roll>-0.0279252678</roll>
        <pitch>-0.0750491545</pitch>
        <yaw>2.216568</yaw>
        <rollspeed>0</rollspeed>
        <pitchspeed>0</pitchspeed>
        <yawspeed>0</yawspeed>
      </mission_attitude>
    </posture>
    <posture>
      <time>2017-02-21T15:18:14.2430001+08:00</time>
      <mission_attitude>
        <time_boot_ms>808920000</time_boot_ms>
        <roll>-0.0279252678</roll>
        <pitch>-0.0750491545</pitch>
        <yaw>2.32128787</yaw>
        <rollspeed>0</rollspeed>
        <pitchspeed>0</pitchspeed>
        <yawspeed>0</yawspeed>
      </mission_attitude>
    </posture>
    <posture>
      <time>2017-02-21T15:18:15.2430573+08:00</time>
      <mission_attitude>
        <time_boot_ms>809900000</time_boot_ms>
        <roll>-0.0279252678</roll>
        <pitch>-0.0750491545</pitch>
        <yaw>2.37364769</yaw>
        <rollspeed>0</rollspeed>
        <pitchspeed>0</pitchspeed>
        <yawspeed>0</yawspeed>
      </mission_attitude>
    </posture>
    <posture>
      <time>2017-02-21T15:18:17.5431889+08:00</time>
      <mission_attitude>
        <time_boot_ms>812220000</time_boot_ms>
        <roll>-0.0279252678</roll>
        <pitch>-0.0750491545</pitch>
        <yaw>2.18166161</yaw>
        <rollspeed>0</rollspeed>
        <pitchspeed>0</pitchspeed>
        <yawspeed>0</yawspeed>
      </mission_attitude>
    </posture>
    <posture>
      <time>2017-02-21T15:18:18.5932489+08:00</time>
      <mission_attitude>
        <time_boot_ms>813220000</time_boot_ms>
        <roll>-0.0279252678</roll>
        <pitch>-0.0750491545</pitch>
        <yaw>2.216568</yaw>
        <rollspeed>0</rollspeed>
        <pitchspeed>0</pitchspeed>
        <yawspeed>0</yawspeed>
      </mission_attitude>
    </posture>
    <posture>
      <time>2017-02-21T15:18:19.5433033+08:00</time>
      <mission_attitude>
        <time_boot_ms>814220000</time_boot_ms>
        <roll>-0.0279252678</roll>
        <pitch>-0.0750491545</pitch>
        <yaw>2.28638124</yaw>
        <rollspeed>0</rollspeed>
        <pitchspeed>0</pitchspeed>
        <yawspeed>0</yawspeed>
      </mission_attitude>
    </posture>
    <posture>
      <time>2017-02-21T15:18:23.3935235+08:00</time>
      <mission_attitude>
        <time_boot_ms>818040000</time_boot_ms>
        <roll>-0.0279252678</roll>
        <pitch>-0.0750491545</pitch>
        <yaw>2.25147462</yaw>
        <rollspeed>0</rollspeed>
        <pitchspeed>0</pitchspeed>
        <yawspeed>0</yawspeed>
      </mission_attitude>
    </posture>
    <posture>
      <time>2017-02-21T15:18:27.0437323+08:00</time>
      <mission_attitude>
        <time_boot_ms>821660000</time_boot_ms>
        <roll>-0.0279252678</roll>
        <pitch>-0.0750491545</pitch>
        <yaw>2.28638124</yaw>
        <rollspeed>0</rollspeed>
        <pitchspeed>0</pitchspeed>
        <yawspeed>0</yawspeed>
      </mission_attitude>
    </posture>
    <posture>
      <time>2017-02-21T15:18:30.8929524+08:00</time>
      <mission_attitude>
        <time_boot_ms>825520000</time_boot_ms>
        <roll>-0.0279252678</roll>
        <pitch>-0.0750491545</pitch>
        <yaw>2.28638124</yaw>
        <rollspeed>0</rollspeed>
        <pitchspeed>0</pitchspeed>
        <yawspeed>0</yawspeed>
      </mission_attitude>
    </posture>
    <posture>
      <time>2017-02-21T15:18:31.9430125+08:00</time>
      <mission_attitude>
        <time_boot_ms>826520000</time_boot_ms>
        <roll>-0.0279252678</roll>
        <pitch>-0.0750491545</pitch>
        <yaw>2.1991148</yaw>
        <rollspeed>0</rollspeed>
        <pitchspeed>0</pitchspeed>
        <yawspeed>0</yawspeed>
      </mission_attitude>
    </posture>
    <posture>
      <time>2017-02-21T15:18:32.9930726+08:00</time>
      <mission_attitude>
        <time_boot_ms>827560000</time_boot_ms>
        <roll>-0.01919862</roll>
        <pitch>-0.0750491545</pitch>
        <yaw>2.23402143</yaw>
        <rollspeed>0.0523598753</rollspeed>
        <pitchspeed>0</pitchspeed>
        <yawspeed>0</yawspeed>
      </mission_attitude>
    </posture>
    <posture>
      <time>2017-02-21T15:18:35.8932384+08:00</time>
      <mission_attitude>
        <time_boot_ms>830440000</time_boot_ms>
        <roll>-0.02443461</roll>
        <pitch>-0.07679448</pitch>
        <yaw>2.12930155</yaw>
        <rollspeed>0</rollspeed>
        <pitchspeed>0</pitchspeed>
        <yawspeed>0</yawspeed>
      </mission_attitude>
    </posture>
    <posture>
      <time>2017-02-21T15:18:36.8932956+08:00</time>
      <mission_attitude>
        <time_boot_ms>831480000</time_boot_ms>
        <roll>-0.02443461</roll>
        <pitch>-0.07679448</pitch>
        <yaw>2.28638124</yaw>
        <rollspeed>0</rollspeed>
        <pitchspeed>0</pitchspeed>
        <yawspeed>0</yawspeed>
      </mission_attitude>
    </posture>
    <posture>
      <time>2017-02-21T15:18:37.9433557+08:00</time>
      <mission_attitude>
        <time_boot_ms>832500000</time_boot_ms>
        <roll>-0.02443461</roll>
        <pitch>-0.07679448</pitch>
        <yaw>2.1991148</yaw>
        <rollspeed>0</rollspeed>
        <pitchspeed>0</pitchspeed>
        <yawspeed>0</yawspeed>
      </mission_attitude>
    </posture>
    <posture>
      <time>2017-02-21T15:18:39.5434472+08:00</time>
      <mission_attitude>
        <time_boot_ms>834080000</time_boot_ms>
        <roll>-0.02443461</roll>
        <pitch>-0.07679448</pitch>
        <yaw>2.1991148</yaw>
        <rollspeed>0</rollspeed>
        <pitchspeed>0</pitchspeed>
        <yawspeed>0</yawspeed>
      </mission_attitude>
    </posture>
    <posture>
      <time>2017-02-21T15:18:40.5435044+08:00</time>
      <mission_attitude>
        <time_boot_ms>835080000</time_boot_ms>
        <roll>-0.02443461</roll>
        <pitch>-0.07679448</pitch>
        <yaw>2.23402143</yaw>
        <rollspeed>0</rollspeed>
        <pitchspeed>0</pitchspeed>
        <yawspeed>0</yawspeed>
      </mission_attitude>
    </posture>
    <posture>
      <time>2017-02-21T15:18:41.6435673+08:00</time>
      <mission_attitude>
        <time_boot_ms>836120000</time_boot_ms>
        <roll>-0.02443461</roll>
        <pitch>-0.07679448</pitch>
        <yaw>2.23402143</yaw>
        <rollspeed>0</rollspeed>
        <pitchspeed>0</pitchspeed>
        <yawspeed>0</yawspeed>
      </mission_attitude>
    </posture>
    <posture>
      <time>2017-02-21T15:18:42.6436245+08:00</time>
      <mission_attitude>
        <time_boot_ms>837100000</time_boot_ms>
        <roll>-0.02443461</roll>
        <pitch>-0.07679448</pitch>
        <yaw>2.28638124</yaw>
        <rollspeed>0</rollspeed>
        <pitchspeed>0</pitchspeed>
        <yawspeed>0</yawspeed>
      </mission_attitude>
    </posture>
    <posture>
      <time>2017-02-21T15:18:43.893696+08:00</time>
      <mission_attitude>
        <time_boot_ms>838380000</time_boot_ms>
        <roll>-0.02443461</roll>
        <pitch>-0.07679448</pitch>
        <yaw>2.268928</yaw>
        <rollspeed>0</rollspeed>
        <pitchspeed>0</pitchspeed>
        <yawspeed>0</yawspeed>
      </mission_attitude>
    </posture>
    <posture>
      <time>2017-02-21T15:18:44.8437504+08:00</time>
      <mission_attitude>
        <time_boot_ms>839400000</time_boot_ms>
        <roll>-0.02443461</roll>
        <pitch>-0.07679448</pitch>
        <yaw>2.16420817</yaw>
        <rollspeed>0</rollspeed>
        <pitchspeed>0</pitchspeed>
        <yawspeed>0</yawspeed>
      </mission_attitude>
    </posture>
    <posture>
      <time>2017-02-21T15:18:45.8938104+08:00</time>
      <mission_attitude>
        <time_boot_ms>840420000</time_boot_ms>
        <roll>-0.02443461</roll>
        <pitch>-0.07679448</pitch>
        <yaw>2.216568</yaw>
        <rollspeed>0</rollspeed>
        <pitchspeed>0</pitchspeed>
        <yawspeed>0</yawspeed>
      </mission_attitude>
    </posture>
    <posture>
      <time>2017-02-21T15:18:46.9438705+08:00</time>
      <mission_attitude>
        <time_boot_ms>841440000</time_boot_ms>
        <roll>-0.02443461</roll>
        <pitch>-0.07679448</pitch>
        <yaw>2.146755</yaw>
        <rollspeed>0</rollspeed>
        <pitchspeed>0</pitchspeed>
        <yawspeed>0</yawspeed>
      </mission_attitude>
    </posture>
    <posture>
      <time>2017-02-21T15:18:47.9439277+08:00</time>
      <mission_attitude>
        <time_boot_ms>842440000</time_boot_ms>
        <roll>-0.02443461</roll>
        <pitch>-0.07679448</pitch>
        <yaw>2.1991148</yaw>
        <rollspeed>0</rollspeed>
        <pitchspeed>0</pitchspeed>
        <yawspeed>0</yawspeed>
      </mission_attitude>
    </posture>
    <posture>
      <time>2017-02-21T15:18:50.3430649+08:00</time>
      <mission_attitude>
        <time_boot_ms>844820000</time_boot_ms>
        <roll>-0.02443461</roll>
        <pitch>-0.07679448</pitch>
        <yaw>2.1991148</yaw>
        <rollspeed>0</rollspeed>
        <pitchspeed>0</pitchspeed>
        <yawspeed>0</yawspeed>
      </mission_attitude>
    </posture>
    <posture>
      <time>2017-02-21T15:18:51.3431221+08:00</time>
      <mission_attitude>
        <time_boot_ms>845840000</time_boot_ms>
        <roll>-0.02443461</roll>
        <pitch>-0.07679448</pitch>
        <yaw>2.1991148</yaw>
        <rollspeed>0</rollspeed>
        <pitchspeed>0</pitchspeed>
        <yawspeed>0</yawspeed>
      </mission_attitude>
    </posture>
    <posture>
      <time>2017-02-21T15:18:52.443185+08:00</time>
      <mission_attitude>
        <time_boot_ms>846860000</time_boot_ms>
        <roll>-0.02443461</roll>
        <pitch>-0.07679448</pitch>
        <yaw>2.216568</yaw>
        <rollspeed>0</rollspeed>
        <pitchspeed>0</pitchspeed>
        <yawspeed>0</yawspeed>
      </mission_attitude>
    </posture>
    <posture>
      <time>2017-02-21T15:18:53.3432365+08:00</time>
      <mission_attitude>
        <time_boot_ms>847840000</time_boot_ms>
        <roll>-0.02443461</roll>
        <pitch>-0.07679448</pitch>
        <yaw>2.28638124</yaw>
        <rollspeed>0</rollspeed>
        <pitchspeed>0</pitchspeed>
        <yawspeed>0</yawspeed>
      </mission_attitude>
    </posture>
    <posture>
      <time>2017-02-21T15:18:54.3432937+08:00</time>
      <mission_attitude>
        <time_boot_ms>848820000</time_boot_ms>
        <roll>-0.02443461</roll>
        <pitch>-0.07679448</pitch>
        <yaw>2.25147462</yaw>
        <rollspeed>0</rollspeed>
        <pitchspeed>0</pitchspeed>
        <yawspeed>0</yawspeed>
      </mission_attitude>
    </posture>
    <posture>
      <time>2017-02-21T15:18:56.6434253+08:00</time>
      <mission_attitude>
        <time_boot_ms>851040000</time_boot_ms>
        <roll>-0.02443461</roll>
        <pitch>-0.07679448</pitch>
        <yaw>2.268928</yaw>
        <rollspeed>0</rollspeed>
        <pitchspeed>0</pitchspeed>
        <yawspeed>0</yawspeed>
      </mission_attitude>
    </posture>
    <posture>
      <time>2017-02-21T15:18:57.6434825+08:00</time>
      <mission_attitude>
        <time_boot_ms>852040000</time_boot_ms>
        <roll>-0.02443461</roll>
        <pitch>-0.07679448</pitch>
        <yaw>2.268928</yaw>
        <rollspeed>0</rollspeed>
        <pitchspeed>0</pitchspeed>
        <yawspeed>0</yawspeed>
      </mission_attitude>
    </posture>
    <posture>
      <time>2017-02-21T15:18:58.6435397+08:00</time>
      <mission_attitude>
        <time_boot_ms>853080000</time_boot_ms>
        <roll>-0.02443461</roll>
        <pitch>-0.07679448</pitch>
        <yaw>2.25147462</yaw>
        <rollspeed>0</rollspeed>
        <pitchspeed>0</pitchspeed>
        <yawspeed>0</yawspeed>
      </mission_attitude>
    </posture>
    <posture>
      <time>2017-02-21T15:18:59.6935997+08:00</time>
      <mission_attitude>
        <time_boot_ms>854100000</time_boot_ms>
        <roll>-0.02443461</roll>
        <pitch>-0.07679448</pitch>
        <yaw>2.1991148</yaw>
        <rollspeed>-0.0174532924</rollspeed>
        <pitchspeed>0</pitchspeed>
        <yawspeed>0</yawspeed>
      </mission_attitude>
    </posture>
    <posture>
      <time>2017-02-21T15:19:00.8436655+08:00</time>
      <mission_attitude>
        <time_boot_ms>855320000</time_boot_ms>
        <roll>-0.02443461</roll>
        <pitch>-0.07679448</pitch>
        <yaw>2.1991148</yaw>
        <rollspeed>0</rollspeed>
        <pitchspeed>0</pitchspeed>
        <yawspeed>0</yawspeed>
      </mission_attitude>
    </posture>
    <posture>
      <time>2017-02-21T15:19:01.9437284+08:00</time>
      <mission_attitude>
        <time_boot_ms>856360000</time_boot_ms>
        <roll>-0.02443461</roll>
        <pitch>-0.07679448</pitch>
        <yaw>2.16420817</yaw>
        <rollspeed>0</rollspeed>
        <pitchspeed>0</pitchspeed>
        <yawspeed>0</yawspeed>
      </mission_attitude>
    </posture>
    <posture>
      <time>2017-02-21T15:19:02.9437856+08:00</time>
      <mission_attitude>
        <time_boot_ms>857360000</time_boot_ms>
        <roll>-0.02443461</roll>
        <pitch>-0.07679448</pitch>
        <yaw>2.25147462</yaw>
        <rollspeed>0</rollspeed>
        <pitchspeed>0</pitchspeed>
        <yawspeed>0</yawspeed>
      </mission_attitude>
    </posture>
    <posture>
      <time>2017-02-21T15:19:03.9438428+08:00</time>
      <mission_attitude>
        <time_boot_ms>858380000</time_boot_ms>
        <roll>-0.02443461</roll>
        <pitch>-0.07679448</pitch>
        <yaw>2.25147462</yaw>
        <rollspeed>0</rollspeed>
        <pitchspeed>0</pitchspeed>
        <yawspeed>0</yawspeed>
      </mission_attitude>
    </posture>
    <posture>
      <time>2017-02-21T15:19:04.9939029+08:00</time>
      <mission_attitude>
        <time_boot_ms>859380000</time_boot_ms>
        <roll>-0.02443461</roll>
        <pitch>-0.07679448</pitch>
        <yaw>2.216568</yaw>
        <rollspeed>0</rollspeed>
        <pitchspeed>0</pitchspeed>
        <yawspeed>0</yawspeed>
      </mission_attitude>
    </posture>
    <posture>
      <time>2017-02-21T15:19:06.2429743+08:00</time>
      <mission_attitude>
        <time_boot_ms>860660000</time_boot_ms>
        <roll>-0.02443461</roll>
        <pitch>-0.07679448</pitch>
        <yaw>2.23402143</yaw>
        <rollspeed>0</rollspeed>
        <pitchspeed>0</pitchspeed>
        <yawspeed>0</yawspeed>
      </mission_attitude>
    </posture>
    <posture>
      <time>2017-02-21T15:19:07.2930344+08:00</time>
      <mission_attitude>
        <time_boot_ms>861680000</time_boot_ms>
        <roll>-0.02443461</roll>
        <pitch>-0.07679448</pitch>
        <yaw>2.16420817</yaw>
        <rollspeed>0</rollspeed>
        <pitchspeed>0</pitchspeed>
        <yawspeed>0</yawspeed>
      </mission_attitude>
    </posture>
    <posture>
      <time>2017-02-21T15:19:08.2430887+08:00</time>
      <mission_attitude>
        <time_boot_ms>862680000</time_boot_ms>
        <roll>-0.02443461</roll>
        <pitch>-0.07679448</pitch>
        <yaw>2.23402143</yaw>
        <rollspeed>0</rollspeed>
        <pitchspeed>0</pitchspeed>
        <yawspeed>0</yawspeed>
      </mission_attitude>
    </posture>
    <posture>
      <time>2017-02-21T15:19:09.2931488+08:00</time>
      <mission_attitude>
        <time_boot_ms>863720000</time_boot_ms>
        <roll>-0.02443461</roll>
        <pitch>-0.07679448</pitch>
        <yaw>2.25147462</yaw>
        <rollspeed>0</rollspeed>
        <pitchspeed>0</pitchspeed>
        <yawspeed>0</yawspeed>
      </mission_attitude>
    </posture>
    <posture>
      <time>2017-02-21T15:19:10.293206+08:00</time>
      <mission_attitude>
        <time_boot_ms>864700000</time_boot_ms>
        <roll>-0.02443461</roll>
        <pitch>-0.07679448</pitch>
        <yaw>2.23402143</yaw>
        <rollspeed>0</rollspeed>
        <pitchspeed>0</pitchspeed>
        <yawspeed>0</yawspeed>
      </mission_attitude>
    </posture>
    <posture>
      <time>2017-02-21T15:19:11.3432661+08:00</time>
      <mission_attitude>
        <time_boot_ms>865720000</time_boot_ms>
        <roll>-0.02443461</roll>
        <pitch>-0.07679448</pitch>
        <yaw>2.23402143</yaw>
        <rollspeed>0</rollspeed>
        <pitchspeed>0</pitchspeed>
        <yawspeed>0</yawspeed>
      </mission_attitude>
    </posture>
    <posture>
      <time>2017-02-21T15:19:12.443329+08:00</time>
      <mission_attitude>
        <time_boot_ms>866740000</time_boot_ms>
        <roll>-0.02443461</roll>
        <pitch>-0.07679448</pitch>
        <yaw>2.32128787</yaw>
        <rollspeed>0</rollspeed>
        <pitchspeed>0</pitchspeed>
        <yawspeed>0</yawspeed>
      </mission_attitude>
    </posture>
    <posture>
      <time>2017-02-21T15:19:14.3434377+08:00</time>
      <mission_attitude>
        <time_boot_ms>868720000</time_boot_ms>
        <roll>-0.02443461</roll>
        <pitch>-0.07679448</pitch>
        <yaw>2.1991148</yaw>
        <rollspeed>0</rollspeed>
        <pitchspeed>0</pitchspeed>
        <yawspeed>0</yawspeed>
      </mission_attitude>
    </posture>
    <posture>
      <time>2017-02-21T15:19:15.4435006+08:00</time>
      <mission_attitude>
        <time_boot_ms>869760000</time_boot_ms>
        <roll>-0.02443461</roll>
        <pitch>-0.07679448</pitch>
        <yaw>2.25147462</yaw>
        <rollspeed>0</rollspeed>
        <pitchspeed>0</pitchspeed>
        <yawspeed>0</yawspeed>
      </mission_attitude>
    </posture>
    <posture>
      <time>2017-02-21T15:19:16.3935549+08:00</time>
      <mission_attitude>
        <time_boot_ms>870760000</time_boot_ms>
        <roll>-0.02443461</roll>
        <pitch>-0.07679448</pitch>
        <yaw>2.18166161</yaw>
        <rollspeed>0</rollspeed>
        <pitchspeed>0</pitchspeed>
        <yawspeed>0</yawspeed>
      </mission_attitude>
    </posture>
    <posture>
      <time>2017-02-21T15:19:17.443615+08:00</time>
      <mission_attitude>
        <time_boot_ms>871780000</time_boot_ms>
        <roll>-0.02443461</roll>
        <pitch>-0.07679448</pitch>
        <yaw>2.30383468</yaw>
        <rollspeed>0</rollspeed>
        <pitchspeed>0</pitchspeed>
        <yawspeed>0</yawspeed>
      </mission_attitude>
    </posture>
    <posture>
      <time>2017-02-21T15:19:21.6438552+08:00</time>
      <mission_attitude>
        <time_boot_ms>875900000</time_boot_ms>
        <roll>-0.02443461</roll>
        <pitch>-0.07679448</pitch>
        <yaw>2.25147462</yaw>
        <rollspeed>0</rollspeed>
        <pitchspeed>0</pitchspeed>
        <yawspeed>0</yawspeed>
      </mission_attitude>
    </posture>
    <posture>
      <time>2017-02-21T15:19:24.6430268+08:00</time>
      <mission_attitude>
        <time_boot_ms>878880000</time_boot_ms>
        <roll>-0.02443461</roll>
        <pitch>-0.07679448</pitch>
        <yaw>2.216568</yaw>
        <rollspeed>0</rollspeed>
        <pitchspeed>0</pitchspeed>
        <yawspeed>0</yawspeed>
      </mission_attitude>
    </posture>
    <posture>
      <time>2017-02-21T15:19:26.6431412+08:00</time>
      <mission_attitude>
        <time_boot_ms>880880000</time_boot_ms>
        <roll>-0.02443461</roll>
        <pitch>-0.07679448</pitch>
        <yaw>2.16420817</yaw>
        <rollspeed>0</rollspeed>
        <pitchspeed>0</pitchspeed>
        <yawspeed>0</yawspeed>
      </mission_attitude>
    </posture>
    <posture>
      <time>2017-02-21T15:19:29.6433128+08:00</time>
      <mission_attitude>
        <time_boot_ms>883860000</time_boot_ms>
        <roll>-0.02443461</roll>
        <pitch>-0.07679448</pitch>
        <yaw>2.1991148</yaw>
        <rollspeed>0</rollspeed>
        <pitchspeed>0</pitchspeed>
        <yawspeed>0</yawspeed>
      </mission_attitude>
    </posture>
    <posture>
      <time>2017-02-21T15:19:30.5933671+08:00</time>
      <mission_attitude>
        <time_boot_ms>884860000</time_boot_ms>
        <roll>-0.02443461</roll>
        <pitch>-0.07679448</pitch>
        <yaw>2.25147462</yaw>
        <rollspeed>0</rollspeed>
        <pitchspeed>0</pitchspeed>
        <yawspeed>0</yawspeed>
      </mission_attitude>
    </posture>
    <posture>
      <time>2017-02-21T15:19:31.6434272+08:00</time>
      <mission_attitude>
        <time_boot_ms>885860000</time_boot_ms>
        <roll>-0.02443461</roll>
        <pitch>-0.07679448</pitch>
        <yaw>2.32128787</yaw>
        <rollspeed>0</rollspeed>
        <pitchspeed>0</pitchspeed>
        <yawspeed>0</yawspeed>
      </mission_attitude>
    </posture>
    <posture>
      <time>2017-02-21T15:19:34.6435988+08:00</time>
      <mission_attitude>
        <time_boot_ms>888860000</time_boot_ms>
        <roll>-0.02443461</roll>
        <pitch>-0.07679448</pitch>
        <yaw>2.1991148</yaw>
        <rollspeed>0</rollspeed>
        <pitchspeed>0</pitchspeed>
        <yawspeed>0</yawspeed>
      </mission_attitude>
    </posture>
    <posture>
      <time>2017-02-21T15:19:35.643656+08:00</time>
      <mission_attitude>
        <time_boot_ms>889900000</time_boot_ms>
        <roll>-0.02443461</roll>
        <pitch>-0.07679448</pitch>
        <yaw>2.216568</yaw>
        <rollspeed>0</rollspeed>
        <pitchspeed>0</pitchspeed>
        <yawspeed>0</yawspeed>
      </mission_attitude>
    </posture>
    <posture>
      <time>2017-02-21T15:19:36.693716+08:00</time>
      <mission_attitude>
        <time_boot_ms>890900000</time_boot_ms>
        <roll>-0.02443461</roll>
        <pitch>-0.07679448</pitch>
        <yaw>2.216568</yaw>
        <rollspeed>0</rollspeed>
        <pitchspeed>0</pitchspeed>
        <yawspeed>0</yawspeed>
      </mission_attitude>
    </posture>
    <posture>
      <time>2017-02-21T15:19:37.6437704+08:00</time>
      <mission_attitude>
        <time_boot_ms>891880000</time_boot_ms>
        <roll>-0.02443461</roll>
        <pitch>-0.07679448</pitch>
        <yaw>2.216568</yaw>
        <rollspeed>0</rollspeed>
        <pitchspeed>0</pitchspeed>
        <yawspeed>0</yawspeed>
      </mission_attitude>
    </posture>
    <posture>
      <time>2017-02-21T15:19:38.6438276+08:00</time>
      <mission_attitude>
        <time_boot_ms>892860000</time_boot_ms>
        <roll>-0.02443461</roll>
        <pitch>-0.07679448</pitch>
        <yaw>2.1991148</yaw>
        <rollspeed>0</rollspeed>
        <pitchspeed>0</pitchspeed>
        <yawspeed>0</yawspeed>
      </mission_attitude>
    </posture>
    <posture>
      <time>2017-02-21T15:19:39.6938876+08:00</time>
      <mission_attitude>
        <time_boot_ms>893880000</time_boot_ms>
        <roll>-0.02443461</roll>
        <pitch>-0.07679448</pitch>
        <yaw>2.23402143</yaw>
        <rollspeed>0</rollspeed>
        <pitchspeed>0</pitchspeed>
        <yawspeed>0</yawspeed>
      </mission_attitude>
    </posture>
    <posture>
      <time>2017-02-21T15:19:42.4430449+08:00</time>
      <mission_attitude>
        <time_boot_ms>896620000</time_boot_ms>
        <roll>-0.02443461</roll>
        <pitch>-0.07679448</pitch>
        <yaw>2.23402143</yaw>
        <rollspeed>0</rollspeed>
        <pitchspeed>0</pitchspeed>
        <yawspeed>0</yawspeed>
      </mission_attitude>
    </posture>
    <posture>
      <time>2017-02-21T15:19:43.4431021+08:00</time>
      <mission_attitude>
        <time_boot_ms>897620000</time_boot_ms>
        <roll>-0.02443461</roll>
        <pitch>-0.07679448</pitch>
        <yaw>2.216568</yaw>
        <rollspeed>0</rollspeed>
        <pitchspeed>0</pitchspeed>
        <yawspeed>0</yawspeed>
      </mission_attitude>
    </posture>
    <posture>
      <time>2017-02-21T15:19:44.4431593+08:00</time>
      <mission_attitude>
        <time_boot_ms>898620000</time_boot_ms>
        <roll>-0.02443461</roll>
        <pitch>-0.07679448</pitch>
        <yaw>2.1991148</yaw>
        <rollspeed>0</rollspeed>
        <pitchspeed>0</pitchspeed>
        <yawspeed>0</yawspeed>
      </mission_attitude>
    </posture>
    <posture>
      <time>2017-02-21T15:19:45.4432165+08:00</time>
      <mission_attitude>
        <time_boot_ms>899640000</time_boot_ms>
        <roll>-0.02443461</roll>
        <pitch>-0.07679448</pitch>
        <yaw>2.25147462</yaw>
        <rollspeed>0</rollspeed>
        <pitchspeed>0</pitchspeed>
        <yawspeed>0</yawspeed>
      </mission_attitude>
    </posture>
    <posture>
      <time>2017-02-21T15:19:46.7932937+08:00</time>
      <mission_attitude>
        <time_boot_ms>900900000</time_boot_ms>
        <roll>-0.02443461</roll>
        <pitch>-0.07679448</pitch>
        <yaw>2.146755</yaw>
        <rollspeed>0</rollspeed>
        <pitchspeed>0</pitchspeed>
        <yawspeed>0</yawspeed>
      </mission_attitude>
    </posture>
    <posture>
      <time>2017-02-21T15:19:47.6933452+08:00</time>
      <mission_attitude>
        <time_boot_ms>901900000</time_boot_ms>
        <roll>-0.02443461</roll>
        <pitch>-0.07679448</pitch>
        <yaw>2.07694173</yaw>
        <rollspeed>0</rollspeed>
        <pitchspeed>0</pitchspeed>
        <yawspeed>0</yawspeed>
      </mission_attitude>
    </posture>
    <posture>
      <time>2017-02-21T15:19:48.7934081+08:00</time>
      <mission_attitude>
        <time_boot_ms>902940000</time_boot_ms>
        <roll>-0.02443461</roll>
        <pitch>-0.07679448</pitch>
        <yaw>2.25147462</yaw>
        <rollspeed>0</rollspeed>
        <pitchspeed>0</pitchspeed>
        <yawspeed>0</yawspeed>
      </mission_attitude>
    </posture>
    <posture>
      <time>2017-02-21T15:19:49.7434624+08:00</time>
      <mission_attitude>
        <time_boot_ms>903920000</time_boot_ms>
        <roll>-0.02443461</roll>
        <pitch>-0.07679448</pitch>
        <yaw>2.216568</yaw>
        <rollspeed>0</rollspeed>
        <pitchspeed>0</pitchspeed>
        <yawspeed>0</yawspeed>
      </mission_attitude>
    </posture>
    <posture>
      <time>2017-02-21T15:19:50.7435196+08:00</time>
      <mission_attitude>
        <time_boot_ms>904960000</time_boot_ms>
        <roll>-0.02443461</roll>
        <pitch>-0.07679448</pitch>
        <yaw>2.23402143</yaw>
        <rollspeed>0</rollspeed>
        <pitchspeed>0</pitchspeed>
        <yawspeed>0</yawspeed>
      </mission_attitude>
    </posture>
    <posture>
      <time>2017-02-21T15:19:52.043594+08:00</time>
      <mission_attitude>
        <time_boot_ms>906220000</time_boot_ms>
        <roll>-0.02443461</roll>
        <pitch>-0.07679448</pitch>
        <yaw>2.23402143</yaw>
        <rollspeed>0</rollspeed>
        <pitchspeed>0</pitchspeed>
        <yawspeed>0</yawspeed>
      </mission_attitude>
    </posture>
    <posture>
      <time>2017-02-21T15:19:53.0436512+08:00</time>
      <mission_attitude>
        <time_boot_ms>907220000</time_boot_ms>
        <roll>-0.02443461</roll>
        <pitch>-0.07679448</pitch>
        <yaw>2.12930155</yaw>
        <rollspeed>0</rollspeed>
        <pitchspeed>0</pitchspeed>
        <yawspeed>0</yawspeed>
      </mission_attitude>
    </posture>
    <posture>
      <time>2017-02-21T15:19:54.0437084+08:00</time>
      <mission_attitude>
        <time_boot_ms>908220000</time_boot_ms>
        <roll>-0.02443461</roll>
        <pitch>-0.07679448</pitch>
        <yaw>2.25147462</yaw>
        <rollspeed>0</rollspeed>
        <pitchspeed>0</pitchspeed>
        <yawspeed>0</yawspeed>
      </mission_attitude>
    </posture>
    <posture>
      <time>2017-02-21T15:19:55.0437656+08:00</time>
      <mission_attitude>
        <time_boot_ms>909220000</time_boot_ms>
        <roll>-0.02443461</roll>
        <pitch>-0.07679448</pitch>
        <yaw>2.18166161</yaw>
        <rollspeed>0</rollspeed>
        <pitchspeed>0</pitchspeed>
        <yawspeed>0</yawspeed>
      </mission_attitude>
    </posture>
    <posture>
      <time>2017-02-21T15:19:56.0438228+08:00</time>
      <mission_attitude>
        <time_boot_ms>910220000</time_boot_ms>
        <roll>-0.02443461</roll>
        <pitch>-0.07679448</pitch>
        <yaw>2.28638124</yaw>
        <rollspeed>0</rollspeed>
        <pitchspeed>0</pitchspeed>
        <yawspeed>0</yawspeed>
      </mission_attitude>
    </posture>
    <posture>
      <time>2017-02-21T15:19:57.04388+08:00</time>
      <mission_attitude>
        <time_boot_ms>911220000</time_boot_ms>
        <roll>-0.02443461</roll>
        <pitch>-0.07679448</pitch>
        <yaw>2.25147462</yaw>
        <rollspeed>0</rollspeed>
        <pitchspeed>0</pitchspeed>
        <yawspeed>0</yawspeed>
      </mission_attitude>
    </posture>
    <posture>
      <time>2017-02-21T15:19:58.09294+08:00</time>
      <mission_attitude>
        <time_boot_ms>912240000</time_boot_ms>
        <roll>-0.02443461</roll>
        <pitch>-0.07679448</pitch>
        <yaw>2.216568</yaw>
        <rollspeed>0</rollspeed>
        <pitchspeed>0</pitchspeed>
        <yawspeed>0</yawspeed>
      </mission_attitude>
    </posture>
    <posture>
      <time>2017-02-21T15:20:00.243063+08:00</time>
      <mission_attitude>
        <time_boot_ms>914360000</time_boot_ms>
        <roll>-0.02443461</roll>
        <pitch>-0.07679448</pitch>
        <yaw>2.268928</yaw>
        <rollspeed>0</rollspeed>
        <pitchspeed>0</pitchspeed>
        <yawspeed>0</yawspeed>
      </mission_attitude>
    </posture>
    <posture>
      <time>2017-02-21T15:20:01.2431202+08:00</time>
      <mission_attitude>
        <time_boot_ms>915380000</time_boot_ms>
        <roll>-0.02443461</roll>
        <pitch>-0.07679448</pitch>
        <yaw>2.32128787</yaw>
        <rollspeed>0</rollspeed>
        <pitchspeed>0</pitchspeed>
        <yawspeed>0</yawspeed>
      </mission_attitude>
    </posture>
    <posture>
      <time>2017-02-21T15:20:02.2431774+08:00</time>
      <mission_attitude>
        <time_boot_ms>916400000</time_boot_ms>
        <roll>-0.02443461</roll>
        <pitch>-0.07679448</pitch>
        <yaw>2.25147462</yaw>
        <rollspeed>0</rollspeed>
        <pitchspeed>0</pitchspeed>
        <yawspeed>0</yawspeed>
      </mission_attitude>
    </posture>
    <posture>
      <time>2017-02-21T15:20:03.2932374+08:00</time>
      <mission_attitude>
        <time_boot_ms>917440000</time_boot_ms>
        <roll>-0.02443461</roll>
        <pitch>-0.07679448</pitch>
        <yaw>2.1991148</yaw>
        <rollspeed>0</rollspeed>
        <pitchspeed>0</pitchspeed>
        <yawspeed>0</yawspeed>
      </mission_attitude>
    </posture>
    <posture>
      <time>2017-02-21T15:20:04.3432975+08:00</time>
      <mission_attitude>
        <time_boot_ms>918460000</time_boot_ms>
        <roll>-0.02443461</roll>
        <pitch>-0.07679448</pitch>
        <yaw>2.16420817</yaw>
        <rollspeed>0</rollspeed>
        <pitchspeed>0</pitchspeed>
        <yawspeed>0</yawspeed>
      </mission_attitude>
    </posture>
    <posture>
      <time>2017-02-21T15:20:06.6434291+08:00</time>
      <mission_attitude>
        <time_boot_ms>920720000</time_boot_ms>
        <roll>-0.02443461</roll>
        <pitch>-0.07679448</pitch>
        <yaw>2.216568</yaw>
        <rollspeed>0</rollspeed>
        <pitchspeed>0</pitchspeed>
        <yawspeed>0</yawspeed>
      </mission_attitude>
    </posture>
    <posture>
      <time>2017-02-21T15:20:07.5934834+08:00</time>
      <mission_attitude>
        <time_boot_ms>921740000</time_boot_ms>
        <roll>-0.02443461</roll>
        <pitch>-0.07679448</pitch>
        <yaw>2.23402143</yaw>
        <rollspeed>0</rollspeed>
        <pitchspeed>0</pitchspeed>
        <yawspeed>0</yawspeed>
      </mission_attitude>
    </posture>
    <posture>
      <time>2017-02-21T15:20:08.6435435+08:00</time>
      <mission_attitude>
        <time_boot_ms>922720000</time_boot_ms>
        <roll>-0.02443461</roll>
        <pitch>-0.07679448</pitch>
        <yaw>2.1991148</yaw>
        <rollspeed>0</rollspeed>
        <pitchspeed>0</pitchspeed>
        <yawspeed>0</yawspeed>
      </mission_attitude>
    </posture>
    <posture>
      <time>2017-02-21T15:20:09.8436121+08:00</time>
      <mission_attitude>
        <time_boot_ms>923940000</time_boot_ms>
        <roll>-0.02443461</roll>
        <pitch>-0.07679448</pitch>
        <yaw>2.18166161</yaw>
        <rollspeed>0</rollspeed>
        <pitchspeed>0</pitchspeed>
        <yawspeed>0</yawspeed>
      </mission_attitude>
    </posture>
    <posture>
      <time>2017-02-21T15:20:10.8936722+08:00</time>
      <mission_attitude>
        <time_boot_ms>924980000</time_boot_ms>
        <roll>-0.02443461</roll>
        <pitch>-0.07679448</pitch>
        <yaw>2.18166161</yaw>
        <rollspeed>0</rollspeed>
        <pitchspeed>0</pitchspeed>
        <yawspeed>0</yawspeed>
      </mission_attitude>
    </posture>
    <posture>
      <time>2017-02-21T15:20:11.8937294+08:00</time>
      <mission_attitude>
        <time_boot_ms>926000000</time_boot_ms>
        <roll>-0.02443461</roll>
        <pitch>-0.07679448</pitch>
        <yaw>2.268928</yaw>
        <rollspeed>0</rollspeed>
        <pitchspeed>0</pitchspeed>
        <yawspeed>0</yawspeed>
      </mission_attitude>
    </posture>
    <posture>
      <time>2017-02-21T15:20:12.8937866+08:00</time>
      <mission_attitude>
        <time_boot_ms>927000000</time_boot_ms>
        <roll>-0.02443461</roll>
        <pitch>-0.07679448</pitch>
        <yaw>2.146755</yaw>
        <rollspeed>0</rollspeed>
        <pitchspeed>0</pitchspeed>
        <yawspeed>0</yawspeed>
      </mission_attitude>
    </posture>
    <posture>
      <time>2017-02-21T15:20:13.9438466+08:00</time>
      <mission_attitude>
        <time_boot_ms>928000000</time_boot_ms>
        <roll>-0.02443461</roll>
        <pitch>-0.07679448</pitch>
        <yaw>2.16420817</yaw>
        <rollspeed>0</rollspeed>
        <pitchspeed>0</pitchspeed>
        <yawspeed>0</yawspeed>
      </mission_attitude>
    </posture>
    <posture>
      <time>2017-02-21T15:20:14.893901+08:00</time>
      <mission_attitude>
        <time_boot_ms>929000000</time_boot_ms>
        <roll>-0.02443461</roll>
        <pitch>-0.07679448</pitch>
        <yaw>2.216568</yaw>
        <rollspeed>0</rollspeed>
        <pitchspeed>0</pitchspeed>
        <yawspeed>0</yawspeed>
      </mission_attitude>
    </posture>
    <posture>
      <time>2017-02-21T15:20:15.942961+08:00</time>
      <mission_attitude>
        <time_boot_ms>930020000</time_boot_ms>
        <roll>-0.02443461</roll>
        <pitch>-0.07679448</pitch>
        <yaw>2.30383468</yaw>
        <rollspeed>0</rollspeed>
        <pitchspeed>0</pitchspeed>
        <yawspeed>0</yawspeed>
      </mission_attitude>
    </posture>
    <posture>
      <time>2017-02-21T15:20:16.993021+08:00</time>
      <mission_attitude>
        <time_boot_ms>931040000</time_boot_ms>
        <roll>-0.02443461</roll>
        <pitch>-0.07679448</pitch>
        <yaw>2.216568</yaw>
        <rollspeed>0</rollspeed>
        <pitchspeed>0</pitchspeed>
        <yawspeed>0</yawspeed>
      </mission_attitude>
    </posture>
    <posture>
      <time>2017-02-21T15:20:17.9930782+08:00</time>
      <mission_attitude>
        <time_boot_ms>932040000</time_boot_ms>
        <roll>-0.02443461</roll>
        <pitch>-0.07679448</pitch>
        <yaw>2.268928</yaw>
        <rollspeed>0</rollspeed>
        <pitchspeed>0</pitchspeed>
        <yawspeed>0</yawspeed>
      </mission_attitude>
    </posture>
    <posture>
      <time>2017-02-21T15:20:18.9931354+08:00</time>
      <mission_attitude>
        <time_boot_ms>933020000</time_boot_ms>
        <roll>-0.02443461</roll>
        <pitch>-0.07679448</pitch>
        <yaw>2.268928</yaw>
        <rollspeed>0</rollspeed>
        <pitchspeed>0</pitchspeed>
        <yawspeed>0</yawspeed>
      </mission_attitude>
    </posture>
    <posture>
      <time>2017-02-21T15:20:19.9431898+08:00</time>
      <mission_attitude>
        <time_boot_ms>934000000</time_boot_ms>
        <roll>-0.02443461</roll>
        <pitch>-0.07679448</pitch>
        <yaw>2.23402143</yaw>
        <rollspeed>0</rollspeed>
        <pitchspeed>0</pitchspeed>
        <yawspeed>0</yawspeed>
      </mission_attitude>
    </posture>
    <posture>
      <time>2017-02-21T15:20:20.943247+08:00</time>
      <mission_attitude>
        <time_boot_ms>934980000</time_boot_ms>
        <roll>-0.02443461</roll>
        <pitch>-0.07679448</pitch>
        <yaw>2.28638124</yaw>
        <rollspeed>0</rollspeed>
        <pitchspeed>0</pitchspeed>
        <yawspeed>0</yawspeed>
      </mission_attitude>
    </posture>
    <posture>
      <time>2017-02-21T15:20:21.993307+08:00</time>
      <mission_attitude>
        <time_boot_ms>936000000</time_boot_ms>
        <roll>-0.02443461</roll>
        <pitch>-0.07679448</pitch>
        <yaw>2.216568</yaw>
        <rollspeed>0</rollspeed>
        <pitchspeed>0</pitchspeed>
        <yawspeed>0</yawspeed>
      </mission_attitude>
    </posture>
    <posture>
      <time>2017-02-21T15:20:22.9933642+08:00</time>
      <mission_attitude>
        <time_boot_ms>937040000</time_boot_ms>
        <roll>-0.02443461</roll>
        <pitch>-0.07679448</pitch>
        <yaw>2.23402143</yaw>
        <rollspeed>0</rollspeed>
        <pitchspeed>0</pitchspeed>
        <yawspeed>0</yawspeed>
      </mission_attitude>
    </posture>
    <posture>
      <time>2017-02-21T15:20:24.0434243+08:00</time>
      <mission_attitude>
        <time_boot_ms>938060000</time_boot_ms>
        <roll>-0.02443461</roll>
        <pitch>-0.07679448</pitch>
        <yaw>2.216568</yaw>
        <rollspeed>0</rollspeed>
        <pitchspeed>0</pitchspeed>
        <yawspeed>0</yawspeed>
      </mission_attitude>
    </posture>
    <posture>
      <time>2017-02-21T15:20:25.0434815+08:00</time>
      <mission_attitude>
        <time_boot_ms>939060000</time_boot_ms>
        <roll>-0.02443461</roll>
        <pitch>-0.07679448</pitch>
        <yaw>2.18166161</yaw>
        <rollspeed>0</rollspeed>
        <pitchspeed>0</pitchspeed>
        <yawspeed>0</yawspeed>
      </mission_attitude>
    </posture>
    <posture>
      <time>2017-02-21T15:20:25.9935358+08:00</time>
      <mission_attitude>
        <time_boot_ms>940040000</time_boot_ms>
        <roll>-0.02443461</roll>
        <pitch>-0.07679448</pitch>
        <yaw>2.25147462</yaw>
        <rollspeed>0</rollspeed>
        <pitchspeed>0</pitchspeed>
        <yawspeed>0</yawspeed>
      </mission_attitude>
    </posture>
    <posture>
      <time>2017-02-21T15:20:27.0435959+08:00</time>
      <mission_attitude>
        <time_boot_ms>941060000</time_boot_ms>
        <roll>-0.02443461</roll>
        <pitch>-0.07679448</pitch>
        <yaw>2.1991148</yaw>
        <rollspeed>0</rollspeed>
        <pitchspeed>0</pitchspeed>
        <yawspeed>0</yawspeed>
      </mission_attitude>
    </posture>
    <posture>
      <time>2017-02-21T15:20:28.0436531+08:00</time>
      <mission_attitude>
        <time_boot_ms>942040000</time_boot_ms>
        <roll>-0.02443461</roll>
        <pitch>-0.07679448</pitch>
        <yaw>2.268928</yaw>
        <rollspeed>0</rollspeed>
        <pitchspeed>0</pitchspeed>
        <yawspeed>0</yawspeed>
      </mission_attitude>
    </posture>
    <posture>
      <time>2017-02-21T15:20:29.0437103+08:00</time>
      <mission_attitude>
        <time_boot_ms>943040000</time_boot_ms>
        <roll>-0.02443461</roll>
        <pitch>-0.07679448</pitch>
        <yaw>2.30383468</yaw>
        <rollspeed>0</rollspeed>
        <pitchspeed>0</pitchspeed>
        <yawspeed>0</yawspeed>
      </mission_attitude>
    </posture>
    <posture>
      <time>2017-02-21T15:20:29.9937646+08:00</time>
      <mission_attitude>
        <time_boot_ms>944020000</time_boot_ms>
        <roll>-0.02443461</roll>
        <pitch>-0.07679448</pitch>
        <yaw>2.28638124</yaw>
        <rollspeed>0</rollspeed>
        <pitchspeed>0</pitchspeed>
        <yawspeed>0</yawspeed>
      </mission_attitude>
    </posture>
    <posture>
      <time>2017-02-21T15:20:30.9938218+08:00</time>
      <mission_attitude>
        <time_boot_ms>945000000</time_boot_ms>
        <roll>-0.02443461</roll>
        <pitch>-0.07679448</pitch>
        <yaw>2.25147462</yaw>
        <rollspeed>0</rollspeed>
        <pitchspeed>0</pitchspeed>
        <yawspeed>0</yawspeed>
      </mission_attitude>
    </posture>
    <posture>
      <time>2017-02-21T15:20:31.993879+08:00</time>
      <mission_attitude>
        <time_boot_ms>945980000</time_boot_ms>
        <roll>-0.02443461</roll>
        <pitch>-0.07679448</pitch>
        <yaw>2.16420817</yaw>
        <rollspeed>0</rollspeed>
        <pitchspeed>0</pitchspeed>
        <yawspeed>0</yawspeed>
      </mission_attitude>
    </posture>
    <posture>
      <time>2017-02-21T15:20:32.9929362+08:00</time>
      <mission_attitude>
        <time_boot_ms>946960000</time_boot_ms>
        <roll>-0.02443461</roll>
        <pitch>-0.07679448</pitch>
        <yaw>2.18166161</yaw>
        <rollspeed>0</rollspeed>
        <pitchspeed>0</pitchspeed>
        <yawspeed>0</yawspeed>
      </mission_attitude>
    </posture>
    <posture>
      <time>2017-02-21T15:20:33.9929934+08:00</time>
      <mission_attitude>
        <time_boot_ms>947940000</time_boot_ms>
        <roll>-0.02443461</roll>
        <pitch>-0.07679448</pitch>
        <yaw>2.1991148</yaw>
        <rollspeed>0</rollspeed>
        <pitchspeed>0</pitchspeed>
        <yawspeed>0</yawspeed>
      </mission_attitude>
    </posture>
    <posture>
      <time>2017-02-21T15:20:34.9930506+08:00</time>
      <mission_attitude>
        <time_boot_ms>948940000</time_boot_ms>
        <roll>-0.02443461</roll>
        <pitch>-0.07679448</pitch>
        <yaw>2.268928</yaw>
        <rollspeed>0</rollspeed>
        <pitchspeed>0</pitchspeed>
        <yawspeed>0</yawspeed>
      </mission_attitude>
    </posture>
    <posture>
      <time>2017-02-21T15:20:35.9931078+08:00</time>
      <mission_attitude>
        <time_boot_ms>949940000</time_boot_ms>
        <roll>-0.02443461</roll>
        <pitch>-0.07679448</pitch>
        <yaw>2.1991148</yaw>
        <rollspeed>0</rollspeed>
        <pitchspeed>0</pitchspeed>
        <yawspeed>0</yawspeed>
      </mission_attitude>
    </posture>
    <posture>
      <time>2017-02-21T15:20:36.993165+08:00</time>
      <mission_attitude>
        <time_boot_ms>950920000</time_boot_ms>
        <roll>-0.02443461</roll>
        <pitch>-0.07679448</pitch>
        <yaw>2.05948853</yaw>
        <rollspeed>0</rollspeed>
        <pitchspeed>0</pitchspeed>
        <yawspeed>0</yawspeed>
      </mission_attitude>
    </posture>
    <posture>
      <time>2017-02-21T15:20:37.9432193+08:00</time>
      <mission_attitude>
        <time_boot_ms>951920000</time_boot_ms>
        <roll>-0.02443461</roll>
        <pitch>-0.07679448</pitch>
        <yaw>2.338741</yaw>
        <rollspeed>0</rollspeed>
        <pitchspeed>0</pitchspeed>
        <yawspeed>0</yawspeed>
      </mission_attitude>
    </posture>
    <posture>
      <time>2017-02-21T15:20:38.9432765+08:00</time>
      <mission_attitude>
        <time_boot_ms>952900000</time_boot_ms>
        <roll>-0.02443461</roll>
        <pitch>-0.07679448</pitch>
        <yaw>2.25147462</yaw>
        <rollspeed>0</rollspeed>
        <pitchspeed>0</pitchspeed>
        <yawspeed>0</yawspeed>
      </mission_attitude>
    </posture>
    <posture>
      <time>2017-02-21T15:20:39.9933366+08:00</time>
      <mission_attitude>
        <time_boot_ms>953900000</time_boot_ms>
        <roll>-0.02443461</roll>
        <pitch>-0.07679448</pitch>
        <yaw>2.30383468</yaw>
        <rollspeed>0</rollspeed>
        <pitchspeed>0</pitchspeed>
        <yawspeed>0</yawspeed>
      </mission_attitude>
    </posture>
    <posture>
      <time>2017-02-21T15:20:40.9433909+08:00</time>
      <mission_attitude>
        <time_boot_ms>954880000</time_boot_ms>
        <roll>-0.02443461</roll>
        <pitch>-0.07679448</pitch>
        <yaw>2.216568</yaw>
        <rollspeed>0</rollspeed>
        <pitchspeed>0</pitchspeed>
        <yawspeed>0</yawspeed>
      </mission_attitude>
    </posture>
    <posture>
      <time>2017-02-21T15:20:41.993451+08:00</time>
      <mission_attitude>
        <time_boot_ms>955900000</time_boot_ms>
        <roll>-0.02443461</roll>
        <pitch>-0.07679448</pitch>
        <yaw>2.216568</yaw>
        <rollspeed>0</rollspeed>
        <pitchspeed>0</pitchspeed>
        <yawspeed>0</yawspeed>
      </mission_attitude>
    </posture>
    <posture>
      <time>2017-02-21T15:20:42.9435053+08:00</time>
      <mission_attitude>
        <time_boot_ms>956880000</time_boot_ms>
        <roll>-0.02443461</roll>
        <pitch>-0.07679448</pitch>
        <yaw>2.23402143</yaw>
        <rollspeed>0</rollspeed>
        <pitchspeed>0</pitchspeed>
        <yawspeed>0</yawspeed>
      </mission_attitude>
    </posture>
    <posture>
      <time>2017-02-21T15:20:43.9435625+08:00</time>
      <mission_attitude>
        <time_boot_ms>957860000</time_boot_ms>
        <roll>-0.02443461</roll>
        <pitch>-0.07679448</pitch>
        <yaw>2.23402143</yaw>
        <rollspeed>0</rollspeed>
        <pitchspeed>0</pitchspeed>
        <yawspeed>0</yawspeed>
      </mission_attitude>
    </posture>
    <posture>
      <time>2017-02-21T15:20:44.9436197+08:00</time>
      <mission_attitude>
        <time_boot_ms>958860000</time_boot_ms>
        <roll>-0.02443461</roll>
        <pitch>-0.07679448</pitch>
        <yaw>2.216568</yaw>
        <rollspeed>0</rollspeed>
        <pitchspeed>0</pitchspeed>
        <yawspeed>0</yawspeed>
      </mission_attitude>
    </posture>
    <posture>
      <time>2017-02-21T15:20:45.893674+08:00</time>
      <mission_attitude>
        <time_boot_ms>959840000</time_boot_ms>
        <roll>-0.02443461</roll>
        <pitch>-0.07679448</pitch>
        <yaw>2.1991148</yaw>
        <rollspeed>0</rollspeed>
        <pitchspeed>0</pitchspeed>
        <yawspeed>0</yawspeed>
      </mission_attitude>
    </posture>
    <posture>
      <time>2017-02-21T15:20:46.993737+08:00</time>
      <mission_attitude>
        <time_boot_ms>960860000</time_boot_ms>
        <roll>-0.02443461</roll>
        <pitch>-0.07679448</pitch>
        <yaw>2.1991148</yaw>
        <rollspeed>0</rollspeed>
        <pitchspeed>0</pitchspeed>
        <yawspeed>0</yawspeed>
      </mission_attitude>
    </posture>
    <posture>
      <time>2017-02-21T15:20:47.9437913+08:00</time>
      <mission_attitude>
        <time_boot_ms>961840000</time_boot_ms>
        <roll>-0.02443461</roll>
        <pitch>-0.07679448</pitch>
        <yaw>2.23402143</yaw>
        <rollspeed>0</rollspeed>
        <pitchspeed>0</pitchspeed>
        <yawspeed>0</yawspeed>
      </mission_attitude>
    </posture>
    <posture>
      <time>2017-02-21T15:20:48.9938514+08:00</time>
      <mission_attitude>
        <time_boot_ms>962860000</time_boot_ms>
        <roll>-0.02443461</roll>
        <pitch>-0.07679448</pitch>
        <yaw>2.32128787</yaw>
        <rollspeed>0</rollspeed>
        <pitchspeed>0</pitchspeed>
        <yawspeed>0</yawspeed>
      </mission_attitude>
    </posture>
    <posture>
      <time>2017-02-21T15:20:49.9939086+08:00</time>
      <mission_attitude>
        <time_boot_ms>963860000</time_boot_ms>
        <roll>-0.02443461</roll>
        <pitch>-0.07679448</pitch>
        <yaw>2.268928</yaw>
        <rollspeed>0</rollspeed>
        <pitchspeed>0</pitchspeed>
        <yawspeed>0</yawspeed>
      </mission_attitude>
    </posture>
    <posture>
      <time>2017-02-21T15:20:50.9929657+08:00</time>
      <mission_attitude>
        <time_boot_ms>964860000</time_boot_ms>
        <roll>-0.02443461</roll>
        <pitch>-0.07679448</pitch>
        <yaw>2.30383468</yaw>
        <rollspeed>0</rollspeed>
        <pitchspeed>0</pitchspeed>
        <yawspeed>0</yawspeed>
      </mission_attitude>
    </posture>
    <posture>
      <time>2017-02-21T15:20:51.9930229+08:00</time>
      <mission_attitude>
        <time_boot_ms>965840000</time_boot_ms>
        <roll>-0.02443461</roll>
        <pitch>-0.07679448</pitch>
        <yaw>2.1991148</yaw>
        <rollspeed>0</rollspeed>
        <pitchspeed>0</pitchspeed>
        <yawspeed>0</yawspeed>
      </mission_attitude>
    </posture>
    <posture>
      <time>2017-02-21T15:20:52.9930801+08:00</time>
      <mission_attitude>
        <time_boot_ms>966840000</time_boot_ms>
        <roll>-0.02443461</roll>
        <pitch>-0.07679448</pitch>
        <yaw>2.16420817</yaw>
        <rollspeed>0</rollspeed>
        <pitchspeed>0</pitchspeed>
        <yawspeed>0</yawspeed>
      </mission_attitude>
    </posture>
    <posture>
      <time>2017-02-21T15:20:53.9931373+08:00</time>
      <mission_attitude>
        <time_boot_ms>967820000</time_boot_ms>
        <roll>-0.02443461</roll>
        <pitch>-0.07679448</pitch>
        <yaw>2.23402143</yaw>
        <rollspeed>0</rollspeed>
        <pitchspeed>0</pitchspeed>
        <yawspeed>0</yawspeed>
      </mission_attitude>
    </posture>
    <posture>
      <time>2017-02-21T15:20:54.9931945+08:00</time>
      <mission_attitude>
        <time_boot_ms>968820000</time_boot_ms>
        <roll>-0.02443461</roll>
        <pitch>-0.07679448</pitch>
        <yaw>2.18166161</yaw>
        <rollspeed>0</rollspeed>
        <pitchspeed>0</pitchspeed>
        <yawspeed>0</yawspeed>
      </mission_attitude>
    </posture>
    <posture>
      <time>2017-02-21T15:20:55.9432488+08:00</time>
      <mission_attitude>
        <time_boot_ms>969820000</time_boot_ms>
        <roll>-0.02443461</roll>
        <pitch>-0.07679448</pitch>
        <yaw>2.25147462</yaw>
